[{"town":"飯田干拓","koaza":"","lat":35.746252,"lng":140.239256},{"town":"飯野干拓","koaza":"","lat":35.75224,"lng":140.197509},{"town":"臼井台干拓","koaza":"","lat":35.746957,"lng":140.174117},{"town":"臼井田干拓","koaza":"","lat":35.739868,"lng":140.189122},{"town":"内田・飯塚・宮内入会","koaza":"","lat":35.632994,"lng":140.240407},{"town":"大佐倉干拓","koaza":"","lat":35.74081,"lng":140.250515},{"town":"小竹干拓","koaza":"","lat":35.747124,"lng":140.167075},{"town":"土浮干拓","koaza":"","lat":35.757789,"lng":140.215903},{"town":"萩山新田干拓","koaza":"","lat":35.751938,"lng":140.228697},{"town":"先崎干拓","koaza":"","lat":35.753557,"lng":140.159477},{"town":"青菅","koaza":"","lat":35.742274,"lng":140.141572},{"town":"畔田","koaza":"","lat":35.704864,"lng":140.171515},{"town":"天辺","koaza":"","lat":35.686693,"lng":140.250038},{"town":"飯重","koaza":"","lat":35.720154,"lng":140.201204},{"town":"飯田","koaza":"","lat":35.736057,"lng":140.238019},{"town":"飯田台","koaza":"","lat":35.741804,"lng":140.237345},{"town":"飯塚","koaza":"","lat":35.644077,"lng":140.238197},{"town":"飯野","koaza":"","lat":35.745484,"lng":140.209326},{"town":"飯野町","koaza":"","lat":35.750367,"lng":140.202937},{"town":"石川","koaza":"","lat":35.69794,"lng":140.229559},{"town":"稲荷台一丁目","koaza":"","lat":35.731238,"lng":140.179823},{"town":"稲荷台二丁目","koaza":"","lat":35.728392,"lng":140.177342},{"town":"稲荷台三丁目","koaza":"","lat":35.727873,"lng":140.174745},{"town":"稲荷台四丁目","koaza":"","lat":35.727151,"lng":140.172704},{"town":"井野","koaza":"","lat":35.721983,"lng":140.142167},{"town":"井野町","koaza":"","lat":35.716785,"lng":140.134683},{"town":"岩富","koaza":"","lat":35.660674,"lng":140.245727},{"town":"岩富町","koaza":"","lat":35.651336,"lng":140.240828},{"town":"岩名","koaza":"","lat":35.737329,"lng":140.225314},{"town":"印南","koaza":"","lat":35.721851,"lng":140.20891},{"town":"臼井","koaza":"","lat":35.730741,"lng":140.19053},{"town":"臼井田","koaza":"","lat":35.739346,"lng":140.197295},{"town":"臼井台","koaza":"","lat":35.733217,"lng":140.176593},{"town":"内田","koaza":"","lat":35.641367,"lng":140.228743},{"town":"裏新町","koaza":"","lat":35.718801,"lng":140.231922},{"town":"瓜坪新田","koaza":"","lat":35.681424,"lng":140.280569},{"town":"江原","koaza":"","lat":35.731304,"lng":140.201774},{"town":"江原新田","koaza":"","lat":35.729169,"lng":140.200302},{"town":"江原台一丁目","koaza":"","lat":35.73337,"lng":140.20212},{"town":"江原台二丁目","koaza":"","lat":35.736447,"lng":140.202821},{"town":"王子台一丁目","koaza":"","lat":35.730566,"lng":140.183577},{"town":"王子台二丁目","koaza":"","lat":35.728617,"lng":140.185821},{"town":"王子台三丁目","koaza":"","lat":35.72704,"lng":140.179829},{"town":"王子台四丁目","koaza":"","lat":35.724498,"lng":140.181644},{"town":"王子台五丁目","koaza":"","lat":35.72346,"lng":140.175582},{"town":"王子台六丁目","koaza":"","lat":35.720324,"lng":140.179553},{"town":"大崎台一丁目","koaza":"","lat":35.708203,"lng":140.224102},{"town":"大崎台二丁目","koaza":"","lat":35.705383,"lng":140.225734},{"town":"大崎台三丁目","koaza":"","lat":35.705038,"lng":140.222236},{"town":"大崎台四丁目","koaza":"","lat":35.704119,"lng":140.216826},{"town":"大崎台五丁目","koaza":"","lat":35.700522,"lng":140.215247},{"town":"大作一丁目","koaza":"","lat":35.672697,"lng":140.243749},{"town":"大作二丁目","koaza":"","lat":35.676108,"lng":140.247964},{"town":"大佐倉","koaza":"","lat":35.734231,"lng":140.251925},{"town":"大篠塚","koaza":"","lat":35.681913,"lng":140.211385},{"town":"大蛇町","koaza":"","lat":35.716204,"lng":140.242458},{"town":"太田","koaza":"","lat":35.694074,"lng":140.216327},{"town":"小竹","koaza":"","lat":35.738746,"lng":140.162607},{"town":"生谷","koaza":"","lat":35.710493,"lng":140.18195},{"town":"表町一丁目","koaza":"","lat":35.710065,"lng":140.223359},{"town":"表町二丁目","koaza":"","lat":35.712212,"lng":140.223099},{"town":"表町三丁目","koaza":"","lat":35.711587,"lng":140.228477},{"town":"表町四丁目","koaza":"","lat":35.712277,"lng":140.231999},{"town":"海隣寺町","koaza":"","lat":35.723398,"lng":140.224194},{"town":"角来","koaza":"","lat":35.733591,"lng":140.210416},{"town":"鹿島干拓","koaza":"","lat":35.735897,"lng":140.214295},{"town":"鏑木仲田町","koaza":"","lat":35.714425,"lng":140.232037},{"town":"鏑木町","koaza":"","lat":35.718416,"lng":140.217355},{"town":"鏑木町一丁目","koaza":"","lat":35.714209,"lng":140.225286},{"town":"鏑木町二丁目","koaza":"","lat":35.712741,"lng":140.225572},{"town":"上勝田","koaza":"","lat":35.696985,"lng":140.280152},{"town":"上志津","koaza":"","lat":35.712882,"lng":140.144186},{"town":"上志津原","koaza":"","lat":35.699333,"lng":140.144411},{"town":"上代","koaza":"","lat":35.71349,"lng":140.253047},{"town":"上別所","koaza":"","lat":35.674511,"lng":140.264152},{"town":"木野子","koaza":"","lat":35.685911,"lng":140.235122},{"town":"小篠塚","koaza":"","lat":35.681156,"lng":140.224071},{"town":"米戸","koaza":"","lat":35.681887,"lng":140.268793},{"town":"神門","koaza":"","lat":35.675781,"lng":140.236782},{"town":"栄町","koaza":"","lat":35.723936,"lng":140.230443},{"town":"坂戸","koaza":"","lat":35.657304,"lng":140.222982},{"town":"寒風","koaza":"","lat":35.696933,"lng":140.251771},{"town":"山王一丁目","koaza":"","lat":35.685629,"lng":140.206007},{"town":"山王二丁目","koaza":"","lat":35.685851,"lng":140.215282},{"town":"下勝田","koaza":"","lat":35.693779,"lng":140.266911},{"town":"下志津","koaza":"","lat":35.707654,"lng":140.162887},{"town":"下志津原","koaza":"","lat":35.699808,"lng":140.161622},{"town":"下根","koaza":"","lat":35.734142,"lng":140.221595},{"town":"下根町","koaza":"","lat":35.734878,"lng":140.222103},{"town":"白銀一丁目","koaza":"","lat":35.713863,"lng":140.248761},{"town":"白銀二丁目","koaza":"","lat":35.712246,"lng":140.243265},{"town":"白銀三丁目","koaza":"","lat":35.71134,"lng":140.248081},{"town":"白銀四丁目","koaza":"","lat":35.708945,"lng":140.249499},{"town":"新臼井田","koaza":"","lat":35.733367,"lng":140.190879},{"town":"新町","koaza":"","lat":35.719448,"lng":140.230562},{"town":"樹木町","koaza":"","lat":35.719176,"lng":140.240443},{"town":"城","koaza":"","lat":35.694414,"lng":140.230969},{"town":"上座","koaza":"","lat":35.724077,"lng":140.16283},{"town":"城内町","koaza":"","lat":35.721071,"lng":140.219068},{"town":"千成一丁目","koaza":"","lat":35.723856,"lng":140.239168},{"town":"千成二丁目","koaza":"","lat":35.724591,"lng":140.241277},{"town":"千成三丁目","koaza":"","lat":35.723378,"lng":140.243135},{"town":"染井野一丁目","koaza":"","lat":35.722649,"lng":140.197618},{"town":"染井野二丁目","koaza":"","lat":35.72469,"lng":140.194081},{"town":"染井野三丁目","koaza":"","lat":35.72236,"lng":140.190522},{"town":"染井野四丁目","koaza":"","lat":35.718213,"lng":140.191522},{"town":"染井野五丁目","koaza":"","lat":35.719901,"lng":140.188995},{"town":"染井野六丁目","koaza":"","lat":35.714049,"lng":140.18616},{"town":"染井野七丁目","koaza":"","lat":35.713454,"lng":140.191068},{"town":"高岡","koaza":"","lat":35.710241,"lng":140.240346},{"town":"高崎","koaza":"","lat":35.694035,"lng":140.242783},{"town":"田町","koaza":"","lat":35.72521,"lng":140.222865},{"town":"土浮","koaza":"","lat":35.754735,"lng":140.212936},{"town":"坪山新田","koaza":"","lat":35.682818,"lng":140.276182},{"town":"寺崎","koaza":"","lat":35.710208,"lng":140.21336},{"town":"寺崎北一丁目","koaza":"","lat":35.710569,"lng":140.219547},{"town":"寺崎北二丁目","koaza":"","lat":35.709741,"lng":140.217653},{"town":"寺崎北三丁目","koaza":"","lat":35.712169,"lng":140.219547},{"town":"寺崎北四丁目","koaza":"","lat":35.712156,"lng":140.216676},{"town":"寺崎北五丁目","koaza":"","lat":35.714005,"lng":140.219463},{"town":"寺崎北六丁目","koaza":"","lat":35.715626,"lng":140.21626},{"town":"藤治台","koaza":"","lat":35.694685,"lng":140.233177},{"town":"直弥","koaza":"","lat":35.681478,"lng":140.255459},{"town":"中志津一丁目","koaza":"","lat":35.712025,"lng":140.151613},{"town":"中志津二丁目","koaza":"","lat":35.712006,"lng":140.154911},{"town":"中志津三丁目","koaza":"","lat":35.711919,"lng":140.157734},{"town":"中志津四丁目","koaza":"","lat":35.708871,"lng":140.156992},{"town":"中志津五丁目","koaza":"","lat":35.707445,"lng":140.154088},{"town":"中志津六丁目","koaza":"","lat":35.70604,"lng":140.153038},{"town":"中志津七丁目","koaza":"","lat":35.703564,"lng":140.152627},{"town":"中尾余町","koaza":"","lat":35.720699,"lng":140.230761},{"town":"長熊","koaza":"","lat":35.710399,"lng":140.256234},{"town":"七曲","koaza":"","lat":35.642156,"lng":140.251578},{"town":"鍋山町","koaza":"","lat":35.723666,"lng":140.235838},{"town":"並木町","koaza":"","lat":35.722411,"lng":140.226196},{"town":"西志津一丁目","koaza":"","lat":35.715478,"lng":140.139917},{"town":"西志津二丁目","koaza":"","lat":35.715072,"lng":140.135459},{"town":"西志津三丁目","koaza":"","lat":35.712354,"lng":140.135164},{"town":"西志津四丁目","koaza":"","lat":35.711401,"lng":140.140799},{"town":"西志津五丁目","koaza":"","lat":35.710152,"lng":140.135673},{"town":"西志津六丁目","koaza":"","lat":35.707653,"lng":140.136514},{"town":"西志津七丁目","koaza":"","lat":35.705892,"lng":140.137549},{"town":"西志津八丁目","koaza":"","lat":35.706867,"lng":140.140158},{"town":"西御門","koaza":"","lat":35.632061,"lng":140.249826},{"town":"西ユーカリが丘一丁目","koaza":"","lat":35.736718,"lng":140.144349},{"town":"西ユーカリが丘二丁目","koaza":"","lat":35.733432,"lng":140.142754},{"town":"西ユーカリが丘三丁目","koaza":"","lat":35.730568,"lng":140.145454},{"town":"西ユーカリが丘四丁目","koaza":"","lat":35.728818,"lng":140.14633},{"town":"西ユーカリが丘五丁目","koaza":"","lat":35.729297,"lng":140.149118},{"town":"西ユーカリが丘六丁目","koaza":"","lat":35.725893,"lng":140.150808},{"town":"西ユーカリが丘七丁目","koaza":"","lat":35.727374,"lng":140.152752},{"town":"萩山新田","koaza":"","lat":35.747734,"lng":140.223485},{"town":"八幡台一丁目","koaza":"","lat":35.742345,"lng":140.173726},{"town":"八幡台二丁目","koaza":"","lat":35.740831,"lng":140.171818},{"town":"八幡台三丁目","koaza":"","lat":35.738374,"lng":140.171321},{"town":"羽鳥","koaza":"","lat":35.709607,"lng":140.201497},{"town":"春路一丁目","koaza":"","lat":35.699137,"lng":140.232897},{"town":"春路二丁目","koaza":"","lat":35.701445,"lng":140.235589},{"town":"藤沢町","koaza":"","lat":35.720336,"lng":140.248876},{"town":"将門町","koaza":"","lat":35.725847,"lng":140.249656},{"town":"先崎","koaza":"","lat":35.751491,"lng":140.152635},{"town":"馬渡","koaza":"","lat":35.66688,"lng":140.220963},{"town":"南臼井台","koaza":"","lat":35.731624,"lng":140.173236},{"town":"南ユーカリが丘","koaza":"","lat":35.718599,"lng":140.155164},{"town":"宮内","koaza":"","lat":35.638607,"lng":140.245212},{"town":"宮小路町","koaza":"","lat":35.718461,"lng":140.227258},{"town":"宮ノ台一丁目","koaza":"","lat":35.743998,"lng":140.150385},{"town":"宮ノ台二丁目","koaza":"","lat":35.743611,"lng":140.146255},{"town":"宮ノ台三丁目","koaza":"","lat":35.739724,"lng":140.146797},{"town":"宮ノ台四丁目","koaza":"","lat":35.739818,"lng":140.143373},{"town":"宮ノ台五丁目","koaza":"","lat":35.735786,"lng":140.146219},{"town":"宮ノ台六丁目","koaza":"","lat":35.739391,"lng":140.149835},{"town":"宮前一丁目","koaza":"","lat":35.731154,"lng":140.229334},{"town":"宮前二丁目","koaza":"","lat":35.734561,"lng":140.229213},{"town":"宮前三丁目","koaza":"","lat":35.727319,"lng":140.229608},{"town":"宮本","koaza":"","lat":35.685707,"lng":140.244722},{"town":"弥勒町","koaza":"","lat":35.718825,"lng":140.236614},{"town":"六崎","koaza":"","lat":35.701699,"lng":140.225173},{"town":"最上町","koaza":"","lat":35.721429,"lng":140.233424},{"town":"本町","koaza":"","lat":35.718836,"lng":140.244359},{"town":"八木","koaza":"","lat":35.703555,"lng":140.255652},{"town":"野狐台町","koaza":"","lat":35.716684,"lng":140.238238},{"town":"山崎","koaza":"","lat":35.728725,"lng":140.223685},{"town":"ユーカリが丘一丁目","koaza":"","lat":35.733697,"lng":140.158213},{"town":"ユーカリが丘二丁目","koaza":"","lat":35.729426,"lng":140.155928},{"town":"ユーカリが丘三丁目","koaza":"","lat":35.725343,"lng":140.156192},{"town":"ユーカリが丘四丁目","koaza":"","lat":35.724359,"lng":140.154335},{"town":"ユーカリが丘五丁目","koaza":"","lat":35.739134,"lng":140.155492},{"town":"ユーカリが丘六丁目","koaza":"","lat":35.729218,"lng":140.152836},{"town":"ユーカリが丘七丁目","koaza":"","lat":35.731852,"lng":140.148131},{"town":"吉見","koaza":"","lat":35.70615,"lng":140.189204}]