[{"town":"相嶋","koaza":"","lat":"35.844549","lng":"140.144523"},{"town":"安食卜杭","koaza":"","lat":"35.834534","lng":"140.222518"},{"town":"泉","koaza":"","lat":"35.810893","lng":"140.128976"},{"town":"和泉","koaza":"","lat":"35.819921","lng":"140.124192"},{"town":"泉野一丁目","koaza":"","lat":"35.804461","lng":"140.123437"},{"town":"泉野二丁目","koaza":"","lat":"35.806417","lng":"140.125447"},{"town":"泉野三丁目","koaza":"","lat":"35.806326","lng":"140.128964"},{"town":"和泉屋","koaza":"","lat":"35.821820","lng":"140.216568"},{"town":"岩戸","koaza":"","lat":"35.766949","lng":"140.169334"},{"town":"岩戸干拓","koaza":"","lat":"35.751730","lng":"140.167456"},{"town":"内野一丁目","koaza":"","lat":"35.796191","lng":"140.127024"},{"town":"内野二丁目","koaza":"","lat":"35.794783","lng":"140.122923"},{"town":"内野三丁目","koaza":"","lat":"35.789679","lng":"140.124062"},{"town":"浦幡新田","koaza":"","lat":"35.812271","lng":"140.103196"},{"town":"浦部","koaza":"","lat":"35.823487","lng":"140.104791"},{"town":"浦部村新田","koaza":"","lat":"35.830138","lng":"140.102512"},{"town":"大塚一丁目","koaza":"","lat":"35.804564","lng":"140.119768"},{"town":"大塚二丁目","koaza":"","lat":"35.808285","lng":"140.117870"},{"town":"大塚三丁目","koaza":"","lat":"35.812722","lng":"140.121557"},{"town":"大廻","koaza":"","lat":"35.781123","lng":"140.182524"},{"town":"大森","koaza":"","lat":"35.827121","lng":"140.142079"},{"town":"小倉","koaza":"","lat":"35.816579","lng":"140.114629"},{"town":"小倉台一丁目","koaza":"","lat":"35.805064","lng":"140.114476"},{"town":"小倉台二丁目","koaza":"","lat":"35.803769","lng":"140.110242"},{"town":"小倉台三丁目","koaza":"","lat":"35.805828","lng":"140.110421"},{"town":"小倉台四丁目","koaza":"","lat":"35.807148","lng":"140.113736"},{"town":"押付","koaza":"","lat":"35.819301","lng":"140.211511"},{"town":"鹿黒","koaza":"","lat":"35.823127","lng":"140.132986"},{"town":"鹿黒南一丁目","koaza":"","lat":"35.814812","lng":"140.129322"},{"town":"鹿黒南二丁目","koaza":"","lat":"35.817863","lng":"140.132405"},{"town":"鹿黒南三丁目","koaza":"","lat":"35.817454","lng":"140.136927"},{"town":"鹿黒南四丁目","koaza":"","lat":"35.813907","lng":"140.137429"},{"town":"鹿黒南五丁目","koaza":"","lat":"35.812952","lng":"140.134917"},{"town":"笠神","koaza":"","lat":"35.821597","lng":"140.204397"},{"town":"鎌苅","koaza":"","lat":"35.777168","lng":"140.194401"},{"town":"鎌苅干拓","koaza":"","lat":"35.769402","lng":"140.203493"},{"town":"亀成","koaza":"","lat":"35.827786","lng":"140.123505"},{"town":"川向","koaza":"","lat":"35.824551","lng":"140.210757"},{"town":"木下","koaza":"","lat":"35.839234","lng":"140.155241"},{"town":"木下東一丁目","koaza":"","lat":"35.840809","lng":"140.159421"},{"town":"木下東二丁目","koaza":"","lat":"35.840779","lng":"140.161943"},{"town":"木下東三丁目","koaza":"","lat":"35.841725","lng":"140.166012"},{"town":"木下東四丁目","koaza":"","lat":"35.841112","lng":"140.168467"},{"town":"木下南一丁目","koaza":"","lat":"35.835926","lng":"140.152684"},{"town":"木下南二丁目","koaza":"","lat":"35.834446","lng":"140.152157"},{"town":"木刈一丁目","koaza":"","lat":"35.808983","lng":"140.111618"},{"town":"木刈二丁目","koaza":"","lat":"35.808282","lng":"140.107851"},{"town":"木刈三丁目","koaza":"","lat":"35.811214","lng":"140.108930"},{"town":"木刈四丁目","koaza":"","lat":"35.809876","lng":"140.103379"},{"town":"木刈五丁目","koaza":"","lat":"35.807656","lng":"140.101706"},{"town":"木刈六丁目","koaza":"","lat":"35.806311","lng":"140.105167"},{"town":"木刈七丁目","koaza":"","lat":"35.804553","lng":"140.102919"},{"town":"行徳","koaza":"","lat":"35.814014","lng":"140.214619"},{"town":"結縁寺","koaza":"","lat":"35.787950","lng":"140.140709"},{"town":"高西新田","koaza":"","lat":"35.814105","lng":"140.093753"},{"town":"荒野","koaza":"","lat":"35.794945","lng":"140.197223"},{"town":"小林","koaza":"","lat":"35.829213","lng":"140.187081"},{"town":"小林北一丁目","koaza":"","lat":"35.833349","lng":"140.190873"},{"town":"小林北二丁目","koaza":"","lat":"35.831723","lng":"140.193369"},{"town":"小林北三丁目","koaza":"","lat":"35.831788","lng":"140.196182"},{"town":"小林北四丁目","koaza":"","lat":"35.830112","lng":"140.195215"},{"town":"小林北五丁目","koaza":"","lat":"35.830974","lng":"140.198005"},{"town":"小林北六丁目","koaza":"","lat":"35.829829","lng":"140.199465"},{"town":"小林浅間一丁目","koaza":"","lat":"35.827399","lng":"140.192782"},{"town":"小林浅間二丁目","koaza":"","lat":"35.825283","lng":"140.191534"},{"town":"小林浅間三丁目","koaza":"","lat":"35.826294","lng":"140.193878"},{"town":"小林大門下一丁目","koaza":"","lat":"35.822436","lng":"140.188317"},{"town":"小林大門下二丁目","koaza":"","lat":"35.822705","lng":"140.183772"},{"town":"小林大門下三丁目","koaza":"","lat":"35.821037","lng":"140.185315"},{"town":"酒直卜杭","koaza":"","lat":"35.827740","lng":"140.230598"},{"town":"桜野","koaza":"","lat":"35.805296","lng":"140.219425"},{"town":"佐野屋","koaza":"","lat":"35.823636","lng":"140.211834"},{"town":"下井","koaza":"","lat":"35.814190","lng":"140.241342"},{"town":"下曽根","koaza":"","lat":"35.816673","lng":"140.215769"},{"town":"将監","koaza":"","lat":"35.834388","lng":"140.208438"},{"town":"白幡","koaza":"","lat":"35.816702","lng":"140.103170"},{"town":"白幡飛地","koaza":"","lat":"35.808016","lng":"140.099270"},{"town":"甚兵衛","koaza":"","lat":"35.818329","lng":"140.226065"},{"town":"瀬戸","koaza":"","lat":"35.772920","lng":"140.214937"},{"town":"瀬戸干拓","koaza":"","lat":"35.766420","lng":"140.215181"},{"town":"浅間前","koaza":"","lat":"35.844385","lng":"140.145145"},{"town":"草深","koaza":"","lat":"35.792028","lng":"140.156342"},{"town":"惣深新田飛地","koaza":"","lat":"35.784253","lng":"140.184432"},{"town":"宗甫","koaza":"","lat":"35.814968","lng":"140.165971"},{"town":"高花一丁目","koaza":"","lat":"35.797293","lng":"140.135264"},{"town":"高花二丁目","koaza":"","lat":"35.798838","lng":"140.139139"},{"town":"高花三丁目","koaza":"","lat":"35.798649","lng":"140.142253"},{"town":"高花四丁目","koaza":"","lat":"35.794928","lng":"140.140184"},{"town":"高花五丁目","koaza":"","lat":"35.794883","lng":"140.135720"},{"town":"高花六丁目","koaza":"","lat":"35.791839","lng":"140.143271"},{"town":"滝","koaza":"","lat":"35.815392","lng":"140.179607"},{"town":"滝野一丁目","koaza":"","lat":"35.811029","lng":"140.178838"},{"town":"滝野二丁目","koaza":"","lat":"35.808597","lng":"140.179117"},{"town":"滝野三丁目","koaza":"","lat":"35.807355","lng":"140.176858"},{"town":"滝野四丁目","koaza":"","lat":"35.807150","lng":"140.172936"},{"town":"滝野五丁目","koaza":"","lat":"35.809037","lng":"140.173735"},{"town":"滝野六丁目","koaza":"","lat":"35.810796","lng":"140.173589"},{"town":"滝野七丁目","koaza":"","lat":"35.812133","lng":"140.175882"},{"town":"竹袋","koaza":"","lat":"35.831392","lng":"140.159495"},{"town":"多々羅田","koaza":"","lat":"35.793417","lng":"140.129278"},{"town":"立埜原","koaza":"","lat":"35.821037","lng":"140.220919"},{"town":"中央北一丁目","koaza":"","lat":"35.802802","lng":"140.116048"},{"town":"中央北二丁目","koaza":"","lat":"35.800827","lng":"140.113320"},{"town":"中央北三丁目","koaza":"","lat":"35.802222","lng":"140.112162"},{"town":"中央南一丁目","koaza":"","lat":"35.799583","lng":"140.117414"},{"town":"中央南二丁目","koaza":"","lat":"35.798217","lng":"140.113660"},{"town":"造谷","koaza":"","lat":"35.789765","lng":"140.179868"},{"town":"つくりや台一丁目","koaza":"","lat":"35.796866","lng":"140.179506"},{"town":"つくりや台二丁目","koaza":"","lat":"35.793159","lng":"140.183864"},{"town":"角田","koaza":"","lat":"35.788743","lng":"140.192670"},{"town":"戸神","koaza":"","lat":"35.788246","lng":"140.116351"},{"town":"戸神台一丁目","koaza":"","lat":"35.796169","lng":"140.118224"},{"town":"戸神台二丁目","koaza":"","lat":"35.795448","lng":"140.115044"},{"town":"中","koaza":"","lat":"35.812226","lng":"140.221631"},{"town":"中田切","koaza":"","lat":"35.828642","lng":"140.218644"},{"town":"長門屋","koaza":"","lat":"35.809994","lng":"140.232850"},{"town":"中根","koaza":"","lat":"35.808391","lng":"140.197950"},{"town":"西の原一丁目","koaza":"","lat":"35.803481","lng":"140.157488"},{"town":"西の原二丁目","koaza":"","lat":"35.800195","lng":"140.155234"},{"town":"西の原三丁目","koaza":"","lat":"35.803448","lng":"140.153378"},{"town":"西の原四丁目","koaza":"","lat":"35.802957","lng":"140.149901"},{"town":"西の原五丁目","koaza":"","lat":"35.804575","lng":"140.143634"},{"town":"萩埜","koaza":"","lat":"35.814635","lng":"140.225247"},{"town":"萩原","koaza":"","lat":"35.800793","lng":"140.215138"},{"town":"萩原干拓","koaza":"","lat":"35.804666","lng":"140.226965"},{"town":"原一丁目","koaza":"","lat":"35.803356","lng":"140.164151"},{"town":"原二丁目","koaza":"","lat":"35.800598","lng":"140.165627"},{"town":"原三丁目","koaza":"","lat":"35.799195","lng":"140.165452"},{"town":"原四丁目","koaza":"","lat":"35.800000","lng":"140.160923"},{"town":"原山一丁目","koaza":"","lat":"35.800855","lng":"140.124669"},{"town":"原山二丁目","koaza":"","lat":"35.802274","lng":"140.130172"},{"town":"原山三丁目","koaza":"","lat":"35.798320","lng":"140.130726"},{"town":"東の原一丁目","koaza":"","lat":"35.800551","lng":"140.173512"},{"town":"東の原二丁目","koaza":"","lat":"35.799471","lng":"140.170313"},{"town":"東の原三丁目","koaza":"","lat":"35.795146","lng":"140.171347"},{"town":"平岡","koaza":"","lat":"35.833883","lng":"140.173267"},{"town":"平賀","koaza":"","lat":"35.759791","lng":"140.245624"},{"town":"平賀学園台一丁目","koaza":"","lat":"35.747075","lng":"140.255302"},{"town":"平賀学園台二丁目","koaza":"","lat":"35.751360","lng":"140.250480"},{"town":"平賀学園台三丁目","koaza":"","lat":"35.750447","lng":"140.248114"},{"town":"平賀干拓","koaza":"","lat":"35.742309","lng":"140.261778"},{"town":"船尾","koaza":"","lat":"35.784263","lng":"140.128090"},{"town":"別所","koaza":"","lat":"35.822964","lng":"140.157339"},{"town":"発作","koaza":"","lat":"35.838814","lng":"140.119027"},{"town":"舞姫一丁目","koaza":"","lat":"35.783901","lng":"140.202800"},{"town":"舞姫二丁目","koaza":"","lat":"35.783893","lng":"140.205026"},{"town":"舞姫三丁目","koaza":"","lat":"35.784962","lng":"140.207579"},{"town":"牧の木戸一丁目","koaza":"","lat":"35.809521","lng":"140.115092"},{"town":"牧の台一丁目","koaza":"","lat":"35.815973","lng":"140.163640"},{"town":"牧の台二丁目","koaza":"","lat":"35.815744","lng":"140.158992"},{"town":"牧の台三丁目","koaza":"","lat":"35.813871","lng":"140.154823"},{"town":"牧の原一丁目","koaza":"","lat":"35.805387","lng":"140.164870"},{"town":"牧の原二丁目","koaza":"","lat":"35.807000","lng":"140.155776"},{"town":"牧の原三丁目","koaza":"","lat":"35.809501","lng":"140.158855"},{"town":"牧の原四丁目","koaza":"","lat":"35.808370","lng":"140.164546"},{"town":"牧の原五丁目","koaza":"","lat":"35.809887","lng":"140.168330"},{"town":"牧の原六丁目","koaza":"","lat":"35.803319","lng":"140.173292"},{"town":"松木","koaza":"","lat":"35.831072","lng":"140.215674"},{"town":"松崎","koaza":"","lat":"35.776929","lng":"140.139594"},{"town":"松崎台一丁目","koaza":"","lat":"35.783845","lng":"140.144981"},{"town":"松崎台二丁目","koaza":"","lat":"35.780135","lng":"140.146214"},{"town":"松虫","koaza":"","lat":"35.789247","lng":"140.215545"},{"town":"美瀬一丁目","koaza":"","lat":"35.780994","lng":"140.206194"},{"town":"美瀬二丁目","koaza":"","lat":"35.783938","lng":"140.208735"},{"town":"みどり台一丁目","koaza":"","lat":"35.797698","lng":"140.185766"},{"town":"みどり台二丁目","koaza":"","lat":"35.792672","lng":"140.191232"},{"town":"みどり台三丁目","koaza":"","lat":"35.792277","lng":"140.187855"},{"town":"武西","koaza":"","lat":"35.788063","lng":"140.106019"},{"town":"武西学園台一丁目","koaza":"","lat":"35.797212","lng":"140.110856"},{"town":"武西学園台二丁目","koaza":"","lat":"35.794426","lng":"140.108943"},{"town":"武西学園台三丁目","koaza":"","lat":"35.793478","lng":"140.112487"},{"town":"本埜小林","koaza":"","lat":"35.831772","lng":"140.205188"},{"town":"物木","koaza":"","lat":"35.819129","lng":"140.188010"},{"town":"師戸","koaza":"","lat":"35.759212","lng":"140.188181"},{"town":"師戸干拓","koaza":"","lat":"35.757345","lng":"140.191910"},{"town":"山田","koaza":"","lat":"35.769741","lng":"140.234557"},{"town":"山田干拓一区","koaza":"","lat":"35.757426","lng":"140.227560"},{"town":"山田干拓二区","koaza":"","lat":"35.782070","lng":"140.250495"},{"town":"山平一区","koaza":"","lat":"35.774973","lng":"140.254808"},{"town":"山平二区","koaza":"","lat":"35.780527","lng":"140.246379"},{"town":"吉田","koaza":"","lat":"35.770321","lng":"140.152113"},{"town":"吉高","koaza":"","lat":"35.791211","lng":"140.235333"},{"town":"吉高干拓","koaza":"","lat":"35.796094","lng":"140.243043"},{"town":"吉田干拓","koaza":"","lat":"35.761041","lng":"140.152235"},{"town":"竜腹寺","koaza":"","lat":"35.802718","lng":"140.185749"},{"town":"若萩一丁目","koaza":"","lat":"35.787243","lng":"140.206314"},{"town":"若萩二丁目","koaza":"","lat":"35.790821","lng":"140.205112"},{"town":"若萩三丁目","koaza":"","lat":"35.789178","lng":"140.207689"},{"town":"若萩四丁目","koaza":"","lat":"35.789349","lng":"140.211162"}]