[{"town":"粟野","koaza":"","lat":35.785893,"lng":140.009996},{"town":"右京塚","koaza":"","lat":35.763752,"lng":140.003412},{"town":"鎌ケ谷一丁目","koaza":"","lat":35.758318,"lng":140.01422},{"town":"鎌ケ谷二丁目","koaza":"","lat":35.757698,"lng":140.007183},{"town":"鎌ケ谷三丁目","koaza":"","lat":35.756977,"lng":140.010421},{"town":"鎌ケ谷四丁目","koaza":"","lat":35.755844,"lng":140.013301},{"town":"鎌ケ谷五丁目","koaza":"","lat":35.754594,"lng":140.016113},{"town":"鎌ケ谷六丁目","koaza":"","lat":35.751472,"lng":140.012614},{"town":"鎌ケ谷七丁目","koaza":"","lat":35.751618,"lng":140.010221},{"town":"鎌ケ谷八丁目","koaza":"","lat":35.754357,"lng":140.007725},{"town":"鎌ケ谷九丁目","koaza":"","lat":35.751443,"lng":140.006313},{"town":"軽井沢","koaza":"","lat":35.790745,"lng":140.018412},{"town":"北中沢一丁目","koaza":"","lat":35.775852,"lng":139.988859},{"town":"北中沢二丁目","koaza":"","lat":35.77142,"lng":139.985629},{"town":"北中沢三丁目","koaza":"","lat":35.774337,"lng":139.985066},{"town":"北初富","koaza":"","lat":35.777972,"lng":139.990056},{"town":"串崎新田","koaza":"","lat":35.779563,"lng":139.98909},{"town":"くぬぎ山一丁目","koaza":"","lat":35.785664,"lng":139.972479},{"town":"くぬぎ山二丁目","koaza":"","lat":35.7823,"lng":139.970302},{"town":"くぬぎ山三丁目","koaza":"","lat":35.779559,"lng":139.970718},{"town":"くぬぎ山四丁目","koaza":"","lat":35.781726,"lng":139.973821},{"town":"くぬぎ山五丁目","koaza":"","lat":35.783728,"lng":139.97839},{"town":"佐津間","koaza":"","lat":35.796614,"lng":140.011926},{"town":"新鎌ケ谷一丁目","koaza":"","lat":35.779468,"lng":139.998581},{"town":"新鎌ケ谷二丁目","koaza":"","lat":35.779195,"lng":140.000698},{"town":"新鎌ケ谷三丁目","koaza":"","lat":35.777787,"lng":140.002302},{"town":"新鎌ケ谷四丁目","koaza":"","lat":35.781995,"lng":140.003889},{"town":"中央一丁目","koaza":"","lat":35.774476,"lng":140.00232},{"town":"中央二丁目","koaza":"","lat":35.775872,"lng":140.004662},{"town":"富岡一丁目","koaza":"","lat":35.76941,"lng":139.99965},{"town":"富岡二丁目","koaza":"","lat":35.765712,"lng":140.001573},{"town":"富岡三丁目","koaza":"","lat":35.769055,"lng":139.996924},{"town":"中佐津間一丁目","koaza":"","lat":35.798895,"lng":140.004103},{"town":"中佐津間二丁目","koaza":"","lat":35.800253,"lng":140.002133},{"town":"中沢","koaza":"","lat":35.76156,"lng":139.984192},{"town":"中沢新町","koaza":"","lat":35.761163,"lng":139.991226},{"town":"西佐津間一丁目","koaza":"","lat":35.799671,"lng":140.000255},{"town":"西佐津間二丁目","koaza":"","lat":35.799079,"lng":139.997692},{"town":"西道野辺","koaza":"","lat":35.752152,"lng":139.9861},{"town":"初富","koaza":"","lat":35.782955,"lng":139.985791},{"town":"初富本町一丁目","koaza":"","lat":35.774767,"lng":139.997916},{"town":"初富本町二丁目","koaza":"","lat":35.772981,"lng":139.996361},{"town":"東鎌ケ谷一丁目","koaza":"","lat":35.764056,"lng":140.016195},{"town":"東鎌ケ谷二丁目","koaza":"","lat":35.763517,"lng":140.019534},{"town":"東鎌ケ谷三丁目","koaza":"","lat":35.762332,"lng":140.022177},{"town":"東中沢一丁目","koaza":"","lat":35.773498,"lng":139.990406},{"town":"東中沢二丁目","koaza":"","lat":35.77191,"lng":139.992896},{"town":"東中沢三丁目","koaza":"","lat":35.766278,"lng":139.990223},{"town":"東中沢四丁目","koaza":"","lat":35.768663,"lng":139.987687},{"town":"東初富一丁目","koaza":"","lat":35.773633,"lng":140.014053},{"town":"東初富二丁目","koaza":"","lat":35.77023,"lng":140.011808},{"town":"東初富三丁目","koaza":"","lat":35.768544,"lng":140.012746},{"town":"東初富四丁目","koaza":"","lat":35.765701,"lng":140.008739},{"town":"東初富五丁目","koaza":"","lat":35.764434,"lng":140.013195},{"town":"東初富六丁目","koaza":"","lat":35.761836,"lng":140.012106},{"town":"東道野辺一丁目","koaza":"","lat":35.757268,"lng":139.993886},{"town":"東道野辺二丁目","koaza":"","lat":35.75878,"lng":139.999077},{"town":"東道野辺三丁目","koaza":"","lat":35.754336,"lng":139.996849},{"town":"東道野辺四丁目","koaza":"","lat":35.755523,"lng":140.002541},{"town":"東道野辺五丁目","koaza":"","lat":35.750668,"lng":140.000722},{"town":"東道野辺六丁目","koaza":"","lat":35.749611,"lng":140.003221},{"town":"東道野辺七丁目","koaza":"","lat":35.745662,"lng":139.998687},{"town":"馬込沢","koaza":"","lat":35.744925,"lng":139.988308},{"town":"丸山一丁目","koaza":"","lat":35.761905,"lng":140.009591},{"town":"丸山二丁目","koaza":"","lat":35.760973,"lng":140.006578},{"town":"丸山三丁目","koaza":"","lat":35.760176,"lng":140.003218},{"town":"道野辺","koaza":"","lat":35.75529,"lng":139.989299},{"town":"道野辺中央一丁目","koaza":"","lat":35.766448,"lng":139.996103},{"town":"道野辺中央二丁目","koaza":"","lat":35.764221,"lng":139.995349},{"town":"道野辺中央三丁目","koaza":"","lat":35.765307,"lng":139.993236},{"town":"道野辺中央四丁目","koaza":"","lat":35.762555,"lng":139.993583},{"town":"道野辺中央五丁目","koaza":"","lat":35.759982,"lng":139.993174},{"town":"道野辺本町一丁目","koaza":"","lat":35.764802,"lng":139.998556},{"town":"道野辺本町二丁目","koaza":"","lat":35.761514,"lng":139.999076},{"town":"南鎌ケ谷一丁目","koaza":"","lat":35.746896,"lng":140.002716},{"town":"南鎌ケ谷二丁目","koaza":"","lat":35.747432,"lng":140.006442},{"town":"南鎌ケ谷三丁目","koaza":"","lat":35.744993,"lng":140.003175},{"town":"南鎌ケ谷四丁目","koaza":"","lat":35.742344,"lng":140.00683},{"town":"南佐津間","koaza":"","lat":35.793903,"lng":140.001946},{"town":"南初富一丁目","koaza":"","lat":35.777005,"lng":140.008256},{"town":"南初富二丁目","koaza":"","lat":35.773958,"lng":140.008646},{"town":"南初富三丁目","koaza":"","lat":35.770752,"lng":140.008497},{"town":"南初富四丁目","koaza":"","lat":35.769583,"lng":140.005918},{"town":"南初富五丁目","koaza":"","lat":35.770525,"lng":140.003315},{"town":"南初富六丁目","koaza":"","lat":35.768428,"lng":140.00223}]