[{"town":"岩井","koaza":"","lat":35.35058,"lng":140.337982},{"town":"大上","koaza":"","lat":35.336887,"lng":140.289669},{"town":"大谷木","koaza":"","lat":35.372833,"lng":140.314629},{"town":"上市場","koaza":"","lat":35.37358,"lng":140.333378},{"town":"上之郷","koaza":"","lat":35.35087,"lng":140.310249},{"town":"川島","koaza":"","lat":35.38431,"lng":140.340771},{"town":"河須ケ谷","koaza":"","lat":35.363882,"lng":140.343171},{"town":"北山田","koaza":"","lat":35.376703,"lng":140.322725},{"town":"北山田寺崎新田","koaza":"","lat":35.385395,"lng":140.31623},{"town":"小滝","koaza":"","lat":35.360586,"lng":140.339404},{"town":"佐貫","koaza":"","lat":35.339952,"lng":140.264693},{"town":"下之郷","koaza":"","lat":35.355518,"lng":140.32525},{"town":"長楽寺","koaza":"","lat":35.358509,"lng":140.301406},{"town":"寺崎","koaza":"","lat":35.384002,"lng":140.328782},{"town":"妙楽寺","koaza":"","lat":35.329013,"lng":140.271958},{"town":"森","koaza":"","lat":35.358842,"lng":140.307642}]