[{"town":"大字奥野","lat":"32.236879","lng":"130.959277"},{"town":"大字久米","lat":"32.239362","lng":"130.983694"},{"town":"大字黒肥地","lat":"32.313242","lng":"130.943847"},{"town":"大字多良木","lat":"32.303565","lng":"130.912890"},{"town":"大字槻木","lat":"32.200355","lng":"131.039472"}]