[{"town":"荒尾","lat":"32.983817","lng":"130.462569"},{"town":"一部","lat":"32.967370","lng":"130.447095"},{"town":"牛水","lat":"32.949786","lng":"130.450929"},{"town":"大島","lat":"32.996132","lng":"130.421923"},{"town":"大島町三丁目","lat":"32.999102","lng":"130.429294"},{"town":"大島町四丁目","lat":"32.997712","lng":"130.427774"},{"town":"大平町一丁目","lat":"32.989251","lng":"130.436335"},{"town":"大平町二丁目","lat":"32.988398","lng":"130.437596"},{"town":"大平町三丁目","lat":"32.990305","lng":"130.438895"},{"town":"金山","lat":"32.951271","lng":"130.503424"},{"town":"樺","lat":"32.967485","lng":"130.504840"},{"town":"上井手","lat":"32.997907","lng":"130.486806"},{"town":"上平山","lat":"33.002463","lng":"130.509276"},{"town":"川登","lat":"32.972833","lng":"130.477172"},{"town":"宮内","lat":"32.988201","lng":"130.446847"},{"town":"宮内出目","lat":"32.989360","lng":"130.432532"},{"town":"蔵満","lat":"32.960609","lng":"130.438726"},{"town":"菰屋","lat":"32.957453","lng":"130.468084"},{"town":"桜山町一丁目","lat":"32.965362","lng":"130.453201"},{"town":"桜山町二丁目","lat":"32.965864","lng":"130.455643"},{"town":"桜山町三丁目","lat":"32.965822","lng":"130.458293"},{"town":"桜山町四丁目","lat":"32.965094","lng":"130.461256"},{"town":"下井手","lat":"32.994540","lng":"130.464833"},{"town":"昭和町","lat":"32.996600","lng":"130.432005"},{"town":"住吉町","lat":"32.991444","lng":"130.443902"},{"town":"大正町一丁目","lat":"32.996284","lng":"130.433733"},{"town":"大正町二丁目","lat":"32.999115","lng":"130.434144"},{"town":"高浜","lat":"32.945411","lng":"130.460642"},{"town":"西原町一丁目","lat":"33.002821","lng":"130.434728"},{"town":"西原町二丁目","lat":"33.003322","lng":"130.432507"},{"town":"西原町三丁目","lat":"33.001750","lng":"130.431594"},{"town":"野原","lat":"32.956408","lng":"130.488663"},{"town":"八幡台一丁目","lat":"32.962886","lng":"130.484599"},{"town":"八幡台二丁目","lat":"32.964866","lng":"130.483346"},{"town":"八幡台三丁目","lat":"32.967499","lng":"130.481803"},{"town":"八幡台四丁目","lat":"32.967703","lng":"130.484074"},{"town":"原万田","lat":"33.001077","lng":"130.446413"},{"town":"東屋形一丁目","lat":"32.984232","lng":"130.448740"},{"town":"東屋形二丁目","lat":"32.984241","lng":"130.451824"},{"town":"東屋形三丁目","lat":"32.983658","lng":"130.454842"},{"town":"東屋形四丁目","lat":"32.981610","lng":"130.454256"},{"town":"日の出町","lat":"32.999388","lng":"130.431728"},{"town":"平山","lat":"32.991157","lng":"130.507156"},{"town":"府本","lat":"32.978798","lng":"130.505535"},{"town":"本井手","lat":"32.994599","lng":"130.475522"},{"town":"増永","lat":"32.972610","lng":"130.451246"},{"town":"万田","lat":"32.995460","lng":"130.440253"},{"town":"水野","lat":"32.956279","lng":"130.451718"},{"town":"緑ケ丘一丁目","lat":"32.982769","lng":"130.470473"},{"town":"緑ケ丘二丁目","lat":"32.984629","lng":"130.471833"},{"town":"緑ケ丘三丁目","lat":"32.985113","lng":"130.473658"},{"town":"緑ケ丘四丁目","lat":"32.986024","lng":"130.476162"},{"town":"緑ケ丘五丁目","lat":"32.986996","lng":"130.478273"},{"town":"四ツ山町一丁目","lat":"33.003577","lng":"130.427643"},{"town":"四ツ山町二丁目","lat":"33.003139","lng":"130.429819"},{"town":"四ツ山町三丁目","lat":"33.004334","lng":"130.430787"}]