[{"town":"大字大石田","lat":"37.487202","lng":"139.639004"},{"town":"大字川井","lat":"37.476166","lng":"139.662024"},{"town":"大字滝谷","lat":"37.484253","lng":"139.695520"},{"town":"大字桧原","lat":"37.489864","lng":"139.678282"},{"town":"大字西方","lat":"37.491992","lng":"139.660672"},{"town":"大字早戸","lat":"37.464879","lng":"139.595757"},{"town":"大字大登","lat":"37.470716","lng":"139.653783"},{"town":"大字名入","lat":"37.480247","lng":"139.660234"},{"town":"大字宮下","lat":"37.472188","lng":"139.643907"},{"town":"大字桑原","lat":"37.465179","lng":"139.639438"},{"town":"大字間方","lat":"37.400224","lng":"139.614233"},{"town":"大字大谷","lat":"37.448770","lng":"139.651207"},{"town":"大字浅岐","lat":"37.422061","lng":"139.641075"}]