[{"town":"大字下手沢","lat":"37.007157","lng":"140.369404"},{"town":"大字八槻","lat":"36.979459","lng":"140.382880"},{"town":"大字中山本","lat":"36.990647","lng":"140.368475"},{"town":"大字戸中","lat":"36.975231","lng":"140.286027"},{"town":"大字下山本","lat":"37.001514","lng":"140.383862"},{"town":"大字塚原","lat":"37.008662","lng":"140.382543"},{"town":"大字寺山","lat":"36.991536","lng":"140.402194"},{"town":"大字岡田","lat":"37.014883","lng":"140.437918"},{"town":"大字上手沢","lat":"37.012046","lng":"140.363175"},{"town":"大字棚倉","lat":"37.031052","lng":"140.375792"},{"town":"大字檜木","lat":"37.047220","lng":"140.371368"},{"town":"大字逆川","lat":"37.055449","lng":"140.372665"},{"town":"大字堤","lat":"37.071000","lng":"140.369581"},{"town":"大字福岡","lat":"37.009555","lng":"140.350886"},{"town":"大字大梅","lat":"36.998000","lng":"140.325149"},{"town":"大字強梨","lat":"37.009329","lng":"140.318694"},{"town":"大字漆草","lat":"36.997077","lng":"140.311990"},{"town":"大字一色","lat":"37.077922","lng":"140.398866"},{"town":"大字北山本","lat":"36.979336","lng":"140.345411"},{"town":"大字山田","lat":"37.027365","lng":"140.443081"},{"town":"大字関口","lat":"37.033925","lng":"140.399706"},{"town":"大字流","lat":"37.026911","lng":"140.414843"},{"town":"大字花園","lat":"37.041514","lng":"140.383946"},{"town":"大字仁公儀","lat":"37.045376","lng":"140.405590"},{"town":"大字板橋","lat":"37.056299","lng":"140.394846"},{"town":"大字上台","lat":"37.048401","lng":"140.381775"},{"town":"大字福井","lat":"37.061318","lng":"140.384102"},{"town":"大字玉野","lat":"37.063710","lng":"140.396575"},{"town":"大字金沢内","lat":"37.056929","lng":"140.356732"},{"town":"大字天王内","lat":"37.057472","lng":"140.363796"},{"town":"大字小菅生","lat":"37.048576","lng":"140.361288"},{"town":"大字祝部内","lat":"37.041020","lng":"140.350690"},{"town":"大字小爪","lat":"37.033799","lng":"140.340090"},{"town":"大字富岡","lat":"37.027797","lng":"140.354031"},{"town":"大字山際","lat":"37.019939","lng":"140.347666"},{"town":"大字瀬ヶ野","lat":"37.036494","lng":"140.325142"}]