[{"town":"大字湊","lat":"37.583361","lng":"139.899897"},{"town":"大字熊ノ目","lat":"37.551515","lng":"139.878096"},{"town":"大字佐野目","lat":"37.553234","lng":"139.865017"},{"town":"大字勝常","lat":"37.563347","lng":"139.867818"},{"town":"大字三川","lat":"37.574778","lng":"139.875997"},{"town":"大字堂畑","lat":"37.576000","lng":"139.866247"},{"town":"大字浜崎","lat":"37.587419","lng":"139.886179"},{"town":"大字桜町","lat":"37.553679","lng":"139.898424"},{"town":"大字田川","lat":"37.559578","lng":"139.882115"},{"town":"大字笈川","lat":"37.570705","lng":"139.889118"},{"town":"大字清水田","lat":"37.556606","lng":"139.890665"},{"town":"美田園","lat":"37.565390","lng":"139.889301"}]