[{"town":"字天王下","lat":"37.443108","lng":"140.481139"},{"town":"字番組","lat":"37.434374","lng":"140.497676"},{"town":"大字滝","lat":"37.409347","lng":"140.499814"},{"town":"大字蛇石","lat":"37.399905","lng":"140.512274"},{"town":"大字根本","lat":"37.392715","lng":"140.502297"},{"town":"大字柴原","lat":"37.416637","lng":"140.496062"},{"town":"大字込木","lat":"37.425864","lng":"140.507579"},{"town":"字化粧坂","lat":"37.434107","lng":"140.495679"},{"town":"字南町","lat":"37.440548","lng":"140.494787"},{"town":"大字御祭","lat":"37.464700","lng":"140.492137"},{"town":"字烏帽子石","lat":"37.447481","lng":"140.497954"},{"town":"字仁井町","lat":"37.450542","lng":"140.498447"},{"town":"字六斗蒔","lat":"37.452267","lng":"140.496478"},{"town":"字六升蒔","lat":"37.447338","lng":"140.495337"},{"town":"字亀井","lat":"37.445103","lng":"140.497860"},{"town":"字大町","lat":"37.442335","lng":"140.492584"},{"town":"字山中","lat":"37.439447","lng":"140.496339"},{"town":"字新町","lat":"37.437100","lng":"140.495735"},{"town":"字番組頭","lat":"37.434217","lng":"140.497447"},{"town":"桜ケ丘一丁目","lat":"37.434176","lng":"140.498160"},{"town":"桜ケ丘四丁目","lat":"37.433439","lng":"140.499075"},{"town":"大字春沢","lat":"37.418462","lng":"140.478543"},{"town":"大字下舞木","lat":"37.420970","lng":"140.431357"},{"town":"大字北成田","lat":"37.479892","lng":"140.511945"},{"town":"大字七草木","lat":"37.476460","lng":"140.491082"},{"town":"大字楽内","lat":"37.431312","lng":"140.496270"},{"town":"大字貝山","lat":"37.427485","lng":"140.486756"},{"town":"大字鷹巣","lat":"37.419987","lng":"140.465018"},{"town":"大字上舞木","lat":"37.416737","lng":"140.446377"},{"town":"大字青石","lat":"37.503345","lng":"140.551821"},{"town":"大字富沢","lat":"37.493218","lng":"140.531907"},{"town":"大字樋渡","lat":"37.395233","lng":"140.510648"},{"town":"大字過足","lat":"37.382650","lng":"140.486136"},{"town":"大字狐田","lat":"37.393723","lng":"140.476853"},{"town":"大字春田","lat":"37.403023","lng":"140.485034"},{"town":"大字蛇沢","lat":"37.412656","lng":"140.482368"},{"town":"大字西方","lat":"37.405357","lng":"140.472579"},{"town":"大字斎藤","lat":"37.395019","lng":"140.456651"},{"town":"大字沼沢","lat":"37.405325","lng":"140.457815"},{"town":"字四軒丁","lat":"37.435324","lng":"140.498416"},{"town":"字深作","lat":"37.434496","lng":"140.518910"},{"town":"大字芹ケ沢","lat":"37.435016","lng":"140.512397"},{"town":"字永作","lat":"37.434885","lng":"140.506827"},{"town":"字赤坂","lat":"37.436161","lng":"140.505209"},{"town":"字八十内","lat":"37.433710","lng":"140.503326"},{"town":"桜ケ丘三丁目","lat":"37.436298","lng":"140.501737"},{"town":"桜ケ丘二丁目","lat":"37.436504","lng":"140.500523"},{"town":"字師範場","lat":"37.438215","lng":"140.501788"},{"town":"字弓町","lat":"37.436655","lng":"140.498967"},{"town":"字栗林","lat":"37.439959","lng":"140.508002"},{"town":"字小滝","lat":"37.440565","lng":"140.503944"},{"town":"字大平","lat":"37.442324","lng":"140.502349"},{"town":"字清水","lat":"37.440611","lng":"140.499640"},{"town":"字清水畑","lat":"37.449171","lng":"140.501920"},{"town":"大字庄司","lat":"37.461512","lng":"140.537521"},{"town":"大字熊耳","lat":"37.448110","lng":"140.514261"},{"town":"大字南成田","lat":"37.467807","lng":"140.518456"},{"town":"大字実沢","lat":"37.483372","lng":"140.547644"},{"town":"字恵下越","lat":"37.434340","lng":"140.493291"},{"town":"字会下谷","lat":"37.438527","lng":"140.493473"},{"town":"字桜谷","lat":"37.439674","lng":"140.492427"},{"town":"字小金滝","lat":"37.440569","lng":"140.490937"},{"town":"字御免町","lat":"37.439065","lng":"140.490042"},{"town":"字尼ケ谷","lat":"37.436738","lng":"140.491103"},{"town":"字北町","lat":"37.444281","lng":"140.493430"},{"town":"字中町","lat":"37.441211","lng":"140.487833"},{"town":"字北向町","lat":"37.445166","lng":"140.490421"},{"town":"字日向町","lat":"37.445961","lng":"140.489905"},{"town":"字渋池","lat":"37.446188","lng":"140.487518"},{"town":"字燕清水","lat":"37.445769","lng":"140.493092"},{"town":"字持合畑","lat":"37.447963","lng":"140.491704"},{"town":"字小浜海道","lat":"37.448196","lng":"140.488356"},{"town":"字馬場","lat":"37.436666","lng":"140.487675"},{"town":"字八幡町","lat":"37.439282","lng":"140.484819"},{"town":"字雁木田","lat":"37.438296","lng":"140.481803"},{"town":"字山崎","lat":"37.438262","lng":"140.478418"},{"town":"字沼之倉","lat":"37.434896","lng":"140.473950"},{"town":"字大久保","lat":"37.437945","lng":"140.475092"},{"town":"字丈六","lat":"37.441645","lng":"140.484308"},{"town":"字鶴蒔田","lat":"37.441527","lng":"140.481465"},{"town":"八島台一丁目","lat":"37.447263","lng":"140.486276"},{"town":"字荒町","lat":"37.444092","lng":"140.486722"},{"town":"八島台二丁目","lat":"37.446233","lng":"140.483323"},{"town":"字天王前","lat":"37.444529","lng":"140.482903"},{"town":"字鎌田前","lat":"37.441611","lng":"140.479069"},{"town":"八島台三丁目","lat":"37.444252","lng":"140.479467"},{"town":"担橋一丁目","lat":"37.448425","lng":"140.483305"},{"town":"担橋二丁目","lat":"37.449226","lng":"140.481866"},{"town":"八島台五丁目","lat":"37.447618","lng":"140.482019"},{"town":"八島台四丁目","lat":"37.444065","lng":"140.478157"},{"town":"八島台六丁目","lat":"37.448472","lng":"140.477112"},{"town":"八島台七丁目","lat":"37.448824","lng":"140.474411"},{"town":"字一本松","lat":"37.441569","lng":"140.474500"},{"town":"八島台八丁目","lat":"37.446700","lng":"140.474126"},{"town":"大字山田","lat":"37.430671","lng":"140.455155"},{"town":"字松橋","lat":"37.451728","lng":"140.491533"},{"town":"字樋ノ口","lat":"37.455312","lng":"140.489158"},{"town":"字四反田","lat":"37.451056","lng":"140.487154"},{"town":"字深田和","lat":"37.454861","lng":"140.485096"},{"town":"大字平沢","lat":"37.460507","lng":"140.476624"}]