[{"town":"大字滑津","lat":"37.158574","lng":"140.371609"},{"town":"大字松崎","lat":"37.168736","lng":"140.390924"},{"town":"大字吉岡","lat":"37.121633","lng":"140.361147"},{"town":"大字中島","lat":"37.132615","lng":"140.356509"},{"town":"大字川原田","lat":"37.133455","lng":"140.338748"},{"town":"大字二子塚","lat":"37.139271","lng":"140.346839"}]