[{"town":"大字阿田和","lat":"33.800662","lng":"136.037102"},{"town":"大字上野","lat":"33.854056","lng":"135.981349"},{"town":"大字柿原","lat":"33.799242","lng":"136.019948"},{"town":"大字片川","lat":"33.832572","lng":"135.967379"},{"town":"大字上市木","lat":"33.831648","lng":"136.030860"},{"town":"大字川瀬","lat":"33.858413","lng":"135.977348"},{"town":"大字栗須","lat":"33.852377","lng":"135.975920"},{"town":"大字神木","lat":"33.868778","lng":"136.028238"},{"town":"大字阪本","lat":"33.860807","lng":"135.996566"},{"town":"大字志原","lat":"33.848656","lng":"136.053043"},{"town":"大字下市木","lat":"33.829838","lng":"136.049929"},{"town":"大字中立","lat":"33.817495","lng":"136.009458"},{"town":"大字西原","lat":"33.830939","lng":"135.993961"},{"town":"大字引作","lat":"33.793743","lng":"136.012857"}]