[{"town":"大字網掛","lat":"36.257039","lng":"140.488320"},{"town":"大字秋葉","lat":"36.258890","lng":"140.415754"},{"town":"大字飯沼","lat":"36.280586","lng":"140.370116"},{"town":"大字馬渡","lat":"36.311980","lng":"140.405620"},{"town":"大字海老沢","lat":"36.262539","lng":"140.449466"},{"town":"大字大戸","lat":"36.322037","lng":"140.418160"},{"town":"大字奥谷","lat":"36.283871","lng":"140.412986"},{"town":"大字小堤","lat":"36.281420","lng":"140.422537"},{"town":"大字小幡","lat":"36.266399","lng":"140.389374"},{"town":"大字上雨ヶ谷","lat":"36.242632","lng":"140.393137"},{"town":"大字上飯沼","lat":"36.288409","lng":"140.380006"},{"town":"大字上石崎","lat":"36.295703","lng":"140.469808"},{"town":"大字神宿","lat":"36.268159","lng":"140.442895"},{"town":"大字神谷","lat":"36.261651","lng":"140.431361"},{"town":"大字木部","lat":"36.281600","lng":"140.359714"},{"town":"大字下座","lat":"36.245352","lng":"140.402518"},{"town":"大字小鶴","lat":"36.298010","lng":"140.420739"},{"town":"大字駒場","lat":"36.278646","lng":"140.437092"},{"town":"大字越安","lat":"36.299420","lng":"140.407433"},{"town":"大字近藤","lat":"36.328438","lng":"140.405934"},{"town":"大字下雨ヶ谷","lat":"36.231415","lng":"140.406327"},{"town":"大字下石崎","lat":"36.295487","lng":"140.514814"},{"town":"大字城之内","lat":"36.242797","lng":"140.444545"},{"town":"大字蕎麦原","lat":"36.301615","lng":"140.398555"},{"town":"大字常井","lat":"36.324894","lng":"140.395029"},{"town":"大字鳥羽田","lat":"36.244789","lng":"140.418661"},{"town":"大字中石崎","lat":"36.290021","lng":"140.490610"},{"town":"大字長岡","lat":"36.301229","lng":"140.442955"},{"town":"大字生井沢","lat":"36.226772","lng":"140.412726"},{"town":"大字前田","lat":"36.307617","lng":"140.429779"},{"town":"大字南川又","lat":"36.301218","lng":"140.363086"},{"town":"大字南栗崎","lat":"36.300507","lng":"140.370687"},{"town":"大字南島田","lat":"36.268798","lng":"140.430553"},{"town":"大字宮ヶ崎","lat":"36.252582","lng":"140.470222"},{"town":"大字谷田部","lat":"36.289779","lng":"140.442961"},{"town":"大字若宮","lat":"36.309805","lng":"140.487480"},{"town":"桜の郷","lat":"36.323402","lng":"140.409143"},{"town":"中央工業団地","lat":"36.306426","lng":"140.379206"},{"town":"大字野曽","lat":"36.299883","lng":"140.380767"},{"town":"大字下土師","lat":"36.286479","lng":"140.397848"},{"town":"大字駒渡","lat":"36.303684","lng":"140.392689"},{"town":"大字下飯沼","lat":"36.287889","lng":"140.386595"}]