[{"town":"橳島町","koaza":"","lat":36.359246,"lng":139.074316},{"town":"青梨子町","koaza":"","lat":36.412822,"lng":139.014758},{"town":"青葉町","koaza":"","lat":36.361056,"lng":139.04535},{"town":"青柳町","koaza":"","lat":36.425154,"lng":139.067144},{"town":"朝倉町","koaza":"","lat":36.361889,"lng":139.093023},{"town":"朝倉町一丁目","koaza":"","lat":36.373617,"lng":139.093146},{"town":"朝倉町二丁目","koaza":"","lat":36.372008,"lng":139.094661},{"town":"朝倉町三丁目","koaza":"","lat":36.369418,"lng":139.095398},{"town":"朝倉町四丁目","koaza":"","lat":36.368,"lng":139.099359},{"town":"朝日が丘町","koaza":"","lat":36.369203,"lng":139.064924},{"town":"朝日町一丁目","koaza":"","lat":36.388533,"lng":139.08264},{"town":"朝日町二丁目","koaza":"","lat":36.385053,"lng":139.083332},{"town":"朝日町三丁目","koaza":"","lat":36.38494,"lng":139.086846},{"town":"朝日町四丁目","koaza":"","lat":36.383487,"lng":139.090887},{"town":"天川大島町","koaza":"","lat":36.372068,"lng":139.104418},{"town":"天川大島町一丁目","koaza":"","lat":36.380802,"lng":139.095653},{"town":"天川大島町二丁目","koaza":"","lat":36.380522,"lng":139.099907},{"town":"天川大島町三丁目","koaza":"","lat":36.377705,"lng":139.104259},{"town":"天川原町一丁目","koaza":"","lat":36.372891,"lng":139.081867},{"town":"天川原町二丁目","koaza":"","lat":36.372883,"lng":139.086253},{"town":"天川町","koaza":"","lat":36.373347,"lng":139.08938},{"town":"新井町","koaza":"","lat":36.355012,"lng":139.172832},{"town":"荒口町","koaza":"","lat":36.382712,"lng":139.154473},{"town":"荒子町","koaza":"","lat":36.380562,"lng":139.169384},{"town":"荒牧町","koaza":"","lat":36.424364,"lng":139.049571},{"town":"荒牧町一丁目","koaza":"","lat":36.427893,"lng":139.057972},{"town":"荒牧町二丁目","koaza":"","lat":36.425821,"lng":139.054554},{"town":"荒牧町三丁目","koaza":"","lat":36.425284,"lng":139.052419},{"town":"荒牧町四丁目","koaza":"","lat":36.430527,"lng":139.044592},{"town":"飯土井町","koaza":"","lat":36.362404,"lng":139.180693},{"town":"池端町","koaza":"","lat":36.428606,"lng":139.009593},{"town":"石倉町","koaza":"","lat":36.385477,"lng":139.05203},{"town":"石倉町一丁目","koaza":"","lat":36.383461,"lng":139.055755},{"town":"石倉町二丁目","koaza":"","lat":36.384914,"lng":139.055754},{"town":"石倉町三丁目","koaza":"","lat":36.386516,"lng":139.055542},{"town":"石倉町四丁目","koaza":"","lat":36.389568,"lng":139.055043},{"town":"石倉町五丁目","koaza":"","lat":36.393091,"lng":139.054105},{"town":"石関町","koaza":"","lat":36.389855,"lng":139.116396},{"town":"泉沢町","koaza":"","lat":36.397309,"lng":139.161883},{"town":"市之関町","koaza":"","lat":36.455806,"lng":139.149707},{"town":"今井町","koaza":"","lat":36.369805,"lng":139.148577},{"town":"岩神町一丁目","koaza":"","lat":36.39754,"lng":139.057753},{"town":"岩神町二丁目","koaza":"","lat":36.401443,"lng":139.055895},{"town":"岩神町三丁目","koaza":"","lat":36.404333,"lng":139.057224},{"town":"岩神町四丁目","koaza":"","lat":36.408331,"lng":139.054424},{"town":"笂井町","koaza":"","lat":36.365382,"lng":139.138077},{"town":"江木町","koaza":"","lat":36.3924,"lng":139.13639},{"town":"江田町","koaza":"","lat":36.370813,"lng":139.040466},{"town":"大胡町","koaza":"","lat":36.410833,"lng":139.159666},{"town":"大手町一丁目","koaza":"","lat":36.390336,"lng":139.060124},{"town":"大手町二丁目","koaza":"","lat":36.389674,"lng":139.063831},{"town":"大手町三丁目","koaza":"","lat":36.394582,"lng":139.061573},{"town":"大利根町一丁目","koaza":"","lat":36.363604,"lng":139.058619},{"town":"大利根町二丁目","koaza":"","lat":36.358376,"lng":139.060751},{"town":"大友町一丁目","koaza":"","lat":36.387476,"lng":139.048874},{"town":"大友町二丁目","koaza":"","lat":36.391262,"lng":139.048186},{"town":"大友町三丁目","koaza":"","lat":36.390253,"lng":139.043385},{"town":"大前田町","koaza":"","lat":36.426558,"lng":139.187352},{"town":"大渡町一丁目","koaza":"","lat":36.397708,"lng":139.050411},{"town":"大渡町二丁目","koaza":"","lat":36.395718,"lng":139.045374},{"town":"荻窪町","koaza":"","lat":36.421848,"lng":139.128653},{"town":"女屋町","koaza":"","lat":36.375526,"lng":139.127702},{"town":"表町一丁目","koaza":"","lat":36.385458,"lng":139.068359},{"town":"表町二丁目","koaza":"","lat":36.385697,"lng":139.073201},{"town":"柏倉町","koaza":"","lat":36.483227,"lng":139.151764},{"town":"粕川町新屋","koaza":"","lat":36.416778,"lng":139.194279},{"town":"粕川町稲里","koaza":"","lat":36.424719,"lng":139.200882},{"town":"粕川町女渕","koaza":"","lat":36.410099,"lng":139.207413},{"town":"粕川町上東田面","koaza":"","lat":36.412426,"lng":139.22263},{"town":"粕川町込皆戸","koaza":"","lat":36.407393,"lng":139.186111},{"town":"粕川町下東田面","koaza":"","lat":36.407372,"lng":139.220857},{"town":"粕川町膳","koaza":"","lat":36.419409,"lng":139.224755},{"town":"粕川町月田","koaza":"","lat":36.429745,"lng":139.21158},{"town":"粕川町中","koaza":"","lat":36.421716,"lng":139.215923},{"town":"粕川町中之沢","koaza":"","lat":36.493387,"lng":139.195292},{"town":"粕川町西田面","koaza":"","lat":36.413812,"lng":139.211462},{"town":"粕川町一日市","koaza":"","lat":36.404069,"lng":139.222465},{"town":"粕川町深津","koaza":"","lat":36.397831,"lng":139.203319},{"town":"粕川町前皆戸","koaza":"","lat":36.414231,"lng":139.216283},{"town":"粕川町室沢","koaza":"","lat":36.451982,"lng":139.206536},{"town":"勝沢町","koaza":"","lat":36.424358,"lng":139.098777},{"town":"金丸町","koaza":"","lat":36.473809,"lng":139.129459},{"town":"上青梨子町","koaza":"","lat":36.421131,"lng":139.017316},{"town":"上泉町","koaza":"","lat":36.407714,"lng":139.120368},{"town":"上大島町","koaza":"","lat":36.369969,"lng":139.117603},{"town":"上大屋町","koaza":"","lat":36.408155,"lng":139.167651},{"town":"上沖町","koaza":"","lat":36.408142,"lng":139.090905},{"town":"上小出町一丁目","koaza":"","lat":36.411026,"lng":139.057774},{"town":"上小出町二丁目","koaza":"","lat":36.414913,"lng":139.058623},{"town":"上小出町三丁目","koaza":"","lat":36.419077,"lng":139.057611},{"town":"上佐鳥町","koaza":"","lat":36.357908,"lng":139.083934},{"town":"上新田町","koaza":"","lat":36.364992,"lng":139.065355},{"town":"上長磯町","koaza":"","lat":36.376108,"lng":139.120357},{"town":"上細井町","koaza":"","lat":36.424073,"lng":139.082612},{"town":"上増田町","koaza":"","lat":36.357372,"lng":139.152576},{"town":"亀泉町","koaza":"","lat":36.400873,"lng":139.125015},{"town":"亀里町","koaza":"","lat":36.341019,"lng":139.090446},{"town":"川原町","koaza":"","lat":36.427598,"lng":139.035657},{"town":"川原町一丁目","koaza":"","lat":36.424812,"lng":139.043336},{"town":"川原町二丁目","koaza":"","lat":36.429769,"lng":139.039592},{"town":"川端町","koaza":"","lat":36.434257,"lng":139.058408},{"town":"川曲町","koaza":"","lat":36.354892,"lng":139.050313},{"town":"河原浜町","koaza":"","lat":36.427674,"lng":139.166032},{"town":"神沢の森","koaza":"","lat":36.4009,"lng":139.176835},{"town":"北代田町","koaza":"","lat":36.411687,"lng":139.073339},{"town":"清野町","koaza":"","lat":36.421665,"lng":139.00687},{"town":"公田町","koaza":"","lat":36.347442,"lng":139.075359},{"town":"小相木町","koaza":"","lat":36.37439,"lng":139.057566},{"town":"小相木町一丁目","koaza":"","lat":36.376407,"lng":139.056372},{"town":"紅雲町一丁目","koaza":"","lat":36.384905,"lng":139.060944},{"town":"紅雲町二丁目","koaza":"","lat":36.385045,"lng":139.064735},{"town":"幸塚町","koaza":"","lat":36.404994,"lng":139.085112},{"town":"国領町一丁目","koaza":"","lat":36.400554,"lng":139.069041},{"town":"国領町二丁目","koaza":"","lat":36.404491,"lng":139.06831},{"town":"小坂子町","koaza":"","lat":36.439085,"lng":139.121739},{"town":"小島田町","koaza":"","lat":36.372772,"lng":139.135603},{"town":"小神明町","koaza":"","lat":36.417115,"lng":139.095829},{"town":"駒形町","koaza":"","lat":36.344303,"lng":139.137382},{"town":"駒形町","koaza":"西簗場","lat":36.344782,"lng":139.145319},{"town":"小屋原町","koaza":"","lat":36.355582,"lng":139.136328},{"town":"後閑町","koaza":"","lat":36.356008,"lng":139.103373},{"town":"後家町","koaza":"","lat":36.367654,"lng":139.055927},{"town":"五代町","koaza":"","lat":36.412727,"lng":139.110079},{"town":"山王町","koaza":"","lat":36.350794,"lng":139.121256},{"town":"山王町一丁目","koaza":"","lat":36.354388,"lng":139.1189},{"town":"山王町二丁目","koaza":"","lat":36.351241,"lng":139.126683},{"town":"敷島町","koaza":"","lat":36.415102,"lng":139.050713},{"town":"下阿内町","koaza":"","lat":36.32404,"lng":139.105637},{"town":"下石倉町","koaza":"","lat":36.380499,"lng":139.05684},{"town":"下大島町","koaza":"","lat":36.358749,"lng":139.12139},{"town":"下大屋町","koaza":"","lat":36.393093,"lng":139.172375},{"town":"下沖町","koaza":"","lat":36.399872,"lng":139.093572},{"town":"下川町","koaza":"","lat":36.328679,"lng":139.090338},{"town":"下小出町一丁目","koaza":"","lat":36.40841,"lng":139.06691},{"town":"下小出町二丁目","koaza":"","lat":36.4121,"lng":139.065071},{"town":"下小出町三丁目","koaza":"","lat":36.416628,"lng":139.063165},{"town":"下佐鳥町","koaza":"","lat":36.348651,"lng":139.096454},{"town":"下新田町","koaza":"","lat":36.356427,"lng":139.067226},{"town":"下長磯町","koaza":"","lat":36.367874,"lng":139.128951},{"town":"下細井町","koaza":"","lat":36.413007,"lng":139.086844},{"town":"下増田町","koaza":"","lat":36.345623,"lng":139.157614},{"town":"昭和町一丁目","koaza":"","lat":36.401125,"lng":139.066126},{"town":"昭和町二丁目","koaza":"","lat":36.401855,"lng":139.062619},{"town":"昭和町三丁目","koaza":"","lat":36.406519,"lng":139.061458},{"town":"新前橋町","koaza":"","lat":36.379827,"lng":139.05044},{"town":"城東町一丁目","koaza":"","lat":36.394968,"lng":139.076736},{"town":"城東町二丁目","koaza":"","lat":36.393169,"lng":139.074913},{"town":"城東町三丁目","koaza":"","lat":36.392358,"lng":139.077167},{"town":"城東町四丁目","koaza":"","lat":36.390498,"lng":139.079399},{"town":"城東町五丁目","koaza":"","lat":36.39229,"lng":139.082409},{"town":"住吉町一丁目","koaza":"","lat":36.39725,"lng":139.068032},{"town":"住吉町二丁目","koaza":"","lat":36.396524,"lng":139.071085},{"town":"関根町","koaza":"","lat":36.438317,"lng":139.047411},{"town":"関根町一丁目","koaza":"","lat":36.433723,"lng":139.052846},{"town":"関根町二丁目","koaza":"","lat":36.433224,"lng":139.049713},{"town":"関根町三丁目","koaza":"","lat":36.434469,"lng":139.042931},{"town":"総社町一丁目","koaza":"","lat":36.400162,"lng":139.042388},{"town":"総社町二丁目","koaza":"","lat":36.404213,"lng":139.044262},{"town":"総社町三丁目","koaza":"","lat":36.403106,"lng":139.039913},{"town":"総社町四丁目","koaza":"","lat":36.403803,"lng":139.036358},{"town":"総社町植野","koaza":"","lat":36.416482,"lng":139.034817},{"town":"総社町桜が丘","koaza":"","lat":36.424109,"lng":139.032486},{"town":"総社町総社","koaza":"","lat":36.402601,"lng":139.030843},{"town":"総社町高井","koaza":"","lat":36.41578,"lng":139.02541},{"town":"高井町一丁目","koaza":"","lat":36.411324,"lng":139.027129},{"town":"高花台一丁目","koaza":"","lat":36.426552,"lng":139.106492},{"town":"高花台二丁目","koaza":"","lat":36.429776,"lng":139.107854},{"town":"滝窪町","koaza":"","lat":36.449417,"lng":139.137637},{"town":"田口町","koaza":"","lat":36.447003,"lng":139.046891},{"town":"千代田町一丁目","koaza":"","lat":36.393998,"lng":139.066216},{"town":"千代田町二丁目","koaza":"","lat":36.392641,"lng":139.068505},{"town":"千代田町三丁目","koaza":"","lat":36.394424,"lng":139.069664},{"town":"千代田町四丁目","koaza":"","lat":36.391963,"lng":139.070961},{"town":"千代田町五丁目","koaza":"","lat":36.391306,"lng":139.073038},{"town":"堤町","koaza":"","lat":36.396079,"lng":139.131144},{"town":"鶴が谷町","koaza":"","lat":36.383329,"lng":139.161962},{"town":"鶴光路町","koaza":"","lat":36.334863,"lng":139.097354},{"town":"稲荷新田町","koaza":"","lat":36.357847,"lng":139.056129},{"town":"徳丸町","koaza":"","lat":36.335034,"lng":139.110974},{"town":"鳥取町","koaza":"","lat":36.419719,"lng":139.105069},{"town":"富田町","koaza":"","lat":36.387856,"lng":139.146011},{"town":"鳥羽町","koaza":"","lat":36.376692,"lng":139.028761},{"town":"問屋町一丁目","koaza":"","lat":36.394108,"lng":139.041345},{"town":"問屋町二丁目","koaza":"","lat":36.396651,"lng":139.040541},{"town":"苗ヶ島町","koaza":"","lat":36.463621,"lng":139.191388},{"town":"中内町","koaza":"","lat":36.340639,"lng":139.125719},{"town":"南橘町","koaza":"","lat":36.426604,"lng":139.063543},{"town":"新堀町","koaza":"","lat":36.324988,"lng":139.097654},{"town":"西大室町","koaza":"","lat":36.384816,"lng":139.19378},{"town":"西片貝町一丁目","koaza":"","lat":36.395951,"lng":139.094416},{"town":"西片貝町二丁目","koaza":"","lat":36.391775,"lng":139.096127},{"town":"西片貝町三丁目","koaza":"","lat":36.387418,"lng":139.098382},{"town":"西片貝町四丁目","koaza":"","lat":36.386284,"lng":139.093407},{"town":"西片貝町五丁目","koaza":"","lat":36.389246,"lng":139.088627},{"town":"西善町","koaza":"","lat":36.345447,"lng":139.11221},{"town":"日輪寺町","koaza":"","lat":36.430486,"lng":139.062671},{"town":"二之宮町","koaza":"","lat":36.36104,"lng":139.166784},{"town":"野中町","koaza":"","lat":36.378193,"lng":139.112551},{"town":"端気町","koaza":"","lat":36.407027,"lng":139.098622},{"town":"箱田町","koaza":"","lat":36.366861,"lng":139.049091},{"town":"鼻毛石町","koaza":"","lat":36.444874,"lng":139.179536},{"town":"馬場町","koaza":"","lat":36.437207,"lng":139.199198},{"town":"光が丘町","koaza":"","lat":36.370382,"lng":139.058555},{"town":"東上野町","koaza":"","lat":36.383176,"lng":139.122743},{"town":"東大室町","koaza":"","lat":36.374936,"lng":139.191502},{"town":"東片貝町","koaza":"","lat":36.385925,"lng":139.108861},{"town":"東金丸町","koaza":"","lat":36.474486,"lng":139.136381},{"town":"東善町","koaza":"","lat":36.341539,"lng":139.131308},{"town":"樋越町","koaza":"","lat":36.415076,"lng":139.176204},{"town":"日吉町一丁目","koaza":"","lat":36.39715,"lng":139.074945},{"town":"日吉町二丁目","koaza":"","lat":36.396529,"lng":139.080379},{"town":"日吉町三丁目","koaza":"","lat":36.400413,"lng":139.078884},{"town":"日吉町四丁目","koaza":"","lat":36.404698,"lng":139.077884},{"town":"広瀬町一丁目","koaza":"","lat":36.363493,"lng":139.105352},{"town":"広瀬町二丁目","koaza":"","lat":36.360607,"lng":139.109431},{"town":"広瀬町三丁目","koaza":"","lat":36.357507,"lng":139.113813},{"town":"富士見町赤城山","koaza":"","lat":36.51793,"lng":139.128213},{"town":"富士見町石井","koaza":"","lat":36.47606,"lng":139.087937},{"town":"富士見町市之木場","koaza":"","lat":36.480323,"lng":139.073716},{"town":"富士見町漆窪","koaza":"","lat":36.465732,"lng":139.073301},{"town":"富士見町小沢","koaza":"","lat":36.451096,"lng":139.082441},{"town":"富士見町小暮","koaza":"","lat":36.455887,"lng":139.101996},{"town":"富士見町米野","koaza":"","lat":36.467807,"lng":139.058986},{"town":"富士見町田島","koaza":"","lat":36.45592,"lng":139.075936},{"town":"富士見町時沢","koaza":"","lat":36.437053,"lng":139.08683},{"town":"富士見町原之郷","koaza":"","lat":36.441171,"lng":139.067118},{"town":"富士見町原之郷","koaza":"旭久保","lat":36.433172,"lng":139.067626},{"town":"富士見町引田","koaza":"","lat":36.460395,"lng":139.065679},{"town":"富士見町皆沢","koaza":"","lat":36.471329,"lng":139.117684},{"town":"富士見町山口","koaza":"","lat":36.488479,"lng":139.074993},{"town":"富士見町横室","koaza":"","lat":36.448861,"lng":139.059882},{"town":"古市町","koaza":"","lat":36.37499,"lng":139.045719},{"town":"古市町一丁目","koaza":"","lat":36.376944,"lng":139.051676},{"town":"古市町二丁目","koaza":"","lat":36.373653,"lng":139.049198},{"town":"文京町一丁目","koaza":"","lat":36.382332,"lng":139.080664},{"town":"文京町二丁目","koaza":"","lat":36.378243,"lng":139.080755},{"town":"文京町三丁目","koaza":"","lat":36.379347,"lng":139.087126},{"town":"文京町四丁目","koaza":"","lat":36.378761,"lng":139.091386},{"town":"平和町一丁目","koaza":"","lat":36.398005,"lng":139.064904},{"town":"平和町二丁目","koaza":"","lat":36.399425,"lng":139.062231},{"town":"堀越町","koaza":"","lat":36.428494,"lng":139.151718},{"town":"堀越町","koaza":"甲二本松","lat":36.414592,"lng":139.145512},{"town":"堀之下町","koaza":"","lat":36.392003,"lng":139.123205},{"town":"本町一丁目","koaza":"","lat":36.389823,"lng":139.067246},{"town":"本町二丁目","koaza":"","lat":36.389391,"lng":139.071047},{"town":"本町三丁目","koaza":"","lat":36.385751,"lng":139.076948},{"town":"房丸町","koaza":"","lat":36.338582,"lng":139.107501},{"town":"前箱田町","koaza":"","lat":36.362697,"lng":139.049945},{"town":"前箱田町二丁目","koaza":"","lat":36.363515,"lng":139.047024},{"town":"三河町一丁目","koaza":"","lat":36.388639,"lng":139.076545},{"town":"三河町二丁目","koaza":"","lat":36.385383,"lng":139.079996},{"town":"三俣町一丁目","koaza":"","lat":36.393689,"lng":139.086725},{"town":"三俣町二丁目","koaza":"","lat":36.397608,"lng":139.0861},{"town":"三俣町三丁目","koaza":"","lat":36.402891,"lng":139.083656},{"town":"緑が丘町","koaza":"","lat":36.420015,"lng":139.045271},{"town":"南町一丁目","koaza":"","lat":36.37992,"lng":139.063603},{"town":"南町二丁目","koaza":"","lat":36.37485,"lng":139.066168},{"town":"南町三丁目","koaza":"","lat":36.381404,"lng":139.072159},{"town":"南町四丁目","koaza":"","lat":36.377511,"lng":139.072433},{"town":"嶺町","koaza":"","lat":36.446997,"lng":139.113231},{"town":"宮地町","koaza":"","lat":36.342503,"lng":139.102896},{"town":"三夜沢町","koaza":"","lat":36.485706,"lng":139.17528},{"town":"茂木町","koaza":"","lat":36.410534,"lng":139.15051},{"town":"元総社町","koaza":"","lat":36.3865,"lng":139.032566},{"town":"元総社町一丁目","koaza":"","lat":36.386506,"lng":139.041592},{"town":"元総社町二丁目","koaza":"","lat":36.390514,"lng":139.039878},{"town":"元総社町三丁目","koaza":"","lat":36.390124,"lng":139.037401},{"town":"横沢町","koaza":"","lat":36.427282,"lng":139.137545},{"town":"横手町","koaza":"","lat":36.333927,"lng":139.080938},{"town":"力丸町","koaza":"","lat":36.330624,"lng":139.114591},{"town":"龍蔵寺町","koaza":"","lat":36.423471,"lng":139.071933},{"town":"六供町","koaza":"","lat":36.368741,"lng":139.075805},{"town":"六供町一丁目","koaza":"","lat":36.374441,"lng":139.075791},{"town":"六供町四丁目","koaza":"","lat":36.370563,"lng":139.083422},{"town":"若宮町一丁目","koaza":"","lat":36.398676,"lng":139.072913},{"town":"若宮町二丁目","koaza":"","lat":36.400891,"lng":139.073068},{"town":"若宮町三丁目","koaza":"","lat":36.403344,"lng":139.073079},{"town":"若宮町四丁目","koaza":"","lat":36.406545,"lng":139.072794}]