[{"town":"大字漆原","koaza":"","lat":"36.441729","lng":"139.031572"},{"town":"大字大久保","koaza":"","lat":"36.434249","lng":"139.020498"},{"town":"大字小倉","koaza":"","lat":"36.460261","lng":"138.994774"},{"town":"大字上野田","koaza":"","lat":"36.461722","lng":"138.963905"},{"town":"大字北下","koaza":"","lat":"36.445647","lng":"138.999374"},{"town":"大字下野田","koaza":"","lat":"36.453225","lng":"139.011175"},{"town":"大字陣場","koaza":"","lat":"36.430932","lng":"139.003007"},{"town":"大字南下","koaza":"","lat":"36.439403","lng":"139.002016"}]