[{"town":"大字応桑","koaza":"","lat":36.511153,"lng":138.604775},{"town":"大字川原畑","koaza":"","lat":36.560968,"lng":138.703688},{"town":"大字大津","koaza":"","lat":36.565517,"lng":138.604393},{"town":"大字川原湯","koaza":"","lat":36.545618,"lng":138.704151},{"town":"大字長野原","koaza":"","lat":36.543665,"lng":138.645213},{"town":"大字羽根尾","koaza":"","lat":36.559488,"lng":138.593305},{"town":"大字北軽井沢","koaza":"","lat":36.457295,"lng":138.609194},{"town":"大字林","koaza":"","lat":36.556638,"lng":138.678566},{"town":"大字古森","koaza":"","lat":36.538763,"lng":138.601169},{"town":"大字与喜屋","koaza":"","lat":36.532318,"lng":138.624258},{"town":"大字横壁","koaza":"","lat":36.531775,"lng":138.674301},{"town":"大字長野原","koaza":"久々戸","lat":36.544224,"lng":138.649625}]