[{"town":"阿久津町","koaza":"","lat":"36.248065","lng":"139.309247"},{"town":"朝日町","koaza":"","lat":"36.274729","lng":"139.400849"},{"town":"新井町","koaza":"","lat":"36.285770","lng":"139.370002"},{"town":"安養寺町","koaza":"","lat":"36.258861","lng":"139.303962"},{"town":"飯田町","koaza":"","lat":"36.289007","lng":"139.379580"},{"town":"飯塚町","koaza":"","lat":"36.278480","lng":"139.385161"},{"town":"石橋町","koaza":"","lat":"36.330680","lng":"139.340326"},{"town":"石原町","koaza":"","lat":"36.297784","lng":"139.402211"},{"town":"泉町","koaza":"","lat":"36.268918","lng":"139.313545"},{"town":"市場町","koaza":"","lat":"36.334339","lng":"139.414993"},{"town":"出塚町","koaza":"","lat":"36.258139","lng":"139.292563"},{"town":"岩瀬川町","koaza":"","lat":"36.276727","lng":"139.358358"},{"town":"岩松町","koaza":"","lat":"36.257908","lng":"139.335995"},{"town":"植木野町","koaza":"","lat":"36.318443","lng":"139.411243"},{"town":"牛沢町","koaza":"","lat":"36.258155","lng":"139.354245"},{"town":"内ケ島町","koaza":"","lat":"36.285136","lng":"139.396177"},{"town":"大久保町","koaza":"","lat":"36.343343","lng":"139.272362"},{"town":"大島町","koaza":"","lat":"36.305685","lng":"139.357969"},{"town":"大舘町","koaza":"","lat":"36.250029","lng":"139.301270"},{"town":"大原町","koaza":"","lat":"36.354964","lng":"139.286935"},{"town":"大鷲町","koaza":"","lat":"36.339686","lng":"139.352079"},{"town":"沖之郷町","koaza":"","lat":"36.290057","lng":"139.434183"},{"town":"沖野町","koaza":"","lat":"36.290666","lng":"139.323367"},{"town":"押切町","koaza":"","lat":"36.248987","lng":"139.340791"},{"town":"尾島町","koaza":"","lat":"36.260051","lng":"139.321561"},{"town":"粕川町","koaza":"","lat":"36.265733","lng":"139.296815"},{"town":"金山町","koaza":"","lat":"36.309297","lng":"139.373522"},{"town":"上強戸町","koaza":"","lat":"36.337553","lng":"139.359444"},{"town":"上小林町","koaza":"","lat":"36.316520","lng":"139.404223"},{"town":"上田島町","koaza":"","lat":"36.282486","lng":"139.319754"},{"town":"亀岡町","koaza":"","lat":"36.255440","lng":"139.316783"},{"town":"北金井町","koaza":"","lat":"36.350068","lng":"139.352490"},{"town":"清原町","koaza":"","lat":"36.345110","lng":"139.386300"},{"town":"熊野町","koaza":"","lat":"36.305409","lng":"139.381321"},{"town":"強戸町","koaza":"","lat":"36.329650","lng":"139.358330"},{"town":"小角田町","koaza":"","lat":"36.278713","lng":"139.281586"},{"town":"小舞木町","koaza":"","lat":"36.284013","lng":"139.388092"},{"town":"下小林町","koaza":"","lat":"36.291194","lng":"139.403449"},{"town":"下田島町","koaza":"","lat":"36.264859","lng":"139.323961"},{"town":"下浜田町","koaza":"","lat":"36.276617","lng":"139.364086"},{"town":"城西町","koaza":"","lat":"36.310655","lng":"139.337600"},{"town":"庄屋町","koaza":"","lat":"36.279656","lng":"139.370997"},{"town":"新道町","koaza":"","lat":"36.300161","lng":"139.342041"},{"town":"末広町","koaza":"","lat":"36.256886","lng":"139.381220"},{"town":"菅塩町","koaza":"","lat":"36.347966","lng":"139.339863"},{"town":"すずかけ町","koaza":"","lat":"36.254182","lng":"139.323512"},{"town":"スバル町","koaza":"","lat":"36.298656","lng":"139.384919"},{"town":"世良田町","koaza":"","lat":"36.266755","lng":"139.281013"},{"town":"太子町","koaza":"","lat":"36.255624","lng":"139.325726"},{"town":"台之郷町","koaza":"","lat":"36.307674","lng":"139.407371"},{"town":"高瀬町","koaza":"","lat":"36.326293","lng":"139.423091"},{"town":"高林北町","koaza":"","lat":"36.265660","lng":"139.367254"},{"town":"高林寿町","koaza":"","lat":"36.263674","lng":"139.374459"},{"town":"高林西町","koaza":"","lat":"36.256278","lng":"139.364430"},{"town":"高林東町","koaza":"","lat":"36.257521","lng":"139.375154"},{"town":"高林南町","koaza":"","lat":"36.253967","lng":"139.368287"},{"town":"宝町","koaza":"","lat":"36.289750","lng":"139.331777"},{"town":"只上町","koaza":"","lat":"36.337533","lng":"139.396881"},{"town":"鶴生田町","koaza":"","lat":"36.319281","lng":"139.358142"},{"town":"寺井町","koaza":"","lat":"36.324102","lng":"139.335117"},{"town":"天良町","koaza":"","lat":"36.332313","lng":"139.334072"},{"town":"徳川町","koaza":"","lat":"36.250257","lng":"139.284056"},{"town":"富沢町","koaza":"","lat":"36.264023","lng":"139.357251"},{"town":"富若町","koaza":"","lat":"36.324080","lng":"139.396421"},{"town":"鳥山上町","koaza":"","lat":"36.324478","lng":"139.344722"},{"town":"鳥山下町","koaza":"","lat":"36.312249","lng":"139.352610"},{"town":"鳥山町","koaza":"","lat":"36.313477","lng":"139.356544"},{"town":"鳥山中町","koaza":"","lat":"36.314915","lng":"139.346382"},{"town":"長手町","koaza":"","lat":"36.315187","lng":"139.367465"},{"town":"中根町","koaza":"","lat":"36.272988","lng":"139.322875"},{"town":"成塚町","koaza":"","lat":"36.336280","lng":"139.341713"},{"town":"新島町","koaza":"","lat":"36.291976","lng":"139.386837"},{"town":"新野町","koaza":"","lat":"36.307925","lng":"139.343542"},{"town":"西新町","koaza":"","lat":"36.272302","lng":"139.338275"},{"town":"西長岡町","koaza":"","lat":"36.353774","lng":"139.332104"},{"town":"西野谷町","koaza":"","lat":"36.282488","lng":"139.329351"},{"town":"西本町","koaza":"","lat":"36.294067","lng":"139.363974"},{"town":"西矢島町","koaza":"","lat":"36.271291","lng":"139.374285"},{"town":"新田赤堀町","koaza":"","lat":"36.292091","lng":"139.297199"},{"town":"新田市町","koaza":"","lat":"36.327186","lng":"139.299518"},{"town":"新田市野井町","koaza":"","lat":"36.315394","lng":"139.301952"},{"town":"新田市野倉町","koaza":"","lat":"36.335233","lng":"139.309043"},{"town":"新田大町","koaza":"","lat":"36.322773","lng":"139.281925"},{"town":"新田大根町","koaza":"","lat":"36.309296","lng":"139.282321"},{"town":"新田金井町","koaza":"","lat":"36.308300","lng":"139.293023"},{"town":"新田嘉祢町","koaza":"","lat":"36.320530","lng":"139.288015"},{"town":"新田上江田町","koaza":"","lat":"36.294317","lng":"139.285709"},{"town":"新田上田中町","koaza":"","lat":"36.304638","lng":"139.274762"},{"town":"新田上中町","koaza":"","lat":"36.322956","lng":"139.271004"},{"town":"新田木崎町","koaza":"","lat":"36.281782","lng":"139.306734"},{"town":"新田小金井町","koaza":"","lat":"36.312920","lng":"139.323556"},{"town":"新田小金町","koaza":"","lat":"36.334654","lng":"139.322764"},{"town":"新田権右衛門町","koaza":"","lat":"36.332110","lng":"139.263878"},{"town":"新田下江田町","koaza":"","lat":"36.268944","lng":"139.298258"},{"town":"新田下田中町","koaza":"","lat":"36.288688","lng":"139.273749"},{"town":"新田反町町","koaza":"","lat":"36.296492","lng":"139.308299"},{"town":"新田高尾町","koaza":"","lat":"36.285080","lng":"139.283059"},{"town":"新田多村新田町","koaza":"","lat":"36.338899","lng":"139.295844"},{"town":"新田溜池町","koaza":"","lat":"36.323550","lng":"139.275431"},{"town":"新田天良町","koaza":"","lat":"36.335008","lng":"139.328232"},{"town":"新田中江田町","koaza":"","lat":"36.278646","lng":"139.292231"},{"town":"新田萩町","koaza":"","lat":"36.333500","lng":"139.268973"},{"town":"新田花香塚町","koaza":"","lat":"36.297566","lng":"139.261271"},{"town":"新田早川町","koaza":"","lat":"36.294379","lng":"139.265567"},{"town":"新田瑞木町","koaza":"","lat":"36.310083","lng":"139.309427"},{"town":"新田村田町","koaza":"","lat":"36.310233","lng":"139.315655"},{"town":"韮川町","koaza":"","lat":"36.312836","lng":"139.403909"},{"town":"八幡町","koaza":"","lat":"36.300189","lng":"139.365434"},{"town":"浜町","koaza":"","lat":"36.290335","lng":"139.367887"},{"town":"原宿町","koaza":"","lat":"36.353766","lng":"139.382623"},{"town":"東今泉町","koaza":"","lat":"36.326806","lng":"139.384493"},{"town":"東金井町","koaza":"","lat":"36.317122","lng":"139.387780"},{"town":"東新町","koaza":"","lat":"36.327053","lng":"139.408679"},{"town":"東長岡町","koaza":"","lat":"36.303075","lng":"139.395281"},{"town":"東別所町","koaza":"","lat":"36.268754","lng":"139.393946"},{"town":"東本町","koaza":"","lat":"36.297930","lng":"139.378217"},{"town":"東矢島町","koaza":"","lat":"36.268793","lng":"139.382873"},{"town":"備前島町","koaza":"","lat":"36.256511","lng":"139.344016"},{"town":"福沢町","koaza":"","lat":"36.269152","lng":"139.358545"},{"town":"藤阿久町","koaza":"","lat":"36.290745","lng":"139.357671"},{"town":"藤久良町","koaza":"","lat":"36.291457","lng":"139.351670"},{"town":"二ツ小屋町","koaza":"","lat":"36.238217","lng":"139.313991"},{"town":"古戸町","koaza":"","lat":"36.246473","lng":"139.376972"},{"town":"別所町","koaza":"","lat":"36.298069","lng":"139.330437"},{"town":"細谷町","koaza":"","lat":"36.275212","lng":"139.350268"},{"town":"堀口町","koaza":"","lat":"36.249853","lng":"139.324448"},{"town":"本町","koaza":"","lat":"36.297893","lng":"139.372861"},{"town":"前小屋町","koaza":"","lat":"36.245216","lng":"139.327993"},{"town":"前島町","koaza":"","lat":"36.246939","lng":"139.316742"},{"town":"丸山町","koaza":"","lat":"36.341724","lng":"139.381215"},{"town":"緑町","koaza":"","lat":"36.331123","lng":"139.372526"},{"town":"南ヶ丘町","koaza":"","lat":"36.247823","lng":"139.327165"},{"town":"南矢島町","koaza":"","lat":"36.263562","lng":"139.379932"},{"town":"武蔵島町","koaza":"","lat":"36.244057","lng":"139.311084"},{"town":"茂木町","koaza":"","lat":"36.297381","lng":"139.417819"},{"town":"八重笠町","koaza":"","lat":"36.272190","lng":"139.429581"},{"town":"安良岡町","koaza":"","lat":"36.308733","lng":"139.397090"},{"town":"矢田堀町","koaza":"","lat":"36.334530","lng":"139.380756"},{"town":"矢場新町","koaza":"","lat":"36.311802","lng":"139.416447"},{"town":"矢場町","koaza":"","lat":"36.302557","lng":"139.423820"},{"town":"藪塚町","koaza":"","lat":"36.361435","lng":"139.310600"},{"town":"山之神町","koaza":"","lat":"36.346225","lng":"139.310184"},{"town":"由良町","koaza":"","lat":"36.288271","lng":"139.343687"},{"town":"吉沢町","koaza":"","lat":"36.350938","lng":"139.368443"},{"town":"米沢町","koaza":"","lat":"36.263581","lng":"139.342803"},{"town":"寄合町","koaza":"","lat":"36.342700","lng":"139.320576"},{"town":"龍舞町","koaza":"","lat":"36.282671","lng":"139.416761"},{"town":"六千石町","koaza":"","lat":"36.334409","lng":"139.285838"},{"town":"脇屋町","koaza":"","lat":"36.308871","lng":"139.330870"},{"town":"新田木崎町","koaza":"西田","lat":"36.289186","lng":"139.308945"}]