[{"town":"小豆屋町","koaza":"","lat":34.941165,"lng":135.76078},{"town":"阿波橋町","koaza":"","lat":34.931792,"lng":135.755543},{"town":"石田内里町","koaza":"","lat":34.939508,"lng":135.807156},{"town":"石田大受町","koaza":"","lat":34.942457,"lng":135.806617},{"town":"石田大山町","koaza":"","lat":34.938375,"lng":135.808763},{"town":"石田川向","koaza":"","lat":34.94171,"lng":135.799533},{"town":"石田桜木","koaza":"","lat":34.935566,"lng":135.800306},{"town":"石田西ノ坪","koaza":"","lat":34.937858,"lng":135.79975},{"town":"石田森西","koaza":"","lat":34.940197,"lng":135.80008},{"town":"石田森東町","koaza":"","lat":34.940197,"lng":135.803976},{"town":"石田森南町","koaza":"","lat":34.937719,"lng":135.803787},{"town":"石屋町","koaza":"","lat":34.939694,"lng":135.762717},{"town":"稲荷山官有地","koaza":"","lat":34.969171,"lng":135.783712},{"town":"今町","koaza":"","lat":34.935036,"lng":135.762151},{"town":"魚屋町","koaza":"","lat":34.931692,"lng":135.763977},{"town":"越前町","koaza":"","lat":34.943944,"lng":135.760207},{"town":"榎町","koaza":"","lat":34.943587,"lng":135.758785},{"town":"恵美酒町","koaza":"","lat":34.932964,"lng":135.755212},{"town":"海老屋町","koaza":"","lat":34.94025,"lng":135.758065},{"town":"大阪町","koaza":"","lat":34.931833,"lng":135.762258},{"town":"大津町","koaza":"","lat":34.936848,"lng":135.756071},{"town":"大宮町","koaza":"","lat":34.939216,"lng":135.757793},{"town":"御駕籠町","koaza":"","lat":34.937091,"lng":135.759745},{"town":"小栗栖石川町","koaza":"","lat":34.947264,"lng":135.793744},{"town":"小栗栖岩ケ淵町","koaza":"","lat":34.95153,"lng":135.807739},{"town":"小栗栖牛ケ淵町","koaza":"","lat":34.949059,"lng":135.806242},{"town":"小栗栖北後藤町","koaza":"","lat":34.947164,"lng":135.805733},{"town":"小栗栖北谷町","koaza":"","lat":34.952562,"lng":135.803741},{"town":"小栗栖小阪町","koaza":"","lat":34.9464,"lng":135.802115},{"town":"小栗栖中山田町","koaza":"","lat":34.943013,"lng":135.793264},{"town":"小栗栖西谷町","koaza":"","lat":34.950969,"lng":135.801973},{"town":"小栗栖丸山","koaza":"","lat":34.951929,"lng":135.806657},{"town":"小栗栖南後藤町","koaza":"","lat":34.944812,"lng":135.804618},{"town":"小栗栖宮山","koaza":"","lat":34.946216,"lng":135.799932},{"town":"小栗栖森ケ淵町","koaza":"","lat":34.947635,"lng":135.807558},{"town":"小栗栖森本町","koaza":"","lat":34.943881,"lng":135.799846},{"town":"小栗栖山口町","koaza":"","lat":34.949407,"lng":135.798312},{"town":"帯屋町","koaza":"","lat":34.934514,"lng":135.755007},{"town":"表町","koaza":"","lat":34.929538,"lng":135.75865},{"town":"加賀屋町","koaza":"","lat":34.945227,"lng":135.758058},{"town":"柿木浜町","koaza":"","lat":34.927952,"lng":135.76301},{"town":"景勝町","koaza":"","lat":34.944147,"lng":135.755872},{"town":"鍛冶屋町","koaza":"","lat":34.940316,"lng":135.759257},{"town":"過書町","koaza":"","lat":34.932991,"lng":135.755997},{"town":"片桐町","koaza":"","lat":34.932224,"lng":135.766987},{"town":"片原町","koaza":"","lat":34.933958,"lng":135.757524},{"town":"上油掛町","koaza":"","lat":34.930783,"lng":135.761869},{"town":"上板橋町","koaza":"","lat":34.942383,"lng":135.761904},{"town":"紙子屋町","koaza":"","lat":34.94037,"lng":135.761267},{"town":"上神泉苑町","koaza":"","lat":34.944437,"lng":135.758366},{"town":"上中町","koaza":"","lat":34.929181,"lng":135.757826},{"town":"雁金町","koaza":"","lat":34.945879,"lng":135.758471},{"town":"川東町","koaza":"","lat":34.937838,"lng":135.754456},{"town":"革屋町","koaza":"","lat":34.934482,"lng":135.755722},{"town":"観音寺町","koaza":"","lat":34.933332,"lng":135.765696},{"town":"菊屋町","koaza":"","lat":34.942392,"lng":135.757977},{"town":"北尼崎町","koaza":"","lat":34.93946,"lng":135.758567},{"town":"北寝小屋町","koaza":"","lat":34.939557,"lng":135.749788},{"town":"北端町","koaza":"","lat":34.944856,"lng":135.752933},{"town":"北浜町","koaza":"","lat":34.929776,"lng":135.757066},{"town":"京橋町","koaza":"","lat":34.930643,"lng":135.758689},{"town":"京町十丁目","koaza":"","lat":34.944247,"lng":135.765365},{"town":"京町一丁目","koaza":"","lat":34.928568,"lng":135.764762},{"town":"京町二丁目","koaza":"","lat":34.930763,"lng":135.764734},{"town":"京町三丁目","koaza":"","lat":34.932358,"lng":135.764962},{"town":"京町四丁目","koaza":"","lat":34.93362,"lng":135.764797},{"town":"京町五丁目","koaza":"","lat":34.935807,"lng":135.764661},{"town":"京町六丁目","koaza":"","lat":34.936955,"lng":135.764966},{"town":"京町九丁目","koaza":"","lat":34.942701,"lng":135.765099},{"town":"京町北七丁目","koaza":"","lat":34.939195,"lng":135.764897},{"town":"京町北八丁目","koaza":"","lat":34.941588,"lng":135.765059},{"town":"京町大黒町","koaza":"","lat":34.934746,"lng":135.764778},{"town":"京町八丁目横町","koaza":"","lat":34.942111,"lng":135.765808},{"town":"京町南七丁目","koaza":"","lat":34.938146,"lng":135.764869},{"town":"京町南八丁目","koaza":"","lat":34.940378,"lng":135.764919},{"town":"銀座町一丁目","koaza":"","lat":34.933601,"lng":135.763925},{"town":"銀座町二丁目","koaza":"","lat":34.934699,"lng":135.764001},{"town":"銀座町三丁目","koaza":"","lat":34.935835,"lng":135.764031},{"town":"銀座町四丁目","koaza":"","lat":34.936967,"lng":135.764068},{"town":"久米町","koaza":"","lat":34.939055,"lng":135.757005},{"town":"車町","koaza":"","lat":34.930808,"lng":135.759461},{"town":"黒茶屋町","koaza":"","lat":34.943842,"lng":135.759465},{"town":"久我東町","koaza":"","lat":34.936328,"lng":135.730418},{"town":"久我石原町","koaza":"","lat":34.948394,"lng":135.728628},{"town":"久我御旅町","koaza":"","lat":34.942812,"lng":135.731093},{"town":"久我西出町","koaza":"","lat":34.938537,"lng":135.721352},{"town":"久我本町","koaza":"","lat":34.945491,"lng":135.729677},{"town":"久我森の宮町","koaza":"","lat":34.937412,"lng":135.727766},{"town":"御香宮門前町","koaza":"","lat":34.933821,"lng":135.767405},{"town":"紺屋町","koaza":"","lat":34.935919,"lng":135.760007},{"town":"指物町","koaza":"","lat":34.938557,"lng":135.76253},{"town":"讃岐町","koaza":"","lat":34.931601,"lng":135.765421},{"town":"塩屋町","koaza":"","lat":34.930779,"lng":135.760395},{"town":"治部町","koaza":"","lat":34.938896,"lng":135.752724},{"town":"島津町","koaza":"","lat":34.936157,"lng":135.752625},{"town":"清水町","koaza":"","lat":34.941141,"lng":135.760065},{"town":"下油掛町","koaza":"","lat":34.931523,"lng":135.759063},{"town":"下板橋町","koaza":"","lat":34.938384,"lng":135.760802},{"town":"下神泉苑町","koaza":"","lat":34.943397,"lng":135.758065},{"town":"下鳥羽長田町","koaza":"","lat":34.939641,"lng":135.743658},{"town":"下鳥羽上三栖町","koaza":"","lat":34.932512,"lng":135.746936},{"town":"下鳥羽上向島町","koaza":"","lat":34.94168,"lng":135.740732},{"town":"下鳥羽北円面田町","koaza":"","lat":34.934077,"lng":135.742664},{"town":"下鳥羽北三町","koaza":"","lat":34.937373,"lng":135.741962},{"town":"下鳥羽北ノ口町","koaza":"","lat":34.941456,"lng":135.747361},{"town":"下鳥羽小柳町","koaza":"","lat":34.93422,"lng":135.748171},{"town":"下鳥羽下向島町","koaza":"","lat":34.934842,"lng":135.738999},{"town":"下鳥羽浄春ケ前町","koaza":"","lat":34.934208,"lng":135.750367},{"town":"下鳥羽城ノ越町","koaza":"","lat":34.942328,"lng":135.744359},{"town":"下鳥羽芹川町","koaza":"","lat":34.946015,"lng":135.757158},{"town":"下鳥羽但馬町","koaza":"","lat":34.931884,"lng":135.749516},{"town":"下鳥羽中円面田町","koaza":"","lat":34.932848,"lng":135.742098},{"town":"下鳥羽中三町","koaza":"","lat":34.935132,"lng":135.741502},{"town":"下鳥羽中向島町","koaza":"","lat":34.940162,"lng":135.739189},{"town":"下鳥羽西芹川町","koaza":"","lat":34.942755,"lng":135.747216},{"town":"下鳥羽西柳長町","koaza":"","lat":34.937219,"lng":135.742988},{"town":"下鳥羽東芹川町","koaza":"","lat":34.941946,"lng":135.750331},{"town":"下鳥羽東柳長町","koaza":"","lat":34.937184,"lng":135.744342},{"town":"下鳥羽平塚町","koaza":"","lat":34.937041,"lng":135.746147},{"town":"下鳥羽広長町","koaza":"","lat":34.932384,"lng":135.744568},{"town":"下鳥羽前田町","koaza":"","lat":34.941851,"lng":135.742897},{"town":"下鳥羽南円面田町","koaza":"","lat":34.931575,"lng":135.740459},{"town":"下鳥羽南三町","koaza":"","lat":34.932834,"lng":135.740132},{"town":"下鳥羽南町前町","koaza":"","lat":34.935054,"lng":135.740496},{"town":"下鳥羽南柳長町","koaza":"","lat":34.934779,"lng":135.743613},{"town":"下鳥羽南六反長町","koaza":"","lat":34.931938,"lng":135.751557},{"town":"下鳥羽葭田町","koaza":"","lat":34.937157,"lng":135.748154},{"town":"下鳥羽澱女町","koaza":"","lat":34.934818,"lng":135.745967},{"town":"下鳥羽六反長町","koaza":"","lat":34.933513,"lng":135.752608},{"town":"下鳥羽渡瀬町","koaza":"","lat":34.939671,"lng":135.746586},{"town":"下中町","koaza":"","lat":34.929185,"lng":135.756511},{"town":"撞木町","koaza":"","lat":34.945793,"lng":135.764857},{"town":"聚楽町","koaza":"","lat":34.937704,"lng":135.756746},{"town":"聚楽町一丁目","koaza":"","lat":34.937794,"lng":135.756144},{"town":"聚楽町二丁目","koaza":"","lat":34.939153,"lng":135.756412},{"town":"城通町","koaza":"","lat":34.937671,"lng":135.757377},{"town":"白銀町","koaza":"","lat":34.941286,"lng":135.758622},{"town":"新中町","koaza":"","lat":34.928243,"lng":135.757352},{"town":"新町十丁目","koaza":"","lat":34.939246,"lng":135.763387},{"town":"新町十一丁目","koaza":"","lat":34.940658,"lng":135.763122},{"town":"新町十二丁目","koaza":"","lat":34.941563,"lng":135.763157},{"town":"新町十三丁目","koaza":"","lat":34.942871,"lng":135.763536},{"town":"新町十四丁目","koaza":"","lat":34.944103,"lng":135.763828},{"town":"新町一丁目","koaza":"","lat":34.928964,"lng":135.763267},{"town":"新町二丁目","koaza":"","lat":34.930251,"lng":135.763251},{"town":"新町三丁目","koaza":"","lat":34.931179,"lng":135.763134},{"town":"新町四丁目","koaza":"","lat":34.932321,"lng":135.763203},{"town":"新町五丁目","koaza":"","lat":34.933572,"lng":135.763224},{"town":"新町六丁目","koaza":"","lat":34.934627,"lng":135.76309},{"town":"新町七丁目","koaza":"","lat":34.935829,"lng":135.763096},{"town":"新町八丁目","koaza":"","lat":34.936955,"lng":135.7633},{"town":"新町九丁目","koaza":"","lat":34.938133,"lng":135.763288},{"town":"杉本町","koaza":"","lat":34.931022,"lng":135.754655},{"town":"周防町","koaza":"","lat":34.931919,"lng":135.757922},{"town":"墨染町","koaza":"","lat":34.947835,"lng":135.767989},{"town":"住吉町","koaza":"","lat":34.943923,"lng":135.762159},{"town":"瀬戸物町","koaza":"","lat":34.934098,"lng":135.761936},{"town":"醍醐合場町","koaza":"","lat":34.942763,"lng":135.811869},{"town":"醍醐赤間南裏町","koaza":"","lat":34.952956,"lng":135.821509},{"town":"醍醐池田町","koaza":"","lat":34.946586,"lng":135.80918},{"town":"醍醐和泉町","koaza":"","lat":34.948311,"lng":135.815709},{"town":"醍醐一言寺裏町","koaza":"","lat":34.943512,"lng":135.817803},{"town":"醍醐一ノ切町","koaza":"","lat":34.953699,"lng":135.867522},{"town":"醍醐上ノ山町","koaza":"","lat":34.956622,"lng":135.81439},{"town":"醍醐内ケ井戸","koaza":"","lat":34.963678,"lng":135.824191},{"town":"醍醐江奈志町","koaza":"","lat":34.944585,"lng":135.80908},{"town":"醍醐大構町","koaza":"","lat":34.948236,"lng":135.809541},{"town":"醍醐大高町","koaza":"","lat":34.95876,"lng":135.82239},{"town":"醍醐大畑町","koaza":"","lat":34.961615,"lng":135.823772},{"town":"醍醐落保町","koaza":"","lat":34.948328,"lng":135.818411},{"town":"醍醐折戸町","koaza":"","lat":34.951366,"lng":135.809196},{"town":"醍醐鍵尾町","koaza":"","lat":34.945534,"lng":135.809045},{"town":"醍醐柿原町","koaza":"","lat":34.96117,"lng":135.822224},{"town":"醍醐柏森町","koaza":"","lat":34.942812,"lng":135.816705},{"town":"醍醐片山町","koaza":"","lat":34.956777,"lng":135.82218},{"town":"醍醐構口町","koaza":"","lat":34.944205,"lng":135.813805},{"town":"醍醐上端山町","koaza":"","lat":34.946299,"lng":135.823178},{"town":"醍醐上山口町","koaza":"","lat":34.941136,"lng":135.817385},{"town":"醍醐上山田","koaza":"","lat":34.964204,"lng":135.826429},{"town":"醍醐烏橋町","koaza":"","lat":34.956496,"lng":135.819872},{"town":"醍醐伽藍町","koaza":"","lat":34.950975,"lng":135.823014},{"town":"醍醐川久保町","koaza":"","lat":34.954575,"lng":135.811898},{"town":"醍醐岸ノ上町","koaza":"","lat":34.943191,"lng":135.815048},{"town":"醍醐北伽藍町","koaza":"","lat":34.95223,"lng":135.824686},{"town":"醍醐北西裏町","koaza":"","lat":34.951959,"lng":135.812964},{"town":"醍醐北端山","koaza":"","lat":34.958934,"lng":135.83251},{"town":"醍醐京道町","koaza":"","lat":34.95896,"lng":135.818117},{"town":"醍醐切レ戸町","koaza":"","lat":34.956706,"lng":135.817413},{"town":"醍醐御所ノ内","koaza":"","lat":34.96368,"lng":135.822154},{"town":"醍醐御霊ケ下町","koaza":"","lat":34.948327,"lng":135.812507},{"town":"醍醐御陵西裏町","koaza":"","lat":34.955016,"lng":135.819921},{"town":"醍醐御陵東裏町","koaza":"","lat":34.954981,"lng":135.821807},{"town":"醍醐三ノ切","koaza":"","lat":34.948908,"lng":135.874876},{"town":"醍醐下端山町","koaza":"","lat":34.94693,"lng":135.818859},{"town":"醍醐下山口町","koaza":"","lat":34.942159,"lng":135.814501},{"town":"醍醐勝口町","koaza":"","lat":34.944961,"lng":135.818639},{"town":"醍醐新開","koaza":"","lat":34.943604,"lng":135.809096},{"town":"醍醐新町裏町","koaza":"","lat":34.955637,"lng":135.817073},{"town":"醍醐外山街道町","koaza":"","lat":34.939343,"lng":135.813869},{"town":"醍醐醍醐山","koaza":"","lat":34.940548,"lng":135.841312},{"town":"醍醐高畑町","koaza":"","lat":34.95078,"lng":135.811137},{"town":"醍醐多近田町","koaza":"","lat":34.944605,"lng":135.811966},{"town":"醍醐辰己町","koaza":"","lat":34.941905,"lng":135.813483},{"town":"醍醐陀羅谷","koaza":"","lat":34.958209,"lng":135.851809},{"town":"醍醐僧尊坊町","koaza":"","lat":34.946664,"lng":135.81204},{"town":"醍醐中山町","koaza":"","lat":34.953397,"lng":135.815594},{"town":"醍醐西大路町","koaza":"","lat":34.9508,"lng":135.815541},{"town":"醍醐二ノ切町","koaza":"","lat":34.950558,"lng":135.874057},{"town":"醍醐狭間","koaza":"","lat":34.963833,"lng":135.820699},{"town":"醍醐東合場町","koaza":"","lat":34.941105,"lng":135.811928},{"town":"醍醐東大路町","koaza":"","lat":34.951528,"lng":135.819095},{"town":"醍醐平松町","koaza":"","lat":34.954059,"lng":135.813597},{"town":"醍醐古道町","koaza":"","lat":34.958769,"lng":135.820008},{"town":"醍醐槇ノ内町","koaza":"","lat":34.945625,"lng":135.816609},{"town":"醍醐廻り戸町","koaza":"","lat":34.960948,"lng":135.820539},{"town":"醍醐御園尾町","koaza":"","lat":34.946207,"lng":135.81382},{"town":"醍醐南里町","koaza":"","lat":34.946187,"lng":135.815409},{"town":"醍醐南西裏町","koaza":"","lat":34.945706,"lng":135.812073},{"town":"醍醐南端山町","koaza":"","lat":34.940546,"lng":135.827646},{"town":"醍醐山ケ鼻","koaza":"","lat":34.962387,"lng":135.822651},{"town":"醍醐連蔵","koaza":"","lat":34.962024,"lng":135.820357},{"town":"鷹匠町","koaza":"","lat":34.936387,"lng":135.76093},{"town":"竹田青池町","koaza":"","lat":34.956513,"lng":135.749368},{"town":"竹田内畑町","koaza":"","lat":34.952849,"lng":135.757486},{"town":"竹田桶ノ井町","koaza":"","lat":34.955924,"lng":135.757184},{"town":"竹田狩賀町","koaza":"","lat":34.946785,"lng":135.756204},{"town":"竹田北三ツ杭町","koaza":"","lat":34.959422,"lng":135.758784},{"town":"竹田久保町","koaza":"","lat":34.962979,"lng":135.76099},{"town":"竹田浄菩提院町","koaza":"","lat":34.951747,"lng":135.754165},{"town":"竹田醍醐田町","koaza":"","lat":34.949731,"lng":135.756746},{"town":"竹田田中殿町","koaza":"","lat":34.954013,"lng":135.747949},{"town":"竹田田中宮町","koaza":"","lat":34.94925,"lng":135.753735},{"town":"竹田段川原町","koaza":"","lat":34.959133,"lng":135.757155},{"town":"竹田鳥羽殿町","koaza":"","lat":34.947355,"lng":135.750771},{"town":"竹田中内畑町","koaza":"","lat":34.95342,"lng":135.754195},{"town":"竹田中川原町","koaza":"","lat":34.958921,"lng":135.760382},{"town":"竹田中島町","koaza":"","lat":34.961878,"lng":135.757485},{"town":"竹田七瀬川町","koaza":"","lat":34.953248,"lng":135.759696},{"town":"竹田西内畑町","koaza":"","lat":34.954132,"lng":135.751028},{"town":"竹田西桶ノ井町","koaza":"","lat":34.955227,"lng":135.755185},{"town":"竹田西小屋ノ内町","koaza":"","lat":34.952418,"lng":135.746877},{"town":"竹田西段川原町","koaza":"","lat":34.958806,"lng":135.754488},{"town":"竹田東小屋ノ内町","koaza":"","lat":34.951839,"lng":135.749823},{"town":"竹田泓ノ川町","koaza":"","lat":34.94504,"lng":135.748392},{"town":"竹田松林町","koaza":"","lat":34.944889,"lng":135.750847},{"town":"竹田真幡木町","koaza":"","lat":34.95536,"lng":135.753263},{"town":"竹田三ツ杭町","koaza":"","lat":34.955998,"lng":135.758578},{"town":"竹田向代町","koaza":"","lat":34.964442,"lng":135.754978},{"town":"竹田向代町川町","koaza":"","lat":34.964051,"lng":135.752718},{"town":"竹田流池町","koaza":"","lat":34.961586,"lng":135.75417},{"town":"竹田藁屋町","koaza":"","lat":34.947175,"lng":135.753619},{"town":"竹中町","koaza":"","lat":34.936555,"lng":135.762338},{"town":"樽屋町","koaza":"","lat":34.9413,"lng":135.757931},{"town":"丹後町","koaza":"","lat":34.929606,"lng":135.762618},{"town":"弾正町","koaza":"","lat":34.927679,"lng":135.765353},{"town":"丹波橋町","koaza":"","lat":34.940283,"lng":135.759822},{"town":"津知橋町","koaza":"","lat":34.944655,"lng":135.761123},{"town":"問屋町","koaza":"","lat":34.93586,"lng":135.755936},{"town":"道阿弥町","koaza":"","lat":34.932368,"lng":135.765952},{"town":"等安町","koaza":"","lat":34.942344,"lng":135.759339},{"town":"桃陵町","koaza":"","lat":34.928815,"lng":135.766533},{"town":"常盤町","koaza":"","lat":34.930662,"lng":135.767949},{"town":"土橋町","koaza":"","lat":34.936712,"lng":135.757823},{"town":"鳥羽町","koaza":"","lat":34.94529,"lng":135.757399},{"town":"中油掛町","koaza":"","lat":34.931384,"lng":135.760397},{"town":"中島秋ノ山町","koaza":"","lat":34.951781,"lng":135.744341},{"town":"中島河原田町","koaza":"","lat":34.947297,"lng":135.74183},{"town":"中島北ノ口町","koaza":"","lat":34.949527,"lng":135.750915},{"town":"中島御所ノ内町","koaza":"","lat":34.949647,"lng":135.744112},{"town":"中島鳥羽離宮町","koaza":"","lat":34.950218,"lng":135.747029},{"town":"中島外山町","koaza":"","lat":34.945295,"lng":135.746416},{"town":"中島中道町","koaza":"","lat":34.94752,"lng":135.746492},{"town":"中島樋ノ上町","koaza":"","lat":34.945211,"lng":135.744311},{"town":"中島堀端町","koaza":"","lat":34.947439,"lng":135.748581},{"town":"中島前山町","koaza":"","lat":34.947589,"lng":135.744235},{"town":"中島宮ノ前町","koaza":"","lat":34.94924,"lng":135.748213},{"town":"中島流作町","koaza":"","lat":34.952079,"lng":135.742747},{"town":"中之町","koaza":"","lat":34.94306,"lng":135.762026},{"town":"鍋島町","koaza":"","lat":34.932113,"lng":135.768112},{"town":"納屋町","koaza":"","lat":34.932273,"lng":135.759585},{"town":"奈良屋町","koaza":"","lat":34.945318,"lng":135.76177},{"town":"成町","koaza":"","lat":34.939213,"lng":135.755763},{"town":"南部町","koaza":"","lat":34.934108,"lng":135.7609},{"town":"西尼崎町","koaza":"","lat":34.935727,"lng":135.755214},{"town":"西大手町","koaza":"","lat":34.933053,"lng":135.758411},{"town":"西鍵屋町","koaza":"","lat":34.943887,"lng":135.760757},{"town":"西堺町","koaza":"","lat":34.936895,"lng":135.755293},{"town":"西朱雀町","koaza":"","lat":34.942053,"lng":135.758667},{"town":"西大黒町","koaza":"","lat":34.940734,"lng":135.757351},{"town":"西大文字町","koaza":"","lat":34.93489,"lng":135.754331},{"town":"西浜町","koaza":"","lat":34.928097,"lng":135.756332},{"town":"西奉行町","koaza":"","lat":34.930686,"lng":135.766355},{"town":"西桝屋町","koaza":"","lat":34.947566,"lng":135.766329},{"town":"西町","koaza":"","lat":34.935241,"lng":135.758261},{"town":"西柳町","koaza":"","lat":34.929046,"lng":135.759504},{"town":"納所和泉屋","koaza":"","lat":34.911985,"lng":135.724249},{"town":"納所大野","koaza":"","lat":34.9125,"lng":135.728039},{"town":"納所岸ノ下","koaza":"","lat":34.9145,"lng":135.724977},{"town":"納所北城堀","koaza":"","lat":34.911366,"lng":135.720525},{"town":"納所下野","koaza":"","lat":34.909671,"lng":135.728619},{"town":"納所町","koaza":"","lat":34.909949,"lng":135.717789},{"town":"納所外島","koaza":"","lat":34.915708,"lng":135.723544},{"town":"納所中河原","koaza":"","lat":34.913507,"lng":135.724045},{"town":"納所星柳","koaza":"","lat":34.910952,"lng":135.722831},{"town":"納所南城堀","koaza":"","lat":34.909144,"lng":135.720372},{"town":"納所妙徳寺","koaza":"","lat":34.909425,"lng":135.718883},{"town":"納所薬師堂","koaza":"","lat":34.909143,"lng":135.721847},{"town":"羽束師鴨川町","koaza":"","lat":34.933929,"lng":135.73411},{"town":"羽束師志水町","koaza":"","lat":34.930369,"lng":135.726219},{"town":"羽束師菱川町","koaza":"","lat":34.932496,"lng":135.719617},{"town":"羽束師古川町","koaza":"","lat":34.925011,"lng":135.722886},{"town":"東大手町","koaza":"","lat":34.933006,"lng":135.761852},{"town":"東組町","koaza":"","lat":34.93525,"lng":135.760887},{"town":"東堺町","koaza":"","lat":34.937663,"lng":135.758453},{"town":"東朱雀町","koaza":"","lat":34.941261,"lng":135.759322},{"town":"東大黒町","koaza":"","lat":34.940287,"lng":135.757695},{"town":"東大文字町","koaza":"","lat":34.940276,"lng":135.758638},{"town":"東浜南町","koaza":"","lat":34.92816,"lng":135.758489},{"town":"東菱屋町","koaza":"","lat":34.935422,"lng":135.756903},{"town":"東奉行町","koaza":"","lat":34.930596,"lng":135.767306},{"town":"東町","koaza":"","lat":34.9353,"lng":135.75965},{"town":"東柳町","koaza":"","lat":34.929002,"lng":135.760542},{"town":"肥後町","koaza":"","lat":34.936081,"lng":135.758025},{"town":"菱屋町","koaza":"","lat":34.945006,"lng":135.75946},{"town":"日野岡西町","koaza":"","lat":34.933089,"lng":135.81417},{"town":"日野奥出","koaza":"","lat":34.929699,"lng":135.816461},{"town":"日野北川頬","koaza":"","lat":34.935791,"lng":135.820379},{"town":"日野北山","koaza":"","lat":34.935793,"lng":135.827055},{"town":"日野慈悲町","koaza":"","lat":34.935107,"lng":135.8178},{"town":"日野田頬町","koaza":"","lat":34.93291,"lng":135.81325},{"town":"日野田中町","koaza":"","lat":34.938629,"lng":135.812352},{"town":"日野谷田町","koaza":"","lat":34.930544,"lng":135.819933},{"town":"日野谷寺町","koaza":"","lat":34.939123,"lng":135.816821},{"town":"日野西川頬","koaza":"","lat":34.937862,"lng":135.81104},{"town":"日野西大道町","koaza":"","lat":34.93369,"lng":135.815294},{"town":"日野西風呂町","koaza":"","lat":34.935502,"lng":135.8135},{"town":"日野野色町","koaza":"","lat":34.929812,"lng":135.814866},{"town":"日野畑出町","koaza":"","lat":34.934042,"lng":135.817513},{"town":"日野林","koaza":"","lat":34.937295,"lng":135.817115},{"town":"日野馬場出町","koaza":"","lat":34.937119,"lng":135.813814},{"town":"日野不動講町","koaza":"","lat":34.936624,"lng":135.815719},{"town":"日野船尾","koaza":"","lat":34.933946,"lng":135.822487},{"town":"日野南山","koaza":"","lat":34.930609,"lng":135.826932},{"town":"平戸町","koaza":"","lat":34.926441,"lng":135.766269},{"town":"平野町","koaza":"","lat":34.932401,"lng":135.760651},{"town":"深草相深町","koaza":"","lat":34.972465,"lng":135.76902},{"town":"深草鐙ケ谷町","koaza":"","lat":34.948447,"lng":135.789363},{"town":"深草池ノ内町","koaza":"","lat":34.954582,"lng":135.764944},{"town":"深草飯食町","koaza":"","lat":34.955636,"lng":135.768839},{"town":"深草飯食山町","koaza":"","lat":34.959638,"lng":135.787531},{"town":"深草石橋町","koaza":"","lat":34.948201,"lng":135.771469},{"town":"深草一ノ坪町","koaza":"","lat":34.968404,"lng":135.769013},{"town":"深草稲荷榎木橋町","koaza":"","lat":34.969461,"lng":135.770933},{"town":"深草稲荷御前町","koaza":"","lat":34.966944,"lng":135.770944},{"town":"深草稲荷鳥居前町","koaza":"","lat":34.966501,"lng":135.769554},{"town":"深草稲荷中之町","koaza":"","lat":34.96846,"lng":135.770928},{"town":"深草今在家町","koaza":"","lat":34.965404,"lng":135.766886},{"town":"深草馬谷町","koaza":"","lat":34.956122,"lng":135.786885},{"town":"深草越後屋敷町","koaza":"","lat":34.950337,"lng":135.764437},{"town":"深草扇ケ原町","koaza":"","lat":34.961097,"lng":135.790539},{"town":"深草大亀谷安信町","koaza":"","lat":34.94001,"lng":135.784627},{"town":"深草大亀谷岩山町","koaza":"","lat":34.941329,"lng":135.787953},{"town":"深草大亀谷大谷町","koaza":"","lat":34.949073,"lng":135.780767},{"town":"深草大亀谷大山町","koaza":"","lat":34.946859,"lng":135.778345},{"town":"深草大亀谷金森出雲町","koaza":"","lat":34.944555,"lng":135.770973},{"town":"深草大亀谷古城山","koaza":"","lat":34.939611,"lng":135.783837},{"town":"深草大亀谷五郎太町","koaza":"","lat":34.941997,"lng":135.776879},{"town":"深草大亀谷敦賀町","koaza":"","lat":34.943511,"lng":135.783927},{"town":"深草大亀谷内膳町","koaza":"","lat":34.945757,"lng":135.772724},{"town":"深草大亀谷西久宝寺町","koaza":"","lat":34.953478,"lng":135.776865},{"town":"深草大亀谷西寺町","koaza":"","lat":34.95026,"lng":135.775459},{"town":"深草大亀谷東安信町","koaza":"","lat":34.940693,"lng":135.785529},{"town":"深草大亀谷東久宝寺町","koaza":"","lat":34.952656,"lng":135.779129},{"town":"深草大亀谷東寺町","koaza":"","lat":34.949371,"lng":135.777953},{"town":"深草大亀谷東古御香町","koaza":"","lat":34.944277,"lng":135.787114},{"town":"深草大亀谷古御香町","koaza":"","lat":34.944605,"lng":135.784939},{"town":"深草大亀谷万帖敷町","koaza":"","lat":34.944204,"lng":135.779325},{"town":"深草大亀谷八島町","koaza":"","lat":34.947692,"lng":135.773672},{"town":"深草大亀谷六躰町","koaza":"","lat":34.944985,"lng":135.774328},{"town":"深草大島屋敷町","koaza":"","lat":34.94924,"lng":135.766254},{"town":"深草ヲカヤ町","koaza":"","lat":34.964286,"lng":135.763747},{"town":"深草開土口町","koaza":"","lat":34.969225,"lng":135.775608},{"town":"深草開土町","koaza":"","lat":34.96942,"lng":135.772557},{"town":"深草加賀屋敷町","koaza":"","lat":34.948821,"lng":135.757495},{"town":"深草兜山町","koaza":"","lat":34.945808,"lng":135.78909},{"town":"深草上横縄町","koaza":"","lat":34.97051,"lng":135.769242},{"town":"深草枯木町","koaza":"","lat":34.954759,"lng":135.773604},{"town":"深草川久保町","koaza":"","lat":34.965715,"lng":135.763884},{"town":"深草瓦町","koaza":"","lat":34.957688,"lng":135.778534},{"town":"深草願成町","koaza":"","lat":34.971211,"lng":135.774139},{"town":"深草勧進橋町","koaza":"","lat":34.968861,"lng":135.761749},{"town":"深草北鍵屋町","koaza":"","lat":34.949583,"lng":135.767333},{"town":"深草北新町","koaza":"","lat":34.948696,"lng":135.769743},{"town":"深草北蓮池町","koaza":"","lat":34.951701,"lng":135.767938},{"town":"深草キトロ町","koaza":"","lat":34.958418,"lng":135.769457},{"town":"深草霧ケ谷町","koaza":"","lat":34.952189,"lng":135.788898},{"town":"深草鞍ケ谷","koaza":"","lat":34.95559,"lng":135.78296},{"town":"深草車阪町","koaza":"","lat":34.975381,"lng":135.77704},{"town":"深草ケナサ町","koaza":"","lat":34.963808,"lng":135.769552},{"town":"深草小久保町","koaza":"","lat":34.95231,"lng":135.762062},{"town":"深草極楽寺町","koaza":"","lat":34.962187,"lng":135.77298},{"town":"深草極楽寺山町","koaza":"","lat":34.964593,"lng":135.789109},{"town":"深草極楽町","koaza":"","lat":34.955699,"lng":135.770176},{"town":"深草五反田町","koaza":"","lat":34.956644,"lng":135.764847},{"town":"深草紺屋町","koaza":"","lat":34.945311,"lng":135.763017},{"town":"深草笹山町","koaza":"","lat":34.966679,"lng":135.777637},{"town":"深草佐野屋敷町","koaza":"","lat":34.947283,"lng":135.765309},{"town":"深草柴田屋敷町","koaza":"","lat":34.947368,"lng":135.761913},{"town":"深草下川原町","koaza":"","lat":34.96759,"lng":135.763085},{"town":"深草下高松町","koaza":"","lat":34.972877,"lng":135.769339},{"town":"深草下横縄町","koaza":"","lat":34.969499,"lng":135.769468},{"town":"深草十九軒町","koaza":"","lat":34.951479,"lng":135.769692},{"town":"深草正覚町","koaza":"","lat":34.972538,"lng":135.772282},{"town":"深草白砂町","koaza":"","lat":34.94892,"lng":135.785251},{"town":"深草真宗院山町","koaza":"","lat":34.960237,"lng":135.778418},{"town":"深草神明講谷町","koaza":"","lat":34.957818,"lng":135.789617},{"town":"深草新門丈町","koaza":"","lat":34.950162,"lng":135.761006},{"town":"深草直違橋十丁目","koaza":"","lat":34.964296,"lng":135.771083},{"town":"深草直違橋十一丁目","koaza":"","lat":34.965484,"lng":135.770929},{"town":"深草直違橋二丁目","koaza":"","lat":34.954825,"lng":135.770825},{"town":"深草直違橋三丁目","koaza":"","lat":34.956197,"lng":135.771233},{"town":"深草直違橋四丁目","koaza":"","lat":34.957452,"lng":135.771354},{"town":"深草直違橋五丁目","koaza":"","lat":34.958511,"lng":135.771186},{"town":"深草直違橋六丁目","koaza":"","lat":34.959732,"lng":135.771178},{"town":"深草直違橋七丁目","koaza":"","lat":34.960804,"lng":135.771185},{"town":"深草直違橋八丁目","koaza":"","lat":34.961905,"lng":135.771148},{"town":"深草直違橋九丁目","koaza":"","lat":34.963148,"lng":135.771099},{"town":"深草直違橋片町","koaza":"","lat":34.951527,"lng":135.770933},{"town":"深草直違橋北一丁目","koaza":"","lat":34.95372,"lng":135.770798},{"town":"深草直違橋南一丁目","koaza":"","lat":34.952951,"lng":135.770259},{"town":"深草鈴塚町","koaza":"","lat":34.969642,"lng":135.766465},{"town":"深草スゝハキ町","koaza":"","lat":34.96534,"lng":135.769538},{"town":"深草砂子谷町","koaza":"","lat":34.951417,"lng":135.785008},{"town":"深草墨染町","koaza":"","lat":34.946455,"lng":135.768058},{"town":"深草石峰寺山町","koaza":"","lat":34.964863,"lng":135.77653},{"town":"深草関屋敷町","koaza":"","lat":34.951466,"lng":135.766967},{"town":"深草仙石屋敷町","koaza":"","lat":34.952649,"lng":135.765238},{"town":"深草善導寺町","koaza":"","lat":34.946154,"lng":135.759594},{"town":"深草僧坊町","koaza":"","lat":34.958286,"lng":135.776058},{"town":"深草僧坊山町","koaza":"","lat":34.962474,"lng":135.782807},{"town":"深草大門町","koaza":"","lat":34.965056,"lng":135.772755},{"town":"深草谷口町","koaza":"","lat":34.951884,"lng":135.781917},{"town":"深草田谷町","koaza":"","lat":34.958706,"lng":135.773151},{"town":"深草町通町","koaza":"","lat":34.960602,"lng":135.769495},{"town":"深草塚本町","koaza":"","lat":34.963897,"lng":135.766662},{"town":"深草寺内町","koaza":"","lat":34.953735,"lng":135.76878},{"town":"深草出羽屋敷町","koaza":"","lat":34.94707,"lng":135.763859},{"town":"深草東軸町","koaza":"","lat":34.952026,"lng":135.786781},{"town":"深草砥粉山町","koaza":"","lat":34.961405,"lng":135.78538},{"town":"深草鳥居崎町","koaza":"","lat":34.950337,"lng":135.771401},{"town":"深草中川原町","koaza":"","lat":34.972093,"lng":135.766579},{"town":"深草中ノ郷山町","koaza":"","lat":34.958899,"lng":135.783156},{"town":"深草中ノ島町","koaza":"","lat":34.946247,"lng":135.770605},{"town":"深草七瀬川町","koaza":"","lat":34.952917,"lng":135.76778},{"town":"深草南明町","koaza":"","lat":34.972963,"lng":135.77569},{"town":"深草西飯食町","koaza":"","lat":34.955171,"lng":135.767892},{"town":"深草西浦町一丁目","koaza":"","lat":34.961678,"lng":135.762624},{"town":"深草西浦町二丁目","koaza":"","lat":34.961663,"lng":135.764528},{"town":"深草西浦町三丁目","koaza":"","lat":34.961334,"lng":135.766158},{"town":"深草西浦町四丁目","koaza":"","lat":34.961352,"lng":135.767561},{"town":"深草西浦町五丁目","koaza":"","lat":34.958266,"lng":135.76721},{"town":"深草西浦町六丁目","koaza":"","lat":34.958243,"lng":135.765483},{"town":"深草西浦町七丁目","koaza":"","lat":34.958871,"lng":135.764195},{"town":"深草西浦町八丁目","koaza":"","lat":34.958433,"lng":135.762042},{"town":"深草西川原町","koaza":"","lat":34.971552,"lng":135.764663},{"town":"深草西伊達町","koaza":"","lat":34.956332,"lng":135.773636},{"town":"深草西出町","koaza":"","lat":34.960424,"lng":135.772912},{"town":"深草西出山町","koaza":"","lat":34.962699,"lng":135.777961},{"town":"深草野田町","koaza":"","lat":34.959643,"lng":135.769487},{"town":"深草野手町","koaza":"","lat":34.963635,"lng":135.772728},{"town":"深草秡川町","koaza":"","lat":34.96744,"lng":135.769108},{"town":"深草東瓦町","koaza":"","lat":34.957915,"lng":135.780615},{"town":"深草東伊達町","koaza":"","lat":34.955485,"lng":135.778023},{"town":"深草平田町","koaza":"","lat":34.96763,"lng":135.76524},{"town":"深草フケノ内町","koaza":"","lat":34.968075,"lng":135.767235},{"town":"深草泓ノ壺町","koaza":"","lat":34.948592,"lng":135.759764},{"town":"深草藤田坪町","koaza":"","lat":34.972063,"lng":135.767376},{"town":"深草藤森玄蕃町","koaza":"","lat":34.950281,"lng":135.769664},{"town":"深草藤森町","koaza":"","lat":34.950616,"lng":135.773299},{"town":"深草フチ町","koaza":"","lat":34.954593,"lng":135.761525},{"town":"深草坊町","koaza":"","lat":34.960549,"lng":135.77552},{"town":"深草宝塔寺山町","koaza":"","lat":34.962795,"lng":135.775561},{"town":"深草坊山町","koaza":"","lat":34.963574,"lng":135.781884},{"town":"深草堀田町","koaza":"","lat":34.957284,"lng":135.76944},{"town":"深草本寺山町","koaza":"","lat":34.975321,"lng":135.774993},{"town":"深草南蓮池町","koaza":"","lat":34.950779,"lng":135.767686},{"town":"深草宮谷町","koaza":"","lat":34.948885,"lng":135.782221},{"town":"深草向川原町","koaza":"","lat":34.965795,"lng":135.759577},{"town":"深草向畑町","koaza":"","lat":34.95358,"lng":135.773814},{"town":"深草向ケ原町","koaza":"","lat":34.95278,"lng":135.791245},{"town":"深草森吉町","koaza":"","lat":34.971423,"lng":135.769126},{"town":"深草藪之内町","koaza":"","lat":34.966389,"lng":135.772446},{"town":"深草山村町","koaza":"","lat":34.948641,"lng":135.767034},{"town":"深草芳永町","koaza":"","lat":34.949209,"lng":135.768397},{"town":"深草芳本町","koaza":"","lat":34.948933,"lng":135.769},{"town":"深草六反田町","koaza":"","lat":34.970632,"lng":135.766428},{"town":"深草綿森町","koaza":"","lat":34.962078,"lng":135.769483},{"town":"奉行前町","koaza":"","lat":34.930548,"lng":135.765436},{"town":"舞台町","koaza":"","lat":34.94114,"lng":135.755628},{"town":"風呂屋町","koaza":"","lat":34.934042,"lng":135.759972},{"town":"豊後橋町","koaza":"","lat":34.928042,"lng":135.768196},{"town":"伯耆町","koaza":"","lat":34.932172,"lng":135.761164},{"town":"堀詰町","koaza":"","lat":34.941497,"lng":135.761786},{"town":"桝形町","koaza":"","lat":34.93907,"lng":135.759411},{"town":"桝屋町","koaza":"","lat":34.942373,"lng":135.760115},{"town":"松屋町","koaza":"","lat":34.937921,"lng":135.755371},{"town":"三栖町一丁目","koaza":"","lat":34.929778,"lng":135.75542},{"town":"三栖町二丁目","koaza":"","lat":34.928159,"lng":135.755486},{"town":"三栖町三丁目","koaza":"","lat":34.926417,"lng":135.755386},{"town":"三栖町四丁目","koaza":"","lat":34.92486,"lng":135.755453},{"town":"三栖町五丁目","koaza":"","lat":34.922487,"lng":135.755489},{"town":"三栖半町","koaza":"","lat":34.930502,"lng":135.755934},{"town":"三栖向町","koaza":"","lat":34.92715,"lng":135.757527},{"town":"御堂前町","koaza":"","lat":34.932423,"lng":135.762305},{"town":"南尼崎町","koaza":"","lat":34.938735,"lng":135.758377},{"town":"南新地","koaza":"","lat":34.927427,"lng":135.759923},{"town":"南寝小屋町","koaza":"","lat":34.937157,"lng":135.750422},{"town":"南浜町","koaza":"","lat":34.930319,"lng":135.760132},{"town":"向島大河原","koaza":"","lat":34.917632,"lng":135.755161},{"town":"向島上五反田","koaza":"","lat":34.910849,"lng":135.742092},{"town":"向島上林町","koaza":"","lat":34.919718,"lng":135.761293},{"town":"向島庚申町","koaza":"","lat":34.924914,"lng":135.772973},{"town":"向島黒坊","koaza":"","lat":34.910396,"lng":135.753648},{"town":"向島清水町","koaza":"","lat":34.919325,"lng":135.785846},{"town":"向島下五反田","koaza":"","lat":34.908038,"lng":135.738638},{"town":"向島下之町","koaza":"","lat":34.9239,"lng":135.768066},{"town":"向島新大河原","koaza":"","lat":34.913602,"lng":135.751828},{"town":"向島新上林","koaza":"","lat":34.915892,"lng":135.760468},{"town":"向島新田","koaza":"","lat":34.906961,"lng":135.755515},{"town":"向島吹田河原町","koaza":"","lat":34.92534,"lng":135.777132},{"town":"向島善阿弥町","koaza":"","lat":34.925345,"lng":135.770577},{"town":"向島大黒","koaza":"","lat":34.915948,"lng":135.748216},{"town":"向島鷹場町","koaza":"","lat":34.920879,"lng":135.783406},{"town":"向島立河原町","koaza":"","lat":34.925081,"lng":135.774848},{"town":"向島津田町","koaza":"","lat":34.921068,"lng":135.765522},{"town":"向島東泉寺町","koaza":"","lat":34.924732,"lng":135.778988},{"town":"向島中島町","koaza":"","lat":34.921969,"lng":135.768523},{"town":"向島中之町","koaza":"","lat":34.925076,"lng":135.768042},{"town":"向島西定請","koaza":"","lat":34.911726,"lng":135.764433},{"town":"向島西堤町","koaza":"","lat":34.924553,"lng":135.766766},{"town":"向島二ノ丸町","koaza":"","lat":34.918136,"lng":135.772752},{"town":"向島二本柳","koaza":"","lat":34.91313,"lng":135.760178},{"town":"向島橋詰町","koaza":"","lat":34.926298,"lng":135.769231},{"town":"向島東定請","koaza":"","lat":34.916508,"lng":135.766145},{"town":"向島藤ノ木町","koaza":"","lat":34.922641,"lng":135.781628},{"town":"向島本丸町","koaza":"","lat":34.923295,"lng":135.770475},{"town":"向島又兵衛","koaza":"","lat":34.905506,"lng":135.728845},{"town":"向島丸町","koaza":"","lat":34.921099,"lng":135.77645},{"town":"向島柳島","koaza":"","lat":34.914262,"lng":135.741788},{"town":"向島四ツ谷池","koaza":"","lat":34.919179,"lng":135.775603},{"town":"向島渡シ場町","koaza":"","lat":34.917793,"lng":135.787927},{"town":"村上町","koaza":"","lat":34.931489,"lng":135.756648},{"town":"毛利町","koaza":"","lat":34.94192,"lng":135.752871},{"town":"本材木町","koaza":"","lat":34.929016,"lng":135.761763},{"town":"桃山井伊掃部西町","koaza":"","lat":34.940943,"lng":135.765822},{"town":"桃山井伊掃部東町","koaza":"","lat":34.940921,"lng":135.767271},{"town":"桃山紅雪町","koaza":"","lat":34.938126,"lng":135.787401},{"town":"桃山筑前台町","koaza":"","lat":34.934153,"lng":135.77042},{"town":"桃山町安芸山","koaza":"","lat":34.938529,"lng":135.789884},{"town":"桃山町伊賀","koaza":"","lat":34.931007,"lng":135.77807},{"town":"桃山町板倉周防","koaza":"","lat":34.933097,"lng":135.777681},{"town":"桃山町伊庭","koaza":"","lat":34.935096,"lng":135.786247},{"town":"桃山町大蔵","koaza":"","lat":34.940215,"lng":135.778754},{"town":"桃山町大津町","koaza":"","lat":34.934059,"lng":135.789085},{"town":"桃山町金井戸島","koaza":"","lat":34.925721,"lng":135.757551},{"town":"桃山町金森出雲","koaza":"","lat":34.934258,"lng":135.76627},{"town":"桃山町古城山","koaza":"","lat":34.937873,"lng":135.781118},{"town":"桃山町治部少丸","koaza":"","lat":34.936768,"lng":135.775846},{"town":"桃山町島津","koaza":"","lat":34.938615,"lng":135.77269},{"town":"桃山町下野","koaza":"","lat":34.93711,"lng":135.774107},{"town":"桃山町真斉","koaza":"","lat":34.945115,"lng":135.764061},{"town":"桃山町新町","koaza":"","lat":34.933802,"lng":135.786397},{"town":"桃山町駿河","koaza":"","lat":34.933529,"lng":135.780901},{"town":"桃山町泰長老","koaza":"","lat":34.929887,"lng":135.77105},{"town":"桃山町立売","koaza":"","lat":34.931837,"lng":135.770179},{"town":"桃山町丹下","koaza":"","lat":34.944649,"lng":135.767898},{"town":"桃山町弾正島","koaza":"","lat":34.926153,"lng":135.764327},{"town":"桃山町遠山","koaza":"","lat":34.936125,"lng":135.789565},{"town":"桃山町永井久太郎","koaza":"","lat":34.940278,"lng":135.773566},{"town":"桃山町中島町","koaza":"","lat":34.932671,"lng":135.794068},{"town":"桃山町鍋島","koaza":"","lat":34.932781,"lng":135.770333},{"town":"桃山町西尾","koaza":"","lat":34.934994,"lng":135.793672},{"town":"桃山町西町","koaza":"","lat":34.934046,"lng":135.790128},{"town":"桃山町二ノ丸","koaza":"","lat":34.938029,"lng":135.778557},{"town":"桃山町根来","koaza":"","lat":34.931283,"lng":135.781784},{"town":"桃山町東町","koaza":"","lat":34.933761,"lng":135.791647},{"town":"桃山町百軒長屋","koaza":"","lat":34.933885,"lng":135.782935},{"town":"桃山町日向","koaza":"","lat":34.939264,"lng":135.792805},{"town":"桃山町本多上野","koaza":"","lat":34.930529,"lng":135.775195},{"town":"桃山町正宗","koaza":"","lat":34.943218,"lng":135.773769},{"town":"桃山町町並","koaza":"","lat":34.933814,"lng":135.793695},{"town":"桃山町松平筑前","koaza":"","lat":34.93387,"lng":135.768627},{"town":"桃山町松平武蔵","koaza":"","lat":34.932674,"lng":135.773271},{"town":"桃山町丸山","koaza":"","lat":34.936826,"lng":135.783531},{"town":"桃山町三河","koaza":"","lat":34.93516,"lng":135.773397},{"town":"桃山町見附町","koaza":"","lat":34.933583,"lng":135.792882},{"town":"桃山町美濃","koaza":"","lat":34.932333,"lng":135.782667},{"town":"桃山町山ノ下","koaza":"","lat":34.9385,"lng":135.795448},{"town":"桃山筒井伊賀西町","koaza":"","lat":34.938676,"lng":135.765594},{"town":"桃山筒井伊賀東町","koaza":"","lat":34.938595,"lng":135.767197},{"town":"桃山長岡越中北町","koaza":"","lat":34.941594,"lng":135.769656},{"town":"桃山長岡越中東町","koaza":"","lat":34.940681,"lng":135.770554},{"town":"桃山長岡越中南町","koaza":"","lat":34.940505,"lng":135.768833},{"town":"桃山羽柴長吉中町","koaza":"","lat":34.93641,"lng":135.766506},{"town":"桃山羽柴長吉西町","koaza":"","lat":34.936391,"lng":135.765647},{"town":"桃山羽柴長吉東町","koaza":"","lat":34.936368,"lng":135.7672},{"town":"桃山福島太夫北町","koaza":"","lat":34.939202,"lng":135.769902},{"town":"桃山福島太夫西町","koaza":"","lat":34.938596,"lng":135.768405},{"town":"桃山福島太夫南町","koaza":"","lat":34.938108,"lng":135.770016},{"town":"桃山水野左近西町","koaza":"","lat":34.942972,"lng":135.76645},{"town":"桃山水野左近東町","koaza":"","lat":34.942755,"lng":135.768987},{"town":"桃山南大島町","koaza":"","lat":34.9249,"lng":135.786074},{"town":"桃山毛利長門西町","koaza":"","lat":34.936387,"lng":135.767866},{"town":"桃山毛利長門東町","koaza":"","lat":34.936114,"lng":135.769434},{"town":"桃山最上町","koaza":"","lat":34.943739,"lng":135.768626},{"town":"桃山与五郎町","koaza":"","lat":34.928794,"lng":135.780714},{"town":"山崎町","koaza":"","lat":34.930782,"lng":135.757811},{"town":"大和町","koaza":"","lat":34.942428,"lng":135.760759},{"town":"鑓屋町","koaza":"","lat":34.946106,"lng":135.765907},{"town":"八幡町","koaza":"","lat":34.931748,"lng":135.754994},{"town":"横大路一本木","koaza":"","lat":34.920079,"lng":135.733848},{"town":"横大路柿ノ本町","koaza":"","lat":34.925387,"lng":135.735989},{"town":"横大路上ノ浜町","koaza":"","lat":34.927029,"lng":135.731869},{"town":"横大路北ノ口町","koaza":"","lat":34.917117,"lng":135.732996},{"town":"横大路貴船","koaza":"","lat":34.929195,"lng":135.738558},{"town":"横大路草津町","koaza":"","lat":34.929313,"lng":135.734452},{"town":"横大路畔ノ内","koaza":"","lat":34.922602,"lng":135.734819},{"town":"横大路鍬ノ本","koaza":"","lat":34.925261,"lng":135.738438},{"town":"横大路西海道","koaza":"","lat":34.915629,"lng":135.728901},{"town":"横大路芝生","koaza":"","lat":34.927306,"lng":135.74493},{"town":"横大路下島","koaza":"","lat":34.921008,"lng":135.727366},{"town":"横大路下ノ坪","koaza":"","lat":34.913716,"lng":135.734392},{"town":"横大路下三栖梶原町","koaza":"","lat":34.929319,"lng":135.748382},{"town":"横大路下三栖里ノ内","koaza":"","lat":34.922849,"lng":135.750562},{"town":"横大路下三栖城ノ前町","koaza":"","lat":34.92585,"lng":135.748323},{"town":"横大路下三栖辻堂町","koaza":"","lat":34.929177,"lng":135.750395},{"town":"横大路下三栖南郷","koaza":"","lat":34.929799,"lng":135.746593},{"town":"横大路下三栖東ノ口","koaza":"","lat":34.923624,"lng":135.753615},{"town":"横大路下三栖宮ノ後","koaza":"","lat":34.925894,"lng":135.746489},{"town":"横大路下三栖山殿","koaza":"","lat":34.929044,"lng":135.753206},{"town":"横大路朱雀","koaza":"","lat":34.929354,"lng":135.743103},{"town":"横大路神宮寺","koaza":"","lat":34.913074,"lng":135.731257},{"town":"横大路菅本","koaza":"","lat":34.921795,"lng":135.737384},{"town":"横大路千両松町","koaza":"","lat":34.918711,"lng":135.741378},{"town":"横大路竜ケ池","koaza":"","lat":34.920572,"lng":135.730329},{"town":"横大路天王後","koaza":"","lat":34.9293,"lng":135.740871},{"town":"横大路天王前","koaza":"","lat":34.925047,"lng":135.740756},{"town":"横大路富ノ森町","koaza":"","lat":34.917292,"lng":135.726257},{"town":"横大路中ノ島町","koaza":"","lat":34.923725,"lng":135.729294},{"town":"横大路中ノ庄町","koaza":"","lat":34.927622,"lng":135.735285},{"town":"横大路長畑町","koaza":"","lat":34.924328,"lng":135.732101},{"town":"横大路橋本","koaza":"","lat":34.925519,"lng":135.743217},{"town":"横大路畑中町","koaza":"","lat":34.92636,"lng":135.733962},{"town":"横大路八反田","koaza":"","lat":34.917213,"lng":135.735226},{"town":"横大路東裏町","koaza":"","lat":34.92897,"lng":135.736393},{"town":"横大路前川町","koaza":"","lat":34.917621,"lng":135.726971},{"town":"横大路松林","koaza":"","lat":34.912276,"lng":135.736638},{"town":"横大路三栖池田屋敷町","koaza":"","lat":34.927987,"lng":135.751699},{"town":"横大路三栖木下屋敷町","koaza":"","lat":34.929416,"lng":135.755068},{"town":"横大路三栖大黒町","koaza":"","lat":34.932511,"lng":135.754375},{"town":"横大路三栖泥町跡町","koaza":"","lat":34.930933,"lng":135.752683},{"town":"横大路三栖山城屋敷町","koaza":"","lat":34.932183,"lng":135.752674},{"town":"横大路南島","koaza":"","lat":34.918802,"lng":135.725709},{"town":"横大路向ヒ","koaza":"","lat":34.923747,"lng":135.733321},{"town":"横大路六反畑","koaza":"","lat":34.917531,"lng":135.730301},{"town":"葭島金井戸町","koaza":"","lat":34.922992,"lng":135.758623},{"town":"葭島矢倉町","koaza":"","lat":34.925626,"lng":135.761423},{"town":"葭島渡場島町","koaza":"","lat":34.909276,"lng":135.733879},{"town":"淀池上町","koaza":"","lat":34.903647,"lng":135.722007},{"town":"淀大下津町","koaza":"","lat":34.905241,"lng":135.709053},{"town":"淀川顔町","koaza":"","lat":34.89886,"lng":135.718127},{"town":"淀木津町","koaza":"","lat":34.902737,"lng":135.713851},{"town":"淀際目町","koaza":"","lat":34.891143,"lng":135.71617},{"town":"淀下津町","koaza":"","lat":34.902976,"lng":135.719257},{"town":"淀新町","koaza":"","lat":34.900952,"lng":135.71913},{"town":"淀生津町","koaza":"","lat":34.881428,"lng":135.724807},{"town":"淀樋爪町","koaza":"","lat":34.919089,"lng":135.72041},{"town":"淀本町","koaza":"","lat":34.905557,"lng":135.717931},{"town":"淀水垂町","koaza":"","lat":34.912773,"lng":135.714366},{"town":"淀美豆町","koaza":"","lat":34.898784,"lng":135.709652},{"town":"両替町十丁目","koaza":"","lat":34.939236,"lng":135.764135},{"town":"両替町十一丁目","koaza":"","lat":34.940385,"lng":135.764172},{"town":"両替町十二丁目","koaza":"","lat":34.941557,"lng":135.764239},{"town":"両替町十三丁目","koaza":"","lat":34.942634,"lng":135.764341},{"town":"両替町十四丁目","koaza":"","lat":34.943595,"lng":135.764542},{"town":"両替町十五丁目","koaza":"","lat":34.944677,"lng":135.76471},{"town":"両替町一丁目","koaza":"","lat":34.928462,"lng":135.764014},{"town":"両替町二丁目","koaza":"","lat":34.93026,"lng":135.764},{"town":"両替町三丁目","koaza":"","lat":34.931077,"lng":135.763984},{"town":"両替町四丁目","koaza":"","lat":34.932417,"lng":135.76395},{"town":"両替町九丁目","koaza":"","lat":34.938119,"lng":135.764102},{"town":"桃山町丹後","koaza":"","lat":34.931592,"lng":135.784557},{"town":"桃山町因幡","koaza":"","lat":34.9323,"lng":135.791227},{"town":"桃山町養斉","koaza":"","lat":34.92951,"lng":135.785708},{"town":"桃山町大島","koaza":"","lat":34.925826,"lng":135.790256},{"town":"桃山町和泉","koaza":"","lat":34.932458,"lng":135.787248},{"town":"深草稲荷山官有地","koaza":"","lat":34.970555,"lng":135.776581}]