[{"town":"西海浜","lat":"33.427408","lng":"133.997723"},{"town":"東海浜","lat":"33.424544","lng":"134.007153"},{"town":"家石","lat":"33.428839","lng":"133.994415"},{"town":"江見山","lat":"33.429037","lng":"133.995551"},{"town":"西柳谷","lat":"33.428346","lng":"133.996674"},{"town":"東柳谷","lat":"33.428309","lng":"133.999031"},{"town":"琴平","lat":"33.428580","lng":"133.999488"},{"town":"東大野","lat":"33.431495","lng":"133.994931"},{"town":"錣畑","lat":"33.429361","lng":"133.998162"},{"town":"南園辺","lat":"33.429761","lng":"133.998941"},{"town":"園辺","lat":"33.430685","lng":"133.998018"},{"town":"西格免","lat":"33.429156","lng":"133.999547"},{"town":"格免","lat":"33.429536","lng":"134.000542"},{"town":"八幡馬場西","lat":"33.427546","lng":"134.001188"},{"town":"八幡山","lat":"33.428079","lng":"134.002778"},{"town":"八幡馬場南","lat":"33.426766","lng":"134.002952"},{"town":"辰巳","lat":"33.432213","lng":"133.997362"},{"town":"南薄雪","lat":"33.431403","lng":"133.998398"},{"town":"薄雪","lat":"33.432675","lng":"133.997803"},{"town":"南卵塔","lat":"33.430838","lng":"133.999670"},{"town":"東卵塔","lat":"33.431023","lng":"134.000901"},{"town":"卵塔","lat":"33.432090","lng":"133.999793"},{"town":"山中","lat":"33.433023","lng":"133.996736"},{"town":"山ノ神ノ前","lat":"33.433403","lng":"133.996213"},{"town":"名無シ畑","lat":"33.434736","lng":"133.994028"},{"town":"燈明台","lat":"33.434316","lng":"133.995413"},{"town":"西宇治ヶ尾","lat":"33.434121","lng":"133.996736"},{"town":"中宇治ヶ尾","lat":"33.433557","lng":"133.998100"},{"town":"中新開","lat":"33.434080","lng":"133.998644"},{"town":"原三角畑","lat":"33.434839","lng":"133.997105"},{"town":"東宇治ヶ尾","lat":"33.432480","lng":"134.000654"},{"town":"唐流三ツ辻","lat":"33.433290","lng":"134.001988"},{"town":"唐流","lat":"33.433680","lng":"134.001137"},{"town":"北唐流","lat":"33.435075","lng":"134.001639"},{"town":"石上四ツ辻","lat":"33.434829","lng":"134.003229"},{"town":"北張","lat":"33.432828","lng":"134.002357"},{"town":"旧休場","lat":"33.435095","lng":"134.005055"},{"town":"中尾新田","lat":"33.435085","lng":"134.007568"},{"town":"下モ清九郎谷","lat":"33.434582","lng":"134.007322"},{"town":"赤地","lat":"33.434080","lng":"134.006419"},{"town":"赤地ノ北","lat":"33.433116","lng":"134.006911"},{"town":"百々","lat":"33.433690","lng":"134.005127"},{"town":"中野","lat":"33.433177","lng":"134.004788"},{"town":"九十九","lat":"33.432664","lng":"134.004409"},{"town":"杉谷","lat":"33.433505","lng":"134.008286"},{"town":"西ノ岡南","lat":"33.434305","lng":"134.008860"},{"town":"東西ノ岡","lat":"33.434059","lng":"134.009845"},{"town":"妙見ノ端","lat":"33.433362","lng":"134.009978"},{"town":"赤地ノ南","lat":"33.431474","lng":"134.006491"},{"town":"北浦田","lat":"33.431495","lng":"134.005219"},{"town":"宮田南","lat":"33.431321","lng":"134.009117"},{"town":"上椽ノ下","lat":"33.431228","lng":"134.007629"},{"town":"長田坑","lat":"33.430418","lng":"134.007681"},{"town":"安田分","lat":"33.430356","lng":"134.009322"},{"town":"上島田","lat":"33.430079","lng":"134.008460"},{"town":"木ノ下","lat":"33.429115","lng":"134.009855"},{"town":"下椽ノ下","lat":"33.429341","lng":"134.006337"},{"town":"西浦田","lat":"33.430449","lng":"134.005065"},{"town":"中野上土居","lat":"33.430603","lng":"134.003609"},{"town":"中野土居","lat":"33.431136","lng":"134.002593"},{"town":"中野南","lat":"33.431167","lng":"134.004173"},{"town":"赤井畑","lat":"33.429495","lng":"134.002090"},{"town":"踊ヶ坂","lat":"33.428838","lng":"134.001383"},{"town":"浜田町","lat":"33.427566","lng":"134.003588"},{"town":"浜ノ後","lat":"33.428541","lng":"134.005260"},{"town":"竹ノ下","lat":"33.428849","lng":"134.003650"},{"town":"住吉南","lat":"33.426418","lng":"134.004224"},{"town":"浄土寺西","lat":"33.426182","lng":"134.005598"},{"town":"浄土寺東","lat":"33.425946","lng":"134.007445"},{"town":"下橋","lat":"33.426746","lng":"134.007024"},{"town":"浜田後町","lat":"33.427064","lng":"134.007332"},{"town":"下島田","lat":"33.428028","lng":"134.007363"},{"town":"松本","lat":"33.427956","lng":"134.009281"},{"town":"西町","lat":"33.427618","lng":"134.010091"},{"town":"西町南角","lat":"33.426551","lng":"134.009076"},{"town":"東町南角","lat":"33.426869","lng":"134.010112"},{"town":"東町","lat":"33.426202","lng":"134.010071"},{"town":"蔵屋敷","lat":"33.425299","lng":"134.007219"},{"town":"制礼場","lat":"33.425628","lng":"134.009260"},{"town":"中島南","lat":"33.424366","lng":"134.011527"},{"town":"東中島","lat":"33.425628","lng":"134.012430"},{"town":"蝦夷ヶ谷","lat":"33.426143","lng":"134.014156"},{"town":"巽枦地","lat":"33.426739","lng":"134.013456"},{"town":"枦地","lat":"33.427656","lng":"134.014733"},{"town":"岩原","lat":"33.430010","lng":"134.011660"},{"town":"目後町","lat":"33.428327","lng":"134.010592"},{"town":"内町","lat":"33.428384","lng":"134.011594"},{"town":"中芝","lat":"33.427552","lng":"134.011055"},{"town":"土居ノ下","lat":"33.426947","lng":"134.011897"},{"town":"東土居ノ下","lat":"33.427297","lng":"134.013220"},{"town":"五軒町","lat":"33.427694","lng":"134.012615"},{"town":"芝野","lat":"33.428128","lng":"134.012729"},{"town":"堤ノ内","lat":"33.428686","lng":"134.013059"},{"town":"南水神","lat":"33.429329","lng":"134.015215"},{"town":"南経田","lat":"33.430227","lng":"134.013239"},{"town":"経田","lat":"33.430870","lng":"134.014005"},{"town":"開水神","lat":"33.430737","lng":"134.016311"},{"town":"島ノ前","lat":"33.431182","lng":"134.015186"},{"town":"田中ノ内","lat":"33.431182","lng":"134.011897"},{"town":"桓ノ内","lat":"33.431144","lng":"134.010327"},{"town":"宮田","lat":"33.432392","lng":"134.010677"},{"town":"中村","lat":"33.431985","lng":"134.013995"},{"town":"西ノ内","lat":"33.432496","lng":"134.012955"},{"town":"千福","lat":"33.431910","lng":"134.011386"},{"town":"中川原","lat":"33.433195","lng":"134.020291"},{"town":"待井東","lat":"33.434481","lng":"134.021719"},{"town":"東森次","lat":"33.433072","lng":"134.018684"},{"town":"中森次","lat":"33.433205","lng":"134.017710"},{"town":"西森次","lat":"33.433318","lng":"134.016803"},{"town":"北大内","lat":"33.433744","lng":"134.016160"},{"town":"伊勢田","lat":"33.433545","lng":"134.015082"},{"town":"富岡","lat":"33.433866","lng":"134.014024"},{"town":"蝶口東","lat":"33.433583","lng":"134.013050"},{"town":"東岡地","lat":"33.432978","lng":"134.012974"},{"town":"大将軍ノ後","lat":"33.433394","lng":"134.012048"},{"town":"松ノ前","lat":"33.434434","lng":"134.012785"},{"town":"北三角畑","lat":"33.435549","lng":"133.997556"},{"town":"北山ノ神","lat":"33.435795","lng":"134.001886"},{"town":"北山神","lat":"33.436995","lng":"134.002982"},{"town":"柴折峠","lat":"33.436287","lng":"134.003049"},{"town":"東柴折","lat":"33.435918","lng":"134.003852"},{"town":"横峯","lat":"33.436097","lng":"134.005298"},{"town":"清九郎谷","lat":"33.435549","lng":"134.005185"},{"town":"鴻巣山","lat":"33.435540","lng":"134.006745"},{"town":"北鴻巣山","lat":"33.437232","lng":"134.008588"},{"town":"新田中尾","lat":"33.436173","lng":"134.007822"},{"town":"西ノ岡","lat":"33.436050","lng":"134.009080"},{"town":"松山","lat":"33.440332","lng":"134.008607"},{"town":"池谷樋ノ口","lat":"33.435540","lng":"134.009808"},{"town":"樋ノ口上","lat":"33.436249","lng":"134.010016"},{"town":"今口","lat":"33.436050","lng":"134.011377"},{"town":"一本松西","lat":"33.436457","lng":"134.012209"},{"town":"壱本松","lat":"33.436806","lng":"134.012237"},{"town":"高田一本松","lat":"33.436863","lng":"134.013882"},{"town":"高田下ノ丸","lat":"33.435360","lng":"134.013258"},{"town":"大坂谷","lat":"33.436192","lng":"134.015687"},{"town":"大坂谷西","lat":"33.438603","lng":"134.014780"},{"town":"大坂谷奥","lat":"33.439264","lng":"134.016292"},{"town":"鳥首","lat":"33.439160","lng":"134.014090"},{"town":"鳥首ノ下","lat":"33.437638","lng":"134.012492"},{"town":"中ノ島","lat":"33.438338","lng":"134.010309"},{"town":"上ノ岡","lat":"33.437827","lng":"134.017105"},{"town":"野柳","lat":"33.437771","lng":"134.018911"},{"town":"北野柳","lat":"33.439926","lng":"134.019875"},{"town":"野柳山","lat":"33.440389","lng":"134.019856"},{"town":"築地平","lat":"33.440985","lng":"134.020017"},{"town":"日野山","lat":"33.435492","lng":"134.017484"},{"town":"洞渓","lat":"33.435464","lng":"134.018968"},{"town":"南土生","lat":"33.437024","lng":"134.019970"},{"town":"中土生","lat":"33.438820","lng":"134.020225"},{"town":"上土生","lat":"33.439037","lng":"134.021454"},{"town":"下土生","lat":"33.436532","lng":"134.020660"},{"town":"北待井","lat":"33.435871","lng":"134.022163"},{"town":"西立岡","lat":"33.436183","lng":"134.021567"},{"town":"南立岡","lat":"33.436305","lng":"134.024252"},{"town":"東立岡","lat":"33.437222","lng":"134.023401"},{"town":"立岡ノ上","lat":"33.437704","lng":"134.022844"},{"town":"窪津野","lat":"33.438120","lng":"134.021898"},{"town":"立岡","lat":"33.438725","lng":"134.024602"},{"town":"中立岡","lat":"33.437610","lng":"134.025557"},{"town":"上立岡下","lat":"33.438517","lng":"134.026426"},{"town":"上立岡中","lat":"33.439567","lng":"134.027107"},{"town":"上立岡","lat":"33.440314","lng":"134.028100"},{"town":"西上立岡","lat":"33.440276","lng":"134.026823"},{"town":"立岡岩柄","lat":"33.441382","lng":"134.023543"},{"town":"築地","lat":"33.442034","lng":"134.021397"},{"town":"寺屋敷","lat":"33.442904","lng":"134.027192"},{"town":"東水呑","lat":"33.443178","lng":"134.021057"},{"town":"水呑","lat":"33.444256","lng":"134.019885"},{"town":"大窪","lat":"33.442346","lng":"134.019091"},{"town":"西下谷","lat":"33.443613","lng":"134.017918"},{"town":"爛","lat":"33.442771","lng":"134.015848"},{"town":"長田","lat":"33.442299","lng":"134.014837"},{"town":"森が谷","lat":"33.441722","lng":"134.013712"},{"town":"鳶ヶ平","lat":"33.441316","lng":"134.012190"},{"town":"西ノ谷","lat":"33.441750","lng":"134.011528"},{"town":"アンケ谷","lat":"33.447243","lng":"134.016141"},{"town":"丸山ノ南","lat":"33.447659","lng":"134.018656"},{"town":"笛ヶ谷","lat":"33.451743","lng":"134.015621"},{"town":"丸山西","lat":"33.451109","lng":"134.011878"},{"town":"地獄谷","lat":"33.445609","lng":"134.008472"},{"town":"（大字なし）","lat":"33.428753","lng":"134.000189"}]