[{"town":"大字上柏崎","koaza":"","lat":36.637488,"lng":140.051778},{"town":"大字上阿久津","koaza":"","lat":36.643487,"lng":139.964479},{"town":"大字上高根沢","koaza":"","lat":36.600254,"lng":140.02296},{"town":"大字下柏崎","koaza":"","lat":36.615394,"lng":140.072774},{"town":"大字中柏崎","koaza":"","lat":36.605396,"lng":140.080346},{"town":"大字中阿久津","koaza":"","lat":36.641595,"lng":139.973246},{"town":"大字亀梨","koaza":"","lat":36.649705,"lng":140.05726},{"town":"大字伏久","koaza":"","lat":36.666478,"lng":140.025233},{"town":"大字大谷","koaza":"","lat":36.662257,"lng":139.987353},{"town":"大字太田","koaza":"","lat":36.627107,"lng":140.038143},{"town":"大字宝積寺","koaza":"","lat":36.620599,"lng":139.974889},{"town":"大字寺渡戸","koaza":"","lat":36.623607,"lng":140.022474},{"town":"大字平田","koaza":"","lat":36.642148,"lng":140.035438},{"town":"大字文挾","koaza":"","lat":36.663799,"lng":140.039755},{"town":"大字柿木沢","koaza":"","lat":36.6666,"lng":140.017731},{"town":"大字栗ケ島","koaza":"","lat":36.611974,"lng":140.035113},{"town":"大字桑窪","koaza":"","lat":36.620021,"lng":140.052981},{"town":"大字石末","koaza":"","lat":36.629292,"lng":140.001475},{"town":"大字花岡","koaza":"","lat":36.650288,"lng":140.008699},{"town":"大字西高谷","koaza":"","lat":36.63521,"lng":140.016862},{"town":"大字飯室","koaza":"","lat":36.653653,"lng":140.044042},{"town":"光陽台一丁目","koaza":"","lat":36.621184,"lng":139.990962},{"town":"光陽台二丁目","koaza":"","lat":36.622628,"lng":139.988083},{"town":"光陽台三丁目","koaza":"","lat":36.620022,"lng":139.988238},{"town":"光陽台四丁目","koaza":"","lat":36.617984,"lng":139.985008},{"town":"光陽台五丁目","koaza":"","lat":36.616196,"lng":139.98227},{"town":"光陽台六丁目","koaza":"","lat":36.621831,"lng":139.983461},{"town":"宝積寺一丁目","koaza":"","lat":null,"lng":null},{"town":"宝積寺二丁目","koaza":"","lat":null,"lng":null},{"town":"宝石台一丁目","koaza":"","lat":36.622096,"lng":139.993819},{"town":"宝石台二丁目","koaza":"","lat":36.618192,"lng":139.996731},{"town":"宝石台三丁目","koaza":"","lat":36.618913,"lng":139.992633},{"town":"宝石台四丁目","koaza":"","lat":36.616869,"lng":139.993796},{"town":"宝石台五丁目","koaza":"","lat":36.616043,"lng":139.989754}]