[{"town":"大字上寺島","koaza":"","lat":36.85107,"lng":139.797036},{"town":"大字上平","koaza":"","lat":36.730381,"lng":139.88072},{"town":"大字上沢","koaza":"","lat":36.748405,"lng":139.826299},{"town":"大字下寺島","koaza":"","lat":36.798117,"lng":139.833776},{"town":"大字佐貫","koaza":"","lat":36.750562,"lng":139.806581},{"town":"大字原荻野目","koaza":"","lat":36.763684,"lng":139.861467},{"town":"大字喜佐見","koaza":"","lat":36.8177,"lng":139.854594},{"town":"大字大久保","koaza":"","lat":36.735728,"lng":139.905092},{"town":"大字大宮","koaza":"","lat":36.743359,"lng":139.876924},{"town":"大字東房","koaza":"","lat":36.79065,"lng":139.837783},{"town":"大字泉","koaza":"","lat":36.751058,"lng":139.858106},{"town":"大字熊ノ木","koaza":"","lat":36.796531,"lng":139.858012},{"town":"大字玉生","koaza":"","lat":36.778165,"lng":139.847211},{"town":"大字田所","koaza":"","lat":36.76352,"lng":139.886878},{"town":"大字肘内","koaza":"","lat":36.726393,"lng":139.927252},{"town":"大字船生","koaza":"","lat":36.791971,"lng":139.77916},{"town":"大字芦場新田","koaza":"","lat":36.777567,"lng":139.830269},{"town":"大字道下","koaza":"","lat":36.767755,"lng":139.854616},{"town":"大字道下","koaza":"二斗蒔","lat":36.769676,"lng":139.852923},{"town":"大字金枝","koaza":"","lat":36.757105,"lng":139.866268},{"town":"大字風見","koaza":"","lat":36.732529,"lng":139.857835},{"town":"大字風見山田","koaza":"","lat":36.743341,"lng":139.851625},{"town":"大字飯岡","koaza":"","lat":36.757923,"lng":139.84175},{"town":"大字鳥羽新田","koaza":"","lat":36.835838,"lng":139.83728}]