[{"town":"蒼久保","koaza":"","lat":36.383098,"lng":138.285921},{"town":"秋和","koaza":"","lat":36.419796,"lng":138.229906},{"town":"生田","koaza":"","lat":36.359752,"lng":138.270818},{"town":"岩下","koaza":"","lat":36.372526,"lng":138.283355},{"town":"上田","koaza":"","lat":36.423229,"lng":138.259451},{"town":"上田原","koaza":"","lat":36.389149,"lng":138.223314},{"town":"上野","koaza":"","lat":36.423052,"lng":138.293933},{"town":"浦野","koaza":"","lat":36.382545,"lng":138.157166},{"town":"漆戸","koaza":"","lat":36.395921,"lng":138.299601},{"town":"大手一丁目","koaza":"","lat":36.40067,"lng":138.249268},{"town":"大手二丁目","koaza":"","lat":36.403114,"lng":138.248752},{"town":"大屋","koaza":"","lat":36.371961,"lng":138.293643},{"town":"岡","koaza":"","lat":36.382548,"lng":138.171206},{"town":"鹿教湯温泉","koaza":"","lat":36.283624,"lng":138.101095},{"town":"神畑","koaza":"","lat":36.382536,"lng":138.216234},{"town":"上塩尻","koaza":"","lat":36.418874,"lng":138.215827},{"town":"上武石","koaza":"","lat":36.28378,"lng":138.217912},{"town":"上丸子","koaza":"","lat":36.319171,"lng":138.277385},{"town":"上室賀","koaza":"","lat":36.416571,"lng":138.140623},{"town":"古安曽","koaza":"","lat":36.335579,"lng":138.213636},{"town":"小泉","koaza":"","lat":36.398463,"lng":138.188185},{"town":"越戸","koaza":"","lat":36.364394,"lng":138.157935},{"town":"五加","koaza":"","lat":36.363361,"lng":138.207847},{"town":"国分","koaza":"","lat":36.381919,"lng":138.274084},{"town":"国分一丁目","koaza":"","lat":36.385082,"lng":138.264734},{"town":"古里","koaza":"","lat":36.394406,"lng":138.280547},{"town":"腰越","koaza":"","lat":36.302031,"lng":138.26903},{"town":"小島","koaza":"","lat":36.375143,"lng":138.207158},{"town":"御所","koaza":"","lat":36.389806,"lng":138.235462},{"town":"小牧","koaza":"","lat":36.37853,"lng":138.25595},{"town":"材木町一丁目","koaza":"","lat":36.398825,"lng":138.261938},{"town":"材木町二丁目","koaza":"","lat":36.397271,"lng":138.266277},{"town":"真田町長","koaza":"","lat":36.492018,"lng":138.374519},{"town":"真田町傍陽","koaza":"","lat":36.488627,"lng":138.281541},{"town":"真田町本原","koaza":"","lat":36.428513,"lng":138.340888},{"town":"塩川","koaza":"","lat":36.349106,"lng":138.30608},{"town":"下塩尻","koaza":"","lat":36.418269,"lng":138.20172},{"town":"下武石","koaza":"","lat":36.286594,"lng":138.239083},{"town":"下之郷","koaza":"","lat":36.366431,"lng":138.233251},{"town":"下之条","koaza":"","lat":36.402084,"lng":138.214971},{"town":"下丸子","koaza":"","lat":36.334719,"lng":138.287946},{"town":"下室賀","koaza":"","lat":36.401858,"lng":138.169839},{"town":"十人","koaza":"","lat":36.355371,"lng":138.194074},{"town":"新町","koaza":"","lat":36.353414,"lng":138.187292},{"town":"菅平高原","koaza":"","lat":36.523527,"lng":138.33082},{"town":"住吉","koaza":"","lat":36.421353,"lng":138.280062},{"town":"諏訪形","koaza":"","lat":36.380535,"lng":138.239824},{"town":"武石沖","koaza":"","lat":36.295105,"lng":138.249304},{"town":"武石小沢根","koaza":"","lat":36.248895,"lng":138.197483},{"town":"武石上本入","koaza":"","lat":36.252778,"lng":138.123568},{"town":"武石下本入","koaza":"","lat":36.256322,"lng":138.18261},{"town":"武石鳥屋","koaza":"","lat":36.298824,"lng":138.236503},{"town":"武石余里","koaza":"","lat":36.24891,"lng":138.220221},{"town":"中央一丁目","koaza":"","lat":36.397645,"lng":138.252201},{"town":"中央二丁目","koaza":"","lat":36.399528,"lng":138.255489},{"town":"中央三丁目","koaza":"","lat":36.402401,"lng":138.2541},{"town":"中央四丁目","koaza":"","lat":36.405366,"lng":138.251927},{"town":"中央五丁目","koaza":"","lat":36.405447,"lng":138.257158},{"town":"中央六丁目","koaza":"","lat":36.402138,"lng":138.259197},{"town":"中央北一丁目","koaza":"","lat":36.40888,"lng":138.256481},{"town":"中央北二丁目","koaza":"","lat":36.40951,"lng":138.253174},{"town":"中央北三丁目","koaza":"","lat":36.414078,"lng":138.254325},{"town":"中央西一丁目","koaza":"","lat":36.406444,"lng":138.24704},{"town":"中央西二丁目","koaza":"","lat":36.409379,"lng":138.247665},{"town":"中央東","koaza":"","lat":36.404397,"lng":138.262682},{"town":"築地","koaza":"","lat":36.396692,"lng":138.20576},{"town":"手塚","koaza":"","lat":36.342952,"lng":138.17672},{"town":"天神一丁目","koaza":"","lat":36.397002,"lng":138.250006},{"town":"天神二丁目","koaza":"","lat":36.40117,"lng":138.245163},{"town":"天神三丁目","koaza":"","lat":36.400319,"lng":138.241204},{"town":"天神四丁目","koaza":"","lat":36.395935,"lng":138.247319},{"town":"常入","koaza":"","lat":36.390203,"lng":138.254004},{"town":"常入一丁目","koaza":"","lat":36.390211,"lng":138.26948},{"town":"常田一丁目","koaza":"","lat":36.392941,"lng":138.25416},{"town":"常田二丁目","koaza":"","lat":36.394562,"lng":138.257027},{"town":"常田三丁目","koaza":"","lat":36.394116,"lng":138.262845},{"town":"常磐城","koaza":"","lat":36.424689,"lng":138.24424},{"town":"常磐城一丁目","koaza":"","lat":36.405882,"lng":138.241252},{"town":"常磐城二丁目","koaza":"","lat":36.406633,"lng":138.239387},{"town":"常磐城三丁目","koaza":"","lat":36.40563,"lng":138.236107},{"town":"常磐城四丁目","koaza":"","lat":36.410818,"lng":138.236708},{"town":"常磐城五丁目","koaza":"","lat":36.4107,"lng":138.241595},{"town":"常磐城六丁目","koaza":"","lat":36.414949,"lng":138.238903},{"town":"殿城","koaza":"","lat":36.413484,"lng":138.323891},{"town":"長瀬","koaza":"","lat":36.350333,"lng":138.285794},{"town":"中野","koaza":"","lat":36.363408,"lng":138.194128},{"town":"中之条","koaza":"","lat":36.397612,"lng":138.227603},{"town":"中丸子","koaza":"","lat":36.330527,"lng":138.280893},{"town":"仁古田","koaza":"","lat":36.374012,"lng":138.175419},{"town":"西内","koaza":"","lat":36.310012,"lng":138.120652},{"town":"二の丸","koaza":"","lat":36.404177,"lng":138.244677},{"town":"野倉","koaza":"","lat":36.326748,"lng":138.143812},{"town":"林之郷","koaza":"","lat":36.392827,"lng":138.294246},{"town":"東内","koaza":"","lat":36.307013,"lng":138.219314},{"town":"平井","koaza":"","lat":36.297107,"lng":138.17549},{"town":"福田","koaza":"","lat":36.384596,"lng":138.203384},{"town":"富士山","koaza":"","lat":36.341773,"lng":138.238494},{"town":"藤原田","koaza":"","lat":36.329066,"lng":138.305517},{"town":"踏入一丁目","koaza":"","lat":36.38803,"lng":138.259667},{"town":"踏入二丁目","koaza":"","lat":36.389062,"lng":138.262954},{"town":"別所温泉","koaza":"","lat":36.347558,"lng":138.146506},{"town":"保野","koaza":"","lat":36.37487,"lng":138.196131},{"town":"本郷","koaza":"","lat":36.366781,"lng":138.202194},{"town":"舞田","koaza":"","lat":36.365131,"lng":138.184839},{"town":"前山","koaza":"","lat":36.332434,"lng":138.190245},{"town":"御嶽堂","koaza":"","lat":36.335672,"lng":138.25713},{"town":"緑が丘一丁目","koaza":"","lat":36.412141,"lng":138.248606},{"town":"緑が丘二丁目","koaza":"","lat":36.414877,"lng":138.248657},{"town":"緑が丘三丁目","koaza":"","lat":36.414967,"lng":138.243625},{"town":"本海野","koaza":"","lat":36.358871,"lng":138.316579},{"town":"八木沢","koaza":"","lat":36.360336,"lng":138.175068},{"town":"山田","koaza":"","lat":36.347653,"lng":138.168509},{"town":"吉田","koaza":"","lat":36.384902,"lng":138.198189},{"town":"芳田","koaza":"","lat":36.391356,"lng":138.309258},{"town":"小泉","koaza":"地ノ目","lat":36.384934,"lng":138.191332},{"town":"小泉","koaza":"塩田川原","lat":36.407222,"lng":138.205036},{"town":"福田","koaza":"下田","lat":36.388484,"lng":138.207622},{"town":"小島","koaza":"下小島","lat":36.382526,"lng":138.210788},{"town":"神畑","koaza":"宮下","lat":36.389887,"lng":138.213593},{"town":"上田原","koaza":"中原","lat":36.386975,"lng":138.224459},{"town":"秋和","koaza":"五里堂","lat":36.410281,"lng":138.227157},{"town":"中之条","koaza":"宮方","lat":36.398626,"lng":138.229283},{"town":"御所","koaza":"番外","lat":36.396989,"lng":138.238487},{"town":"上田","koaza":"山口","lat":36.419442,"lng":138.265407},{"town":"上田","koaza":"蛇沢","lat":36.409298,"lng":138.26774},{"town":"古里","koaza":"大畑","lat":36.400725,"lng":138.274651},{"town":"古里","koaza":"天笠","lat":36.401049,"lng":138.277438},{"town":"芳田","koaza":"大日ノ木","lat":36.39746,"lng":138.310423},{"town":"蒼久保","koaza":"大河原","lat":36.377608,"lng":138.279358}]