[{"town":"蒼久保","koaza":"","lat":36.383098,"lng":138.285921,"zip":"3860155"},{"town":"秋和","koaza":"","lat":36.419796,"lng":138.229906,"zip":"3860041"},{"town":"生田","koaza":"","lat":36.359752,"lng":138.270818,"zip":"3860411"},{"town":"岩下","koaza":"","lat":36.372526,"lng":138.283355,"zip":"3860153"},{"town":"上田","koaza":"","lat":36.423229,"lng":138.259451,"zip":"3860001"},{"town":"上田原","koaza":"","lat":36.389149,"lng":138.223314,"zip":"3861102"},{"town":"上野","koaza":"","lat":36.423052,"lng":138.293933,"zip":"3860003"},{"town":"浦野","koaza":"","lat":36.382545,"lng":138.157166,"zip":"3861546"},{"town":"漆戸","koaza":"","lat":36.395921,"lng":138.299601,"zip":"3860006"},{"town":"大手一丁目","koaza":"","lat":36.40067,"lng":138.249268,"zip":"3860024"},{"town":"大手二丁目","koaza":"","lat":36.403114,"lng":138.248752,"zip":"3860024"},{"town":"大屋","koaza":"","lat":36.371961,"lng":138.293643,"zip":"3860152"},{"town":"岡","koaza":"","lat":36.382548,"lng":138.171206,"zip":"3861543"},{"town":"鹿教湯温泉","koaza":"","lat":36.283624,"lng":138.101095,"zip":"3860323"},{"town":"神畑","koaza":"","lat":36.382536,"lng":138.216234,"zip":"3861103"},{"town":"上塩尻","koaza":"","lat":36.418874,"lng":138.215827,"zip":"3860042"},{"town":"上武石","koaza":"","lat":36.28378,"lng":138.217912,"zip":"3860508"},{"town":"上丸子","koaza":"","lat":36.319171,"lng":138.277385,"zip":"3860404"},{"town":"上室賀","koaza":"","lat":36.416571,"lng":138.140623,"zip":"3861541"},{"town":"古安曽","koaza":"","lat":36.335579,"lng":138.213636,"zip":"3861213"},{"town":"小泉","koaza":"","lat":36.398463,"lng":138.188185,"zip":"3861106"},{"town":"越戸","koaza":"","lat":36.364394,"lng":138.157935,"zip":"3861545"},{"town":"五加","koaza":"","lat":36.363361,"lng":138.207847,"zip":"3861324"},{"town":"国分","koaza":"","lat":36.381919,"lng":138.274084,"zip":"3860016"},{"town":"国分一丁目","koaza":"","lat":36.385082,"lng":138.264734,"zip":"3860016"},{"town":"古里","koaza":"","lat":36.394406,"lng":138.280547,"zip":"3860005"},{"town":"腰越","koaza":"","lat":36.302031,"lng":138.26903,"zip":"3860403"},{"town":"小島","koaza":"","lat":36.375143,"lng":138.207158,"zip":"3861322"},{"town":"御所","koaza":"","lat":36.389806,"lng":138.235462,"zip":"3860033"},{"town":"小牧","koaza":"","lat":36.37853,"lng":138.25595,"zip":"3860031"},{"town":"材木町一丁目","koaza":"","lat":36.398825,"lng":138.261938,"zip":"3860014"},{"town":"材木町二丁目","koaza":"","lat":36.397271,"lng":138.266277,"zip":"3860014"},{"town":"真田町長","koaza":"","lat":36.492018,"lng":138.374519,"zip":"3862201"},{"town":"真田町傍陽","koaza":"","lat":36.488627,"lng":138.281541,"zip":"3862203"},{"town":"真田町本原","koaza":"","lat":36.428513,"lng":138.340888,"zip":"3862202"},{"town":"塩川","koaza":"","lat":36.349106,"lng":138.30608,"zip":"3860401"},{"town":"下塩尻","koaza":"","lat":36.418269,"lng":138.20172,"zip":"3860043"},{"town":"下武石","koaza":"","lat":36.286594,"lng":138.239083,"zip":"3860503"},{"town":"下之郷","koaza":"","lat":36.366431,"lng":138.233251,"zip":"3861211"},{"town":"下之条","koaza":"","lat":36.402084,"lng":138.214971,"zip":"3861101"},{"town":"下丸子","koaza":"","lat":36.334719,"lng":138.287946,"zip":"3860406"},{"town":"下室賀","koaza":"","lat":36.401858,"lng":138.169839,"zip":"3861542"},{"town":"十人","koaza":"","lat":36.355371,"lng":138.194074,"zip":"3861435"},{"town":"新町","koaza":"","lat":36.353414,"lng":138.187292,"zip":"3861434"},{"town":"菅平高原","koaza":"","lat":36.523527,"lng":138.33082,"zip":"3862204"},{"town":"住吉","koaza":"","lat":36.421353,"lng":138.280062,"zip":"3860002"},{"town":"諏訪形","koaza":"","lat":36.380535,"lng":138.239824,"zip":"3860032"},{"town":"武石沖","koaza":"","lat":36.295105,"lng":138.249304,"zip":"3860502"},{"town":"武石小沢根","koaza":"","lat":36.248895,"lng":138.197483,"zip":"3860504"},{"town":"武石上本入","koaza":"","lat":36.252778,"lng":138.123568,"zip":"3860507"},{"town":"武石下本入","koaza":"","lat":36.256322,"lng":138.18261,"zip":"3860506"},{"town":"武石鳥屋","koaza":"","lat":36.298824,"lng":138.236503,"zip":"3860501"},{"town":"武石余里","koaza":"","lat":36.24891,"lng":138.220221,"zip":"3860505"},{"town":"中央一丁目","koaza":"","lat":36.397645,"lng":138.252201,"zip":"3860012"},{"town":"中央二丁目","koaza":"","lat":36.399528,"lng":138.255489,"zip":"3860012"},{"town":"中央三丁目","koaza":"","lat":36.402401,"lng":138.2541,"zip":"3860012"},{"town":"中央四丁目","koaza":"","lat":36.405366,"lng":138.251927,"zip":"3860012"},{"town":"中央五丁目","koaza":"","lat":36.405447,"lng":138.257158,"zip":"3860012"},{"town":"中央六丁目","koaza":"","lat":36.402138,"lng":138.259197,"zip":"3860012"},{"town":"中央北一丁目","koaza":"","lat":36.40888,"lng":138.256481,"zip":"3860011"},{"town":"中央北二丁目","koaza":"","lat":36.40951,"lng":138.253174,"zip":"3860011"},{"town":"中央北三丁目","koaza":"","lat":36.414078,"lng":138.254325,"zip":"3860011"},{"town":"中央西一丁目","koaza":"","lat":36.406444,"lng":138.24704,"zip":"3860023"},{"town":"中央西二丁目","koaza":"","lat":36.409379,"lng":138.247665,"zip":"3860023"},{"town":"中央東","koaza":"","lat":36.404397,"lng":138.262682,"zip":"3860013"},{"town":"築地","koaza":"","lat":36.396692,"lng":138.20576,"zip":"3861107"},{"town":"手塚","koaza":"","lat":36.342952,"lng":138.17672,"zip":"3861433"},{"town":"天神一丁目","koaza":"","lat":36.397002,"lng":138.250006,"zip":"3860025"},{"town":"天神二丁目","koaza":"","lat":36.40117,"lng":138.245163,"zip":"3860025"},{"town":"天神三丁目","koaza":"","lat":36.400319,"lng":138.241204,"zip":"3860025"},{"town":"天神四丁目","koaza":"","lat":36.395935,"lng":138.247319,"zip":"3860025"},{"town":"常入","koaza":"","lat":36.390203,"lng":138.254004,"zip":"3860015"},{"town":"常入一丁目","koaza":"","lat":36.390211,"lng":138.26948,"zip":"3860015"},{"town":"常田一丁目","koaza":"","lat":36.392941,"lng":138.25416,"zip":"3860018"},{"town":"常田二丁目","koaza":"","lat":36.394562,"lng":138.257027,"zip":"3860018"},{"town":"常田三丁目","koaza":"","lat":36.394116,"lng":138.262845,"zip":"3860018"},{"town":"常磐城","koaza":"","lat":36.424689,"lng":138.24424,"zip":"3860027"},{"town":"常磐城一丁目","koaza":"","lat":36.405882,"lng":138.241252,"zip":"3860027"},{"town":"常磐城二丁目","koaza":"","lat":36.406633,"lng":138.239387,"zip":"3860027"},{"town":"常磐城三丁目","koaza":"","lat":36.40563,"lng":138.236107,"zip":"3860027"},{"town":"常磐城四丁目","koaza":"","lat":36.410818,"lng":138.236708,"zip":"3860027"},{"town":"常磐城五丁目","koaza":"","lat":36.4107,"lng":138.241595,"zip":"3860027"},{"town":"常磐城六丁目","koaza":"","lat":36.414949,"lng":138.238903,"zip":"3860027"},{"town":"殿城","koaza":"","lat":36.413484,"lng":138.323891,"zip":"3860004"},{"town":"長瀬","koaza":"","lat":36.350333,"lng":138.285794,"zip":"3860407"},{"town":"中野","koaza":"","lat":36.363408,"lng":138.194128,"zip":"3861325"},{"town":"中之条","koaza":"","lat":36.397612,"lng":138.227603,"zip":"3860034"},{"town":"中丸子","koaza":"","lat":36.330527,"lng":138.280893,"zip":"3860405"},{"town":"仁古田","koaza":"","lat":36.374012,"lng":138.175419,"zip":"3861544"},{"town":"西内","koaza":"","lat":36.310012,"lng":138.120652,"zip":"3860322"},{"town":"二の丸","koaza":"","lat":36.404177,"lng":138.244677,"zip":"3860026"},{"town":"野倉","koaza":"","lat":36.326748,"lng":138.143812,"zip":"3861437"},{"town":"林之郷","koaza":"","lat":36.392827,"lng":138.294246,"zip":"3860156"},{"town":"東内","koaza":"","lat":36.307013,"lng":138.219314,"zip":"3860413"},{"town":"平井","koaza":"","lat":36.297107,"lng":138.17549,"zip":"3860321"},{"town":"福田","koaza":"","lat":36.384596,"lng":138.203384,"zip":"3861104"},{"town":"富士山","koaza":"","lat":36.341773,"lng":138.238494,"zip":"3861212"},{"town":"藤原田","koaza":"","lat":36.329066,"lng":138.305517,"zip":"3860402"},{"town":"踏入一丁目","koaza":"","lat":36.38803,"lng":138.259667,"zip":"3860017"},{"town":"踏入二丁目","koaza":"","lat":36.389062,"lng":138.262954,"zip":"3860017"},{"town":"別所温泉","koaza":"","lat":36.347558,"lng":138.146506,"zip":"3861431"},{"town":"保野","koaza":"","lat":36.37487,"lng":138.196131,"zip":"3861321"},{"town":"本郷","koaza":"","lat":36.366781,"lng":138.202194,"zip":"3861323"},{"town":"舞田","koaza":"","lat":36.365131,"lng":138.184839,"zip":"3861326"},{"town":"前山","koaza":"","lat":36.332434,"lng":138.190245,"zip":"3861436"},{"town":"御嶽堂","koaza":"","lat":36.335672,"lng":138.25713,"zip":"3860412"},{"town":"緑が丘一丁目","koaza":"","lat":36.412141,"lng":138.248606,"zip":"3860022"},{"town":"緑が丘二丁目","koaza":"","lat":36.414877,"lng":138.248657,"zip":"3860022"},{"town":"緑が丘三丁目","koaza":"","lat":36.414967,"lng":138.243625,"zip":"3860022"},{"town":"本海野","koaza":"","lat":36.358871,"lng":138.316579,"zip":"3860408"},{"town":"八木沢","koaza":"","lat":36.360336,"lng":138.175068,"zip":"3861327"},{"town":"山田","koaza":"","lat":36.347653,"lng":138.168509,"zip":"3861432"},{"town":"吉田","koaza":"","lat":36.384902,"lng":138.198189,"zip":"3861105"},{"town":"芳田","koaza":"","lat":36.391356,"lng":138.309258,"zip":"3860151"},{"town":"小泉","koaza":"地ノ目","lat":36.384934,"lng":138.191332,"zip":"3861106"},{"town":"小泉","koaza":"塩田川原","lat":36.407222,"lng":138.205036,"zip":"3861106"},{"town":"福田","koaza":"下田","lat":36.388484,"lng":138.207622,"zip":"3861104"},{"town":"小島","koaza":"下小島","lat":36.382526,"lng":138.210788,"zip":"3861322"},{"town":"神畑","koaza":"宮下","lat":36.389887,"lng":138.213593,"zip":"3861103"},{"town":"上田原","koaza":"中原","lat":36.386975,"lng":138.224459,"zip":"3861102"},{"town":"秋和","koaza":"五里堂","lat":36.410281,"lng":138.227157,"zip":"3860041"},{"town":"中之条","koaza":"宮方","lat":36.398626,"lng":138.229283,"zip":"3860034"},{"town":"御所","koaza":"番外","lat":36.396989,"lng":138.238487,"zip":"3860033"},{"town":"上田","koaza":"山口","lat":36.419442,"lng":138.265407,"zip":"3860001"},{"town":"上田","koaza":"蛇沢","lat":36.409298,"lng":138.26774,"zip":"3860001"},{"town":"古里","koaza":"大畑","lat":36.400725,"lng":138.274651,"zip":"3860005"},{"town":"古里","koaza":"天笠","lat":36.401049,"lng":138.277438,"zip":"3860005"},{"town":"芳田","koaza":"大日ノ木","lat":36.39746,"lng":138.310423,"zip":"3860151"},{"town":"蒼久保","koaza":"大河原","lat":36.377608,"lng":138.279358,"zip":"3860155"}]