[{"town":"大字追分","koaza":"","lat":36.337902,"lng":138.54248},{"town":"大字軽井沢","koaza":"","lat":36.350817,"lng":138.630152},{"town":"大字峠町","koaza":"","lat":36.368823,"lng":138.656382},{"town":"大字長倉","koaza":"","lat":36.365358,"lng":138.586756},{"town":"大字発地","koaza":"","lat":36.302955,"lng":138.617948},{"town":"大字茂沢","koaza":"","lat":36.302764,"lng":138.571304},{"town":"大字長倉","koaza":"儘田","lat":36.338916,"lng":138.591044},{"town":"軽井沢東","koaza":"","lat":36.345901,"lng":138.636743},{"town":"中軽井沢","koaza":"","lat":36.349634,"lng":138.59189}]