[{"town":"大字芦田","koaza":"","lat":"36.236881","lng":"138.299684"},{"town":"大字芦田八ケ野","koaza":"","lat":"36.132330","lng":"138.278302"},{"town":"大字牛鹿","koaza":"","lat":"36.305595","lng":"138.294422"},{"town":"大字宇山","koaza":"","lat":"36.278620","lng":"138.290507"},{"town":"大字桐原","koaza":"","lat":"36.297479","lng":"138.315659"},{"town":"大字塩沢","koaza":"","lat":"36.293302","lng":"138.331845"},{"town":"大字藤沢","koaza":"","lat":"36.307255","lng":"138.330404"},{"town":"大字茂田井","koaza":"","lat":"36.261872","lng":"138.326809"},{"town":"大字山部","koaza":"","lat":"36.284000","lng":"138.303442"}]