[{"town":"大字会染","koaza":"","lat":36.404205,"lng":137.887261,"zip":"3998600"},{"town":"大字池田","koaza":"","lat":36.440165,"lng":137.889128,"zip":"3998600"},{"town":"大字中鵜","koaza":"","lat":36.374988,"lng":137.896517,"zip":"3998600"},{"town":"大字広津","koaza":"","lat":36.453702,"lng":137.912671,"zip":"3998600"},{"town":"大字陸郷","koaza":"","lat":36.411376,"lng":137.9095,"zip":"3998600"}]