[{"town":"大字板橋","koaza":"","lat":35.975729,"lng":138.462198,"zip":"3841300"},{"town":"大字海尻","koaza":"","lat":36.022418,"lng":138.441709,"zip":"3841300"},{"town":"大字海ノ口","koaza":"","lat":35.993181,"lng":138.442667,"zip":"3841300"},{"town":"大字野辺山","koaza":"","lat":35.948511,"lng":138.466584,"zip":"3841300"},{"town":"大字平沢","koaza":"","lat":35.917033,"lng":138.471156,"zip":"3841300"},{"town":"大字広瀬","koaza":"","lat":36.00466,"lng":138.53137,"zip":"3841300"}]