[{"town":"大字大日向","koaza":"","lat":"36.124090","lng":"138.588002"},{"town":"大字海瀬","koaza":"","lat":"36.134690","lng":"138.504298"},{"town":"大字上","koaza":"","lat":"36.126216","lng":"138.377626"},{"town":"大字高野町","koaza":"","lat":"36.160003","lng":"138.476656"},{"town":"大字千代里","koaza":"","lat":"36.113037","lng":"138.451956"},{"town":"大字畑","koaza":"","lat":"36.139107","lng":"138.453925"},{"town":"大字平林","koaza":"","lat":"36.164350","lng":"138.503377"},{"town":"大字穂積","koaza":"","lat":"36.119995","lng":"138.489413"},{"town":"大字八郡","koaza":"","lat":"36.094906","lng":"138.401591"},{"town":"大字宿岩","koaza":"","lat":"36.172687","lng":"138.483904"},{"town":"大字余地","koaza":"","lat":"36.159148","lng":"138.550239"}]