[{"town":"鳥居峠","koaza":"","lat":36.039919,"lng":138.49411},{"town":"上軽井沢","koaza":"","lat":36.045364,"lng":138.492426},{"town":"中軽井沢","koaza":"","lat":36.048278,"lng":138.492842},{"town":"大ヒラ","koaza":"","lat":36.044702,"lng":138.495775},{"town":"舟窪","koaza":"","lat":36.043566,"lng":138.498955},{"town":"道陸神","koaza":"","lat":36.049622,"lng":138.494867},{"town":"よしくろ","koaza":"","lat":36.05106,"lng":138.498151},{"town":"本沢下","koaza":"","lat":36.052717,"lng":138.4981},{"town":"本沢","koaza":"","lat":36.053948,"lng":138.498377},{"town":"長張","koaza":"","lat":36.047066,"lng":138.50237},{"town":"南沢下","koaza":"","lat":36.053277,"lng":138.502227},{"town":"中沢下","koaza":"","lat":36.055061,"lng":138.504075},{"town":"軽井沢","koaza":"","lat":36.057472,"lng":138.504654},{"town":"川俣","koaza":"","lat":36.056315,"lng":138.507065},{"town":"三尺","koaza":"","lat":36.052458,"lng":138.504365},{"town":"あめご","koaza":"","lat":36.052377,"lng":138.506518},{"town":"酒舟","koaza":"","lat":36.055688,"lng":138.510071},{"town":"いほり沢","koaza":"","lat":36.052313,"lng":138.51118},{"town":"りうしん","koaza":"","lat":36.052281,"lng":138.509733},{"town":"花田","koaza":"","lat":36.051075,"lng":138.508319},{"town":"越道","koaza":"","lat":36.048568,"lng":138.504927},{"town":"越道坂","koaza":"","lat":36.048487,"lng":138.507001},{"town":"赤そう","koaza":"","lat":36.046398,"lng":138.50594},{"town":"栃山","koaza":"","lat":36.042605,"lng":138.50766},{"town":"芦の窪","koaza":"","lat":36.042476,"lng":138.513173},{"town":"小松平","koaza":"","lat":36.038715,"lng":138.513398},{"town":"九蔵畑","koaza":"","lat":36.046671,"lng":138.51163},{"town":"番匠田","koaza":"","lat":36.046655,"lng":138.509428},{"town":"風石","koaza":"","lat":36.048728,"lng":138.509621},{"town":"風石坂向","koaza":"","lat":36.050384,"lng":138.51126},{"town":"風石坂","koaza":"","lat":36.050609,"lng":138.514073},{"town":"倉沢","koaza":"","lat":36.047137,"lng":138.5156},{"town":"清水窪","koaza":"","lat":36.056326,"lng":138.511374},{"town":"清水","koaza":"","lat":36.056694,"lng":138.513477},{"town":"土岩向","koaza":"","lat":36.051916,"lng":138.516972},{"town":"蟹沢","koaza":"","lat":36.052203,"lng":138.518132},{"town":"上野坂","koaza":"","lat":36.053131,"lng":138.517641},{"town":"中平","koaza":"","lat":36.053595,"lng":138.514064},{"town":"西上野","koaza":"","lat":36.054565,"lng":138.514364},{"town":"東上野","koaza":"","lat":36.054155,"lng":138.518255},{"town":"板鳥畑","koaza":"","lat":36.055479,"lng":138.515279},{"town":"神宿","koaza":"","lat":36.056012,"lng":138.5182},{"town":"住宿","koaza":"","lat":36.052858,"lng":138.519238},{"town":"宮の上","koaza":"","lat":36.052694,"lng":138.5222},{"town":"宮の西","koaza":"","lat":36.051739,"lng":138.519743},{"town":"宮の向","koaza":"","lat":36.050824,"lng":138.520248},{"town":"宮本","koaza":"","lat":36.051275,"lng":138.521668},{"town":"宮の東","koaza":"","lat":36.051234,"lng":138.524002},{"town":"城窪","koaza":"","lat":36.053595,"lng":138.524166},{"town":"大星","koaza":"","lat":36.053254,"lng":138.526624},{"town":"はりの木平","koaza":"","lat":36.049322,"lng":138.518487},{"town":"とどめき","koaza":"","lat":36.048257,"lng":138.521668},{"town":"前田","koaza":"","lat":36.05051,"lng":138.52246},{"town":"はっぷり","koaza":"","lat":36.051493,"lng":138.525313},{"town":"御屋敷","koaza":"","lat":36.05092,"lng":138.526569},{"town":"つく似","koaza":"","lat":36.052517,"lng":138.528931},{"town":"横吹","koaza":"","lat":36.050182,"lng":138.527402},{"town":"まと場","koaza":"","lat":36.049786,"lng":138.52605},{"town":"古宿","koaza":"","lat":36.048776,"lng":138.526119},{"town":"小平牧場","koaza":"","lat":36.047902,"lng":138.524385},{"town":"うば小屋","koaza":"","lat":36.047684,"lng":138.526583},{"town":"大畑舟打沢","koaza":"","lat":36.044571,"lng":138.519634},{"town":"びくに田","koaza":"","lat":36.041636,"lng":138.518419},{"town":"平林","koaza":"","lat":36.03952,"lng":138.518241},{"town":"大久保","koaza":"","lat":36.035288,"lng":138.51005},{"town":"松平","koaza":"","lat":36.032503,"lng":138.512671},{"town":"かな八","koaza":"","lat":36.030155,"lng":138.505873},{"town":"なぞふり","koaza":"","lat":36.030019,"lng":138.518542},{"town":"白土","koaza":"","lat":36.02524,"lng":138.526405},{"town":"山神","koaza":"","lat":36.036462,"lng":138.522009},{"town":"弓木","koaza":"","lat":36.034674,"lng":138.527661},{"town":"一ノ渡場","koaza":"","lat":36.044626,"lng":138.52362},{"town":"よしの久保","koaza":"","lat":36.041909,"lng":138.525491},{"town":"なぎの上","koaza":"","lat":36.044913,"lng":138.527061},{"town":"原","koaza":"","lat":36.042879,"lng":138.527593},{"town":"古宿岩前","koaza":"","lat":36.046783,"lng":138.527525},{"town":"藤塚","koaza":"","lat":36.045118,"lng":138.529532},{"town":"神殿","koaza":"","lat":36.044831,"lng":138.531798},{"town":"釜の窪","koaza":"","lat":36.04322,"lng":138.529572},{"town":"南釜の久保","koaza":"","lat":36.041295,"lng":138.528985},{"town":"長畑","koaza":"","lat":36.039534,"lng":138.529791},{"town":"杭日向","koaza":"","lat":36.041158,"lng":138.522787},{"town":"神岩","koaza":"","lat":36.037786,"lng":138.525409},{"town":"弓木出口","koaza":"","lat":36.039193,"lng":138.531047},{"town":"さす窪","koaza":"","lat":36.033117,"lng":138.529613},{"town":"矢久保城平","koaza":"","lat":36.029459,"lng":138.530883},{"town":"小松原","koaza":"","lat":36.034756,"lng":138.532276},{"town":"岩下","koaza":"","lat":36.034592,"lng":138.534569},{"town":"なめ岩","koaza":"","lat":36.037636,"lng":138.533136},{"town":"とびのす","koaza":"","lat":36.037623,"lng":138.534992},{"town":"矢窪","koaza":"","lat":36.027493,"lng":138.535784},{"town":"木伐久保","koaza":"","lat":36.021609,"lng":138.540283},{"town":"すげの入","koaza":"","lat":36.028322,"lng":138.540379},{"town":"すげの入出口","koaza":"","lat":36.032208,"lng":138.542995},{"town":"にわとり","koaza":"","lat":36.029938,"lng":138.54413},{"town":"つくえ原","koaza":"","lat":36.0339,"lng":138.541302},{"town":"矢久保上の山","koaza":"","lat":36.035401,"lng":138.538879},{"town":"西沢","koaza":"","lat":36.034708,"lng":138.537282},{"town":"西沢出口","koaza":"","lat":36.037401,"lng":138.538167},{"town":"東和田","koaza":"","lat":36.035997,"lng":138.542014},{"town":"西和田","koaza":"","lat":36.036882,"lng":138.540148},{"town":"火とぼし","koaza":"","lat":36.039055,"lng":138.537321},{"town":"わぐ","koaza":"","lat":36.039113,"lng":138.539417},{"town":"田通","koaza":"","lat":36.038478,"lng":138.54111},{"town":"御所向","koaza":"","lat":36.04044,"lng":138.533705},{"town":"滝の上","koaza":"","lat":36.039805,"lng":138.534859},{"town":"三田沢","koaza":"","lat":36.052866,"lng":138.5308},{"town":"わらびおね","koaza":"","lat":36.051039,"lng":138.531512},{"town":"づうが窪","koaza":"","lat":36.049711,"lng":138.534051},{"town":"ズミ沢","koaza":"","lat":36.048423,"lng":138.536898},{"town":"上の山","koaza":"","lat":36.047422,"lng":138.534474},{"town":"堅築地","koaza":"","lat":36.049577,"lng":138.531954},{"town":"上之段","koaza":"","lat":36.049269,"lng":138.528607},{"town":"堂かいど","koaza":"","lat":36.047788,"lng":138.528588},{"town":"田屋道上","koaza":"","lat":36.048076,"lng":138.529454},{"town":"田屋道下","koaza":"","lat":36.047576,"lng":138.52955},{"town":"林向","koaza":"","lat":36.046961,"lng":138.529608},{"town":"赤ばね道上","koaza":"","lat":36.047557,"lng":138.531531},{"town":"宮丁","koaza":"","lat":36.046345,"lng":138.532223},{"town":"明王寺","koaza":"","lat":36.046441,"lng":138.530839},{"town":"こも立","koaza":"","lat":36.046191,"lng":138.533839},{"town":"下祝田","koaza":"","lat":36.045961,"lng":138.532858},{"town":"桐ヶ谷","koaza":"","lat":36.046865,"lng":138.540321},{"town":"底桐ヶ谷","koaza":"","lat":36.04548,"lng":138.53784},{"town":"高橋","koaza":"","lat":36.044383,"lng":138.535878},{"town":"森脇","koaza":"","lat":36.045345,"lng":138.534705},{"town":"白山","koaza":"","lat":36.043999,"lng":138.53557},{"town":"衣掛石","koaza":"","lat":36.043537,"lng":138.534589},{"town":"沢出口","koaza":"","lat":36.044345,"lng":138.533378},{"town":"はば上","koaza":"","lat":36.043672,"lng":138.533089},{"town":"迎坂下","koaza":"","lat":36.041979,"lng":138.533031},{"town":"ませ口","koaza":"","lat":36.042902,"lng":138.534512},{"town":"祝平","koaza":"","lat":36.042979,"lng":138.535974},{"town":"小峰塚前","koaza":"","lat":36.043941,"lng":138.537359},{"town":"ぬく井","koaza":"","lat":36.041652,"lng":138.534455},{"town":"御所平","koaza":"","lat":36.041844,"lng":138.535859},{"town":"栗の木原","koaza":"","lat":36.041979,"lng":138.538359},{"town":"栗の木原道下","koaza":"","lat":36.041267,"lng":138.539764},{"town":"横畑","koaza":"","lat":36.041209,"lng":138.537417},{"town":"三ヶ尻","koaza":"","lat":36.040652,"lng":138.535917},{"town":"おみか道下","koaza":"","lat":36.040979,"lng":138.540571},{"town":"広峯","koaza":"","lat":36.043402,"lng":138.541206},{"town":"権通","koaza":"","lat":36.042479,"lng":138.544842},{"town":"茂沢","koaza":"","lat":36.043229,"lng":138.549362},{"town":"小茂沢","koaza":"","lat":36.039478,"lng":138.548631},{"town":"大し","koaza":"","lat":36.038824,"lng":138.544072},{"town":"大し道上","koaza":"","lat":36.039248,"lng":138.543168},{"town":"権進出口","koaza":"","lat":36.03894,"lng":138.541745},{"town":"大し道下","koaza":"","lat":36.037882,"lng":138.542495},{"town":"作道","koaza":"","lat":36.037709,"lng":138.545015},{"town":"岩ば祢","koaza":"","lat":36.03592,"lng":138.54538},{"town":"西原","koaza":"","lat":36.034843,"lng":138.543534},{"town":"下原","koaza":"","lat":36.033419,"lng":138.544111},{"town":"中原","koaza":"","lat":36.033246,"lng":138.545265},{"town":"東原","koaza":"","lat":36.032304,"lng":138.547073},{"town":"上原上","koaza":"","lat":36.030361,"lng":138.547342},{"town":"孫市","koaza":"","lat":36.027726,"lng":138.54613},{"town":"狐平","koaza":"","lat":36.025129,"lng":138.54715},{"town":"沢の上","koaza":"","lat":36.020513,"lng":138.548612},{"town":"臨幸","koaza":"","lat":36.01705,"lng":138.54161},{"town":"そうり","koaza":"","lat":36.014781,"lng":138.556594},{"town":"めってい","koaza":"","lat":36.010876,"lng":138.561153},{"town":"犬ころしバ","koaza":"","lat":36.012626,"lng":138.566346},{"town":"立原","koaza":"","lat":36.005336,"lng":138.56725},{"town":"蔦の木","koaza":"","lat":35.999296,"lng":138.572021},{"town":"柏木平","koaza":"","lat":36.003086,"lng":138.579811},{"town":"三川栃原","koaza":"","lat":35.998354,"lng":138.583735},{"town":"一本木道下","koaza":"","lat":36.005452,"lng":138.580888},{"town":"一本木","koaza":"","lat":36.007548,"lng":138.583023},{"town":"上一本木","koaza":"","lat":36.005759,"lng":138.584235},{"town":"板鳥","koaza":"","lat":36.005836,"lng":138.586255},{"town":"立原下","koaza":"","lat":36.011511,"lng":138.573213},{"town":"上郷地","koaza":"","lat":36.012068,"lng":138.576041},{"town":"郷地","koaza":"","lat":36.014107,"lng":138.575156},{"town":"猿畑","koaza":"","lat":36.016935,"lng":138.574752},{"town":"直坂","koaza":"","lat":36.017858,"lng":138.570982},{"town":"犬ころし場日向","koaza":"","lat":36.01755,"lng":138.566616},{"town":"上熊立間","koaza":"","lat":36.019685,"lng":138.56625},{"town":"奥熊立間","koaza":"","lat":36.018358,"lng":138.563577},{"town":"熊立間","koaza":"","lat":36.022282,"lng":138.562057},{"town":"平休場","koaza":"","lat":36.024167,"lng":138.557075},{"town":"中尾","koaza":"","lat":36.026629,"lng":138.554344},{"town":"立岩","koaza":"","lat":36.024437,"lng":138.551382},{"town":"せん尻","koaza":"","lat":36.02811,"lng":138.549747},{"town":"東せん尻","koaza":"","lat":36.026841,"lng":138.551285},{"town":"下せん尻","koaza":"","lat":36.028284,"lng":138.551497},{"town":"東中山","koaza":"","lat":36.028687,"lng":138.552305},{"town":"中山","koaza":"","lat":36.030726,"lng":138.552055},{"town":"中山道下","koaza":"","lat":36.030149,"lng":138.551132},{"town":"中山上の山","koaza":"","lat":36.030111,"lng":138.553209},{"town":"土岩山の上","koaza":"","lat":36.037209,"lng":138.549189},{"town":"土岩","koaza":"","lat":36.034516,"lng":138.548746},{"town":"下土岩","koaza":"","lat":36.035804,"lng":138.547977},{"town":"上土岩","koaza":"","lat":36.03442,"lng":138.549612},{"town":"見上","koaza":"","lat":36.034554,"lng":138.546996},{"town":"青木平","koaza":"","lat":36.031227,"lng":138.549054},{"town":"境内続","koaza":"","lat":36.034535,"lng":138.551093},{"town":"寺向","koaza":"","lat":36.033227,"lng":138.551478},{"town":"寺の前","koaza":"","lat":36.033842,"lng":138.550093},{"town":"神明前","koaza":"","lat":36.033112,"lng":138.549497},{"town":"坂の下","koaza":"","lat":36.031823,"lng":138.550439},{"town":"丸山","koaza":"","lat":36.032342,"lng":138.552363},{"town":"柳平","koaza":"","lat":36.028495,"lng":138.55569},{"town":"柳平坂下","koaza":"","lat":36.031323,"lng":138.553747},{"town":"せん日向","koaza":"","lat":36.03163,"lng":138.555459},{"town":"寺の上","koaza":"","lat":36.037574,"lng":138.554632},{"town":"すす久保","koaza":"","lat":36.036382,"lng":138.560172},{"town":"足の久保","koaza":"","lat":36.033419,"lng":138.565135},{"town":"大森沢","koaza":"","lat":36.032477,"lng":138.558364},{"town":"上の段","koaza":"","lat":36.031573,"lng":138.557325},{"town":"粟生川家の前","koaza":"","lat":36.030207,"lng":138.55771},{"town":"長坂","koaza":"","lat":36.029053,"lng":138.558191},{"town":"茂沢奥","koaza":"","lat":36.041998,"lng":138.556979},{"town":"上程久保","koaza":"","lat":36.030457,"lng":138.569463},{"town":"程久保","koaza":"","lat":36.02788,"lng":138.564231},{"town":"棚畑","koaza":"","lat":36.029284,"lng":138.562384},{"town":"中川原","koaza":"","lat":36.028668,"lng":138.561038},{"town":"長山","koaza":"","lat":36.025552,"lng":138.562576},{"town":"あく平","koaza":"","lat":36.025475,"lng":138.56727},{"town":"志の八","koaza":"","lat":36.024994,"lng":138.569289},{"town":"せん下","koaza":"","lat":36.023975,"lng":138.572482},{"town":"大平","koaza":"","lat":36.021628,"lng":138.570309},{"town":"大田","koaza":"","lat":36.030207,"lng":138.579984},{"town":"西栗尾","koaza":"","lat":36.024283,"lng":138.577714},{"town":"東栗尾","koaza":"","lat":36.023802,"lng":138.581869},{"town":"まま下","koaza":"","lat":36.022628,"lng":138.578291},{"town":"石骨","koaza":"","lat":36.018839,"lng":138.580965},{"town":"石合","koaza":"","lat":36.0123,"lng":138.580905},{"town":"赤づら","koaza":"","lat":36.025651,"lng":138.592677},{"town":"上栗尾","koaza":"","lat":36.020555,"lng":138.589575},{"town":"上栗尾日影","koaza":"","lat":36.016289,"lng":138.588716},{"town":"道祖神久保","koaza":"","lat":36.015043,"lng":138.585503},{"town":"唐沢","koaza":"","lat":36.019751,"lng":138.598549},{"town":"唐沢向山","koaza":"","lat":36.019751,"lng":138.604117},{"town":"奥田日影","koaza":"","lat":36.014516,"lng":138.597995},{"town":"落合","koaza":"","lat":36.013575,"lng":138.591292},{"town":"栗尾坂","koaza":"","lat":36.011553,"lng":138.602621},{"town":"風穴","koaza":"","lat":36.007758,"lng":138.58855},{"town":"堂久保","koaza":"","lat":36.008035,"lng":138.593397},{"town":"堰久保","koaza":"","lat":36.012411,"lng":138.598882},{"town":"三川足の久保","koaza":"","lat":35.996955,"lng":138.593259},{"town":"ひこうね平","koaza":"","lat":36.003714,"lng":138.592954},{"town":"下平","koaza":"","lat":36.006345,"lng":138.592594},{"town":"手作","koaza":"","lat":36.007896,"lng":138.59661},{"town":"おやしき","koaza":"","lat":36.005431,"lng":138.596694},{"town":"下平川向","koaza":"","lat":36.000058,"lng":138.598106},{"town":"手作川向","koaza":"","lat":36.002384,"lng":138.598466},{"town":"腰巻","koaza":"","lat":36.007896,"lng":138.599713},{"town":"上腰巻","koaza":"","lat":36.006955,"lng":138.606443},{"town":"せんバ切原","koaza":"","lat":35.997122,"lng":138.606665},{"town":"火打石","koaza":"","lat":36.0046,"lng":138.613479},{"town":"二ツ橋","koaza":"","lat":36.00521,"lng":138.622508},{"town":"二ツ橋川向","koaza":"","lat":35.996623,"lng":138.618714},{"town":"板小屋","koaza":"","lat":36.00244,"lng":138.630347},{"town":"坂向","koaza":"","lat":36.049165,"lng":138.513004},{"town":"おみか道上","koaza":"","lat":36.039305,"lng":138.541514},{"town":"御三壅","koaza":"","lat":36.039526,"lng":138.539904},{"town":"桃木平","koaza":"","lat":36.032534,"lng":138.548862},{"town":"上野境","koaza":"","lat":36.054237,"lng":138.516426},{"town":"奥せん尻","koaza":"","lat":36.027614,"lng":138.551189},{"town":"久保井戸","koaza":"","lat":36.029745,"lng":138.550978},{"town":"孫七坂","koaza":"","lat":36.033831,"lng":138.537993},{"town":"鳥の向","koaza":"","lat":36.015608,"lng":138.550689},{"town":"平石","koaza":"","lat":36.059369,"lng":138.505699},{"town":"かっぱ坂","koaza":"","lat":36.027793,"lng":138.514965}]