[{"town":"大字沓掛","koaza":"","lat":36.336781,"lng":138.113512},{"town":"大字田沢","koaza":"","lat":36.384184,"lng":138.093719},{"town":"大字当郷","koaza":"","lat":36.387334,"lng":138.139946},{"town":"大字殿戸","koaza":"","lat":36.361216,"lng":138.14366},{"town":"大字奈良本","koaza":"","lat":36.339777,"lng":138.081844},{"town":"大字村松","koaza":"","lat":36.38073,"lng":138.127969},{"town":"大字夫神","koaza":"","lat":36.357748,"lng":138.12647}]