[{"town":"大字中屋","koaza":"","lat":33.592852,"lng":130.65805},{"town":"大字九郎丸","koaza":"","lat":33.570661,"lng":130.666414},{"town":"大字内山田","koaza":"","lat":33.540182,"lng":130.676222},{"town":"大字吉隈","koaza":"","lat":33.591638,"lng":130.691515},{"town":"大字土居","koaza":"","lat":33.587069,"lng":130.675753},{"town":"大字土師","koaza":"","lat":33.567032,"lng":130.682028},{"town":"大字寿命","koaza":"","lat":33.59192,"lng":130.668865},{"town":"大字瀬戸","koaza":"","lat":33.596945,"lng":130.675475},{"town":"大字豆田","koaza":"","lat":33.58472,"lng":130.66253}]