[{"town":"大字桧原","koaza":"","lat":33.51963,"lng":130.377303},{"town":"大字柏原","koaza":"","lat":33.513912,"lng":130.390518},{"town":"井尻一丁目","koaza":"","lat":33.555004,"lng":130.441148},{"town":"井尻二丁目","koaza":"","lat":33.556517,"lng":130.4444},{"town":"井尻三丁目","koaza":"","lat":33.551404,"lng":130.447196},{"town":"井尻四丁目","koaza":"","lat":33.549406,"lng":130.445106},{"town":"井尻五丁目","koaza":"","lat":33.551303,"lng":130.441028},{"town":"市崎一丁目","koaza":"","lat":33.570933,"lng":130.404164},{"town":"市崎二丁目","koaza":"","lat":33.566998,"lng":130.405456},{"town":"大池一丁目","koaza":"","lat":33.558377,"lng":130.40758},{"town":"大池二丁目","koaza":"","lat":33.56187,"lng":130.405947},{"town":"大楠一丁目","koaza":"","lat":33.572764,"lng":130.417043},{"town":"大楠二丁目","koaza":"","lat":33.572826,"lng":130.410157},{"town":"大楠三丁目","koaza":"","lat":33.569966,"lng":130.414045},{"town":"大橋一丁目","koaza":"","lat":33.558439,"lng":130.426645},{"town":"大橋二丁目","koaza":"","lat":33.55668,"lng":130.429917},{"town":"大橋三丁目","koaza":"","lat":33.553606,"lng":130.431446},{"town":"大橋四丁目","koaza":"","lat":33.555447,"lng":130.425736},{"town":"大橋団地","koaza":"","lat":33.557308,"lng":130.432365},{"town":"曰佐一丁目","koaza":"","lat":33.542165,"lng":130.436005},{"town":"曰佐二丁目","koaza":"","lat":33.541065,"lng":130.438421},{"town":"曰佐三丁目","koaza":"","lat":33.534658,"lng":130.440357},{"town":"曰佐四丁目","koaza":"","lat":33.538399,"lng":130.435777},{"town":"曰佐五丁目","koaza":"","lat":33.536489,"lng":130.431655},{"town":"折立町","koaza":"","lat":33.553159,"lng":130.437519},{"town":"柏原一丁目","koaza":"","lat":33.528062,"lng":130.402201},{"town":"柏原二丁目","koaza":"","lat":33.523465,"lng":130.405901},{"town":"柏原三丁目","koaza":"","lat":33.524767,"lng":130.402256},{"town":"柏原四丁目","koaza":"","lat":33.524858,"lng":130.396181},{"town":"柏原五丁目","koaza":"","lat":33.529144,"lng":130.395559},{"town":"柏原六丁目","koaza":"","lat":33.523732,"lng":130.390703},{"town":"柏原七丁目","koaza":"","lat":33.522884,"lng":130.384963},{"town":"警弥郷一丁目","koaza":"","lat":33.534152,"lng":130.431291},{"town":"警弥郷二丁目","koaza":"","lat":33.533538,"lng":130.428653},{"town":"警弥郷三丁目","koaza":"","lat":33.529829,"lng":130.428862},{"town":"五十川一丁目","koaza":"","lat":33.5641,"lng":130.435568},{"town":"五十川二丁目","koaza":"","lat":33.559802,"lng":130.439251},{"town":"皿山一丁目","koaza":"","lat":33.547961,"lng":130.403039},{"town":"皿山二丁目","koaza":"","lat":33.545408,"lng":130.405486},{"town":"皿山三丁目","koaza":"","lat":33.544293,"lng":130.402045},{"town":"皿山四丁目","koaza":"","lat":33.541907,"lng":130.401158},{"town":"塩原一丁目","koaza":"","lat":33.566015,"lng":130.430301},{"town":"塩原二丁目","koaza":"","lat":33.565733,"lng":130.425171},{"town":"塩原三丁目","koaza":"","lat":33.563143,"lng":130.426733},{"town":"塩原四丁目","koaza":"","lat":33.559706,"lng":130.43082},{"town":"清水一丁目","koaza":"","lat":33.571817,"lng":130.420839},{"town":"清水二丁目","koaza":"","lat":33.571245,"lng":130.425042},{"town":"清水三丁目","koaza":"","lat":33.569189,"lng":130.421046},{"town":"清水四丁目","koaza":"","lat":33.567568,"lng":130.423613},{"town":"大平寺一丁目","koaza":"","lat":33.532306,"lng":130.397573},{"town":"大平寺二丁目","koaza":"","lat":33.530456,"lng":130.393277},{"town":"高木一丁目","koaza":"","lat":33.561403,"lng":130.436086},{"town":"高木二丁目","koaza":"","lat":33.559022,"lng":130.435374},{"town":"高木三丁目","koaza":"","lat":33.55562,"lng":130.436709},{"town":"高宮一丁目","koaza":"","lat":33.571146,"lng":130.407483},{"town":"高宮二丁目","koaza":"","lat":33.568847,"lng":130.408941},{"town":"高宮三丁目","koaza":"","lat":33.56741,"lng":130.412147},{"town":"高宮四丁目","koaza":"","lat":33.564987,"lng":130.409263},{"town":"高宮五丁目","koaza":"","lat":33.564755,"lng":130.413692},{"town":"多賀一丁目","koaza":"","lat":33.562845,"lng":130.411755},{"town":"多賀二丁目","koaza":"","lat":33.559137,"lng":130.410551},{"town":"玉川町","koaza":"","lat":33.567327,"lng":130.417654},{"town":"筑紫丘一丁目","koaza":"","lat":33.558314,"lng":130.421095},{"town":"筑紫丘二丁目","koaza":"","lat":33.557078,"lng":130.41887},{"town":"鶴田一丁目","koaza":"","lat":33.528026,"lng":130.407862},{"town":"鶴田二丁目","koaza":"","lat":33.524822,"lng":130.409634},{"town":"鶴田三丁目","koaza":"","lat":33.526746,"lng":130.411991},{"town":"鶴田四丁目","koaza":"","lat":33.530713,"lng":130.411099},{"town":"寺塚一丁目","koaza":"","lat":33.555062,"lng":130.403247},{"town":"寺塚二丁目","koaza":"","lat":33.559164,"lng":130.402375},{"town":"中尾一丁目","koaza":"","lat":33.545025,"lng":130.412741},{"town":"中尾二丁目","koaza":"","lat":33.542517,"lng":130.411374},{"town":"中尾三丁目","koaza":"","lat":33.543857,"lng":130.407545},{"town":"長丘一丁目","koaza":"","lat":33.554639,"lng":130.398537},{"town":"長丘二丁目","koaza":"","lat":33.558326,"lng":130.397866},{"town":"長丘三丁目","koaza":"","lat":33.554759,"lng":130.394171},{"town":"長丘四丁目","koaza":"","lat":33.557951,"lng":130.389562},{"town":"長丘五丁目","koaza":"","lat":33.555239,"lng":130.389554},{"town":"長住一丁目","koaza":"","lat":33.550727,"lng":130.401138},{"town":"長住二丁目","koaza":"","lat":33.550592,"lng":130.39835},{"town":"長住三丁目","koaza":"","lat":33.550823,"lng":130.394971},{"town":"長住四丁目","koaza":"","lat":33.547056,"lng":130.394292},{"town":"長住五丁目","koaza":"","lat":33.546458,"lng":130.398176},{"town":"長住六丁目","koaza":"","lat":33.54513,"lng":130.399794},{"town":"長住七丁目","koaza":"","lat":33.544756,"lng":130.395299},{"town":"那の川一丁目","koaza":"","lat":33.575271,"lng":130.415881},{"town":"那の川二丁目","koaza":"","lat":33.575095,"lng":130.41115},{"town":"西長住一丁目","koaza":"","lat":33.551705,"lng":130.390465},{"town":"西長住二丁目","koaza":"","lat":33.549024,"lng":130.391783},{"town":"西長住三丁目","koaza":"","lat":33.544274,"lng":130.390942},{"town":"野多目一丁目","koaza":"","lat":33.543631,"lng":130.425884},{"town":"野多目二丁目","koaza":"","lat":33.540343,"lng":130.424427},{"town":"野多目三丁目","koaza":"","lat":33.542758,"lng":130.420248},{"town":"野多目四丁目","koaza":"","lat":33.538347,"lng":130.421938},{"town":"野多目五丁目","koaza":"","lat":33.540036,"lng":130.415664},{"town":"野多目六丁目","koaza":"","lat":33.536135,"lng":130.41521},{"town":"野間一丁目","koaza":"","lat":33.563794,"lng":130.416112},{"town":"野間二丁目","koaza":"","lat":33.559602,"lng":130.417144},{"town":"野間三丁目","koaza":"","lat":33.560685,"lng":130.413865},{"town":"野間四丁目","koaza":"","lat":33.555959,"lng":130.409784},{"town":"花畑一丁目","koaza":"","lat":33.540817,"lng":130.404505},{"town":"花畑二丁目","koaza":"","lat":33.53704,"lng":130.403584},{"town":"花畑三丁目","koaza":"","lat":33.534003,"lng":130.402816},{"town":"花畑四丁目","koaza":"","lat":33.538815,"lng":130.399978},{"town":"桧原一丁目","koaza":"","lat":33.541721,"lng":130.393667},{"town":"桧原二丁目","koaza":"","lat":33.539813,"lng":130.396225},{"town":"桧原三丁目","koaza":"","lat":33.535569,"lng":130.397012},{"town":"桧原四丁目","koaza":"","lat":33.533441,"lng":130.394391},{"town":"桧原五丁目","koaza":"","lat":33.533895,"lng":130.390866},{"town":"桧原六丁目","koaza":"","lat":33.532079,"lng":130.387408},{"town":"桧原七丁目","koaza":"","lat":33.537783,"lng":130.389552},{"town":"平和一丁目","koaza":"","lat":33.56706,"lng":130.402537},{"town":"平和二丁目","koaza":"","lat":33.567722,"lng":130.399643},{"town":"平和四丁目","koaza":"","lat":33.562487,"lng":130.399148},{"town":"的場一丁目","koaza":"","lat":33.544987,"lng":130.432872},{"town":"的場二丁目","koaza":"","lat":33.541514,"lng":130.432521},{"town":"南大橋一丁目","koaza":"","lat":33.554068,"lng":130.422609},{"town":"南大橋二丁目","koaza":"","lat":33.550777,"lng":130.421056},{"town":"三宅一丁目","koaza":"","lat":33.551513,"lng":130.425232},{"town":"三宅二丁目","koaza":"","lat":33.548936,"lng":130.426026},{"town":"三宅三丁目","koaza":"","lat":33.549182,"lng":130.430733},{"town":"向新町一丁目","koaza":"","lat":33.544065,"lng":130.428997},{"town":"向新町二丁目","koaza":"","lat":33.53931,"lng":130.429598},{"town":"向野一丁目","koaza":"","lat":33.563774,"lng":130.420302},{"town":"向野二丁目","koaza":"","lat":33.560907,"lng":130.423336},{"town":"屋形原一丁目","koaza":"","lat":33.539248,"lng":130.407374},{"town":"屋形原二丁目","koaza":"","lat":33.538455,"lng":130.410593},{"town":"屋形原三丁目","koaza":"","lat":33.534523,"lng":130.41172},{"town":"屋形原四丁目","koaza":"","lat":33.533648,"lng":130.407478},{"town":"屋形原五丁目","koaza":"","lat":33.529943,"lng":130.405128},{"town":"弥永一丁目","koaza":"","lat":33.529563,"lng":130.431635},{"town":"弥永二丁目","koaza":"","lat":33.525897,"lng":130.42936},{"town":"弥永三丁目","koaza":"","lat":33.525371,"lng":130.43187},{"town":"弥永四丁目","koaza":"","lat":33.528203,"lng":130.434442},{"town":"弥永五丁目","koaza":"","lat":33.525149,"lng":130.435332},{"town":"弥永団地","koaza":"","lat":33.53155,"lng":130.438072},{"town":"柳河内一丁目","koaza":"","lat":33.552838,"lng":130.405222},{"town":"柳河内二丁目","koaza":"","lat":33.551531,"lng":130.407987},{"town":"柳瀬一丁目","koaza":"","lat":33.534511,"lng":130.435413},{"town":"柳瀬二丁目","koaza":"","lat":33.532338,"lng":130.433978},{"town":"横手一丁目","koaza":"","lat":33.55162,"lng":130.435847},{"town":"横手二丁目","koaza":"","lat":33.548941,"lng":130.439124},{"town":"横手三丁目","koaza":"","lat":33.546083,"lng":130.437196},{"town":"横手四丁目","koaza":"","lat":33.54879,"lng":130.434442},{"town":"横手南町","koaza":"","lat":33.545565,"lng":130.440768},{"town":"老司一丁目","koaza":"","lat":33.536467,"lng":130.424621},{"town":"老司二丁目","koaza":"","lat":33.533977,"lng":130.425182},{"town":"老司三丁目","koaza":"","lat":33.533081,"lng":130.419286},{"town":"老司四丁目","koaza":"","lat":33.529842,"lng":130.422018},{"town":"老司五丁目","koaza":"","lat":33.527749,"lng":130.416245},{"town":"若久一丁目","koaza":"","lat":33.55571,"lng":130.413762},{"town":"若久二丁目","koaza":"","lat":33.552768,"lng":130.41625},{"town":"若久三丁目","koaza":"","lat":33.550272,"lng":130.414323},{"town":"若久四丁目","koaza":"","lat":33.552464,"lng":130.411011},{"town":"若久五丁目","koaza":"","lat":33.548312,"lng":130.408451},{"town":"若久六丁目","koaza":"","lat":33.547376,"lng":130.414512},{"town":"若久団地","koaza":"","lat":33.554429,"lng":130.419172},{"town":"和田一丁目","koaza":"","lat":33.545442,"lng":130.425899},{"town":"和田二丁目","koaza":"","lat":33.545394,"lng":130.419017},{"town":"和田三丁目","koaza":"","lat":33.547182,"lng":130.422814},{"town":"和田四丁目","koaza":"","lat":33.548809,"lng":130.420472}]