[{"town":"星ヶ丘","koaza":"","lat":33.788449,"lng":130.482735},{"town":"村山田","koaza":"","lat":33.775015,"lng":130.521806},{"town":"（大字なし）","koaza":"","lat":33.753414,"lng":130.489137},{"town":"あけぼの","koaza":"","lat":33.771213,"lng":130.511945},{"town":"畦町","koaza":"","lat":33.764027,"lng":130.536064},{"town":"在自","koaza":"","lat":33.792853,"lng":130.483353},{"town":"内殿","koaza":"","lat":33.749563,"lng":130.516494},{"town":"大石","koaza":"","lat":33.806379,"lng":130.485516},{"town":"小竹","koaza":"","lat":33.781452,"lng":130.514954},{"town":"小竹一丁目","koaza":"","lat":33.778016,"lng":130.516448},{"town":"小竹二丁目","koaza":"","lat":33.779783,"lng":130.514751},{"town":"勝浦","koaza":"","lat":33.828677,"lng":130.489197},{"town":"上西郷","koaza":"","lat":33.750727,"lng":130.503449},{"town":"光陽台一丁目","koaza":"","lat":33.767049,"lng":130.494467},{"town":"光陽台二丁目","koaza":"","lat":33.765659,"lng":130.496384},{"town":"光陽台三丁目","koaza":"","lat":33.768268,"lng":130.498045},{"town":"光陽台四丁目","koaza":"","lat":33.771565,"lng":130.501047},{"town":"光陽台五丁目","koaza":"","lat":33.773826,"lng":130.501947},{"town":"光陽台六丁目","koaza":"","lat":33.77661,"lng":130.501599},{"town":"光陽台南","koaza":"","lat":33.767823,"lng":130.499243},{"town":"桜川","koaza":"","lat":33.770896,"lng":130.507705},{"town":"舎利蔵","koaza":"","lat":33.742081,"lng":130.530697},{"town":"須多田","koaza":"","lat":33.799488,"lng":130.48726},{"town":"高平","koaza":"","lat":33.773374,"lng":130.5067},{"town":"中央一丁目","koaza":"","lat":33.767336,"lng":130.491411},{"town":"中央二丁目","koaza":"","lat":33.7666,"lng":130.488159},{"town":"中央三丁目","koaza":"","lat":33.763634,"lng":130.485909},{"town":"中央四丁目","koaza":"","lat":33.767303,"lng":130.485357},{"town":"中央五丁目","koaza":"","lat":33.767154,"lng":130.481996},{"town":"中央六丁目","koaza":"","lat":33.764002,"lng":130.481252},{"town":"津丸","koaza":"","lat":33.767216,"lng":130.509811},{"town":"津屋崎","koaza":"","lat":33.802873,"lng":130.4697},{"town":"津屋崎一丁目","koaza":"","lat":33.783706,"lng":130.471418},{"town":"津屋崎二丁目","koaza":"","lat":33.785907,"lng":130.47439},{"town":"津屋崎三丁目","koaza":"","lat":33.788518,"lng":130.466049},{"town":"津屋崎四丁目","koaza":"","lat":33.790025,"lng":130.46139},{"town":"津屋崎五丁目","koaza":"","lat":33.797171,"lng":130.465807},{"town":"津屋崎六丁目","koaza":"","lat":33.790259,"lng":130.467706},{"town":"津屋崎七丁目","koaza":"","lat":33.794027,"lng":130.472615},{"town":"津屋崎八丁目","koaza":"","lat":33.795169,"lng":130.47137},{"town":"手光","koaza":"","lat":33.780965,"lng":130.501528},{"town":"手光南一丁目","koaza":"","lat":33.769695,"lng":130.494249},{"town":"手光南二丁目","koaza":"","lat":33.770734,"lng":130.493362},{"town":"西福間一丁目","koaza":"","lat":33.769105,"lng":130.47952},{"town":"西福間二丁目","koaza":"","lat":33.764499,"lng":130.476698},{"town":"西福間三丁目","koaza":"","lat":33.764913,"lng":130.471842},{"town":"西福間四丁目","koaza":"","lat":33.769083,"lng":130.472961},{"town":"西福間五丁目","koaza":"","lat":33.770501,"lng":130.474753},{"town":"奴山","koaza":"","lat":33.813048,"lng":130.496458},{"town":"花見が丘一丁目","koaza":"","lat":33.76093,"lng":130.480345},{"town":"花見が丘二丁目","koaza":"","lat":33.759003,"lng":130.47871},{"town":"花見が丘三丁目","koaza":"","lat":33.756135,"lng":130.477355},{"town":"花見が浜一丁目","koaza":"","lat":33.760561,"lng":130.474313},{"town":"花見が浜二丁目","koaza":"","lat":33.757215,"lng":130.47371},{"town":"花見が浜三丁目","koaza":"","lat":33.758129,"lng":130.470325},{"town":"花見の里一丁目","koaza":"","lat":33.752472,"lng":130.479057},{"town":"花見の里二丁目","koaza":"","lat":33.753441,"lng":130.476482},{"town":"花見の里三丁目","koaza":"","lat":33.754193,"lng":130.470925},{"town":"東福間一丁目","koaza":"","lat":33.77509,"lng":130.511845},{"town":"東福間二丁目","koaza":"","lat":33.776045,"lng":130.507937},{"town":"東福間三丁目","koaza":"","lat":33.776506,"lng":130.50966},{"town":"東福間四丁目","koaza":"","lat":33.776042,"lng":130.511072},{"town":"東福間五丁目","koaza":"","lat":33.777182,"lng":130.51354},{"town":"東福間六丁目","koaza":"","lat":33.779489,"lng":130.51296},{"town":"東福間七丁目","koaza":"","lat":33.77986,"lng":130.509736},{"town":"東福間八丁目","koaza":"","lat":33.782841,"lng":130.510851},{"town":"久末","koaza":"","lat":33.76401,"lng":130.515462},{"town":"日蒔野一丁目","koaza":"","lat":33.762523,"lng":130.489714},{"town":"日蒔野二丁目","koaza":"","lat":33.761296,"lng":130.485101},{"town":"日蒔野三丁目","koaza":"","lat":33.759552,"lng":130.48428},{"town":"日蒔野四丁目","koaza":"","lat":33.760228,"lng":130.488673},{"town":"日蒔野五丁目","koaza":"","lat":33.759648,"lng":130.494893},{"town":"日蒔野六丁目","koaza":"","lat":33.753024,"lng":130.492835},{"town":"福間駅東一丁目","koaza":"","lat":33.764042,"lng":130.490546},{"town":"福間駅東二丁目","koaza":"","lat":33.764627,"lng":130.492786},{"town":"福間駅東三丁目","koaza":"","lat":33.763998,"lng":130.498814},{"town":"福間南一丁目","koaza":"","lat":33.756545,"lng":130.489907},{"town":"福間南二丁目","koaza":"","lat":33.75486,"lng":130.486199},{"town":"福間南三丁目","koaza":"","lat":33.754627,"lng":130.483788},{"town":"福間南四丁目","koaza":"","lat":33.755844,"lng":130.480874},{"town":"福間南五丁目","koaza":"","lat":33.753411,"lng":130.482122},{"town":"宮司","koaza":"","lat":33.784456,"lng":130.489491},{"town":"宮司一丁目","koaza":"","lat":33.772256,"lng":130.485156},{"town":"宮司二丁目","koaza":"","lat":33.772374,"lng":130.481527},{"town":"宮司三丁目","koaza":"","lat":33.777508,"lng":130.485405},{"town":"宮司四丁目","koaza":"","lat":33.776633,"lng":130.480746},{"town":"宮司五丁目","koaza":"","lat":33.780986,"lng":130.478209},{"town":"宮司六丁目","koaza":"","lat":33.784961,"lng":130.478477},{"town":"宮司ヶ丘","koaza":"","lat":33.783798,"lng":130.481865},{"town":"宮司浜一丁目","koaza":"","lat":33.773573,"lng":130.476692},{"town":"宮司浜二丁目","koaza":"","lat":33.775785,"lng":130.475394},{"town":"宮司浜三丁目","koaza":"","lat":33.77978,"lng":130.474037},{"town":"宮司浜四丁目","koaza":"","lat":33.777016,"lng":130.471281},{"town":"宮司元町","koaza":"","lat":33.780157,"lng":130.48669},{"town":"本木","koaza":"","lat":33.747262,"lng":130.540777},{"town":"八並","koaza":"","lat":33.772277,"lng":130.534768},{"town":"生家","koaza":"","lat":33.811607,"lng":130.487658},{"town":"有弥の里一丁目","koaza":"","lat":33.750713,"lng":130.484015},{"town":"有弥の里二丁目","koaza":"","lat":33.748851,"lng":130.488316},{"town":"若木台一丁目","koaza":"","lat":33.772679,"lng":130.513044},{"town":"若木台二丁目","koaza":"","lat":33.774495,"lng":130.514014},{"town":"若木台三丁目","koaza":"","lat":33.775303,"lng":130.518458},{"town":"若木台四丁目","koaza":"","lat":33.772113,"lng":130.517469},{"town":"若木台五丁目","koaza":"","lat":33.77164,"lng":130.520471},{"town":"若木台六丁目","koaza":"","lat":33.772731,"lng":130.523407},{"town":"渡","koaza":"","lat":33.801404,"lng":130.455221}]