[{"town":"大字上木月","koaza":"","lat":33.806394,"lng":130.68769},{"town":"大字中山","koaza":"","lat":33.782242,"lng":130.688328},{"town":"大字八尋","koaza":"","lat":33.766788,"lng":130.660837},{"town":"大字古門","koaza":"","lat":33.807992,"lng":130.652692},{"town":"大字室木","koaza":"","lat":33.750544,"lng":130.664086},{"town":"大字小牧","koaza":"","lat":33.796378,"lng":130.697049},{"town":"大字小牧","koaza":"本村","lat":33.794963,"lng":130.696522},{"town":"大字新北","koaza":"","lat":33.775057,"lng":130.676378},{"town":"大字新延","koaza":"","lat":33.787687,"lng":130.657323},{"town":"大字木月","koaza":"","lat":33.808976,"lng":130.675583},{"town":"大字永谷","koaza":"","lat":33.798622,"lng":130.641967},{"town":"大字猪倉","koaza":"","lat":33.799315,"lng":130.684535},{"town":"大字長谷","koaza":"","lat":33.756504,"lng":130.676357},{"town":"弥生一丁目","koaza":"","lat":33.802443,"lng":130.678922},{"town":"弥生二丁目","koaza":"","lat":33.801523,"lng":130.68084},{"town":"弥生三丁目","koaza":"","lat":33.80007,"lng":130.67949}]