[{"town":"大字赤保内","lat":"40.443771","lng":"141.610630"},{"town":"大字金山沢","lat":"40.439204","lng":"141.538750"},{"town":"大字田代","lat":"40.377212","lng":"141.558853"},{"town":"大字角柄折","lat":"40.454772","lng":"141.572887"},{"town":"大字道仏","lat":"40.448238","lng":"141.649675"},{"town":"大字鳥屋部","lat":"40.422739","lng":"141.599274"},{"town":"大字晴山沢","lat":"40.399440","lng":"141.554906"},{"town":"大字平内","lat":"40.420760","lng":"141.556793"},{"town":"蒼前西一丁目","lat":"40.477659","lng":"141.568939"},{"town":"蒼前西二丁目","lat":"40.476699","lng":"141.571969"},{"town":"蒼前西三丁目","lat":"40.473716","lng":"141.573761"},{"town":"蒼前西四丁目","lat":"40.472144","lng":"141.570563"},{"town":"蒼前西五丁目","lat":"40.473923","lng":"141.567739"},{"town":"蒼前西六丁目","lat":"40.474882","lng":"141.562402"},{"town":"蒼前西七丁目","lat":"40.477856","lng":"141.575514"},{"town":"蒼前東一丁目","lat":"40.475000","lng":"141.582433"},{"town":"蒼前東二丁目","lat":"40.472188","lng":"141.590239"},{"town":"蒼前東三丁目","lat":"40.468439","lng":"141.587012"},{"town":"蒼前東四丁目","lat":"40.470595","lng":"141.580880"},{"town":"蒼前東五丁目","lat":"40.473976","lng":"141.578627"},{"town":"蒼前東六丁目","lat":"40.470154","lng":"141.576796"},{"town":"蒼前東七丁目","lat":"40.468203","lng":"141.580442"},{"town":"蒼前東八丁目","lat":"40.466070","lng":"141.577644"}]