[{"town":"字赤川橋ノ上","lat":"40.767315","lng":"141.215255"},{"town":"字赤川橋ノ下","lat":"40.760487","lng":"141.223467"},{"town":"字赤川道","lat":"40.770706","lng":"141.221904"},{"town":"字空久保","lat":"40.858200","lng":"141.202708"},{"town":"字秋取山","lat":"40.808875","lng":"141.101517"},{"town":"字家ノ上平","lat":"40.768129","lng":"141.286834"},{"town":"字家ノ下タ","lat":"40.815320","lng":"141.128481"},{"town":"字家ノ下モ","lat":"40.820424","lng":"141.163560"},{"town":"字家ノ前","lat":"40.833340","lng":"141.126092"},{"town":"字五十嵐","lat":"40.867116","lng":"141.261659"},{"town":"字石坂","lat":"40.830856","lng":"141.127555"},{"town":"字石文","lat":"40.794078","lng":"141.172951"},{"town":"字板橋平","lat":"40.814210","lng":"141.100461"},{"town":"字板橋山","lat":"40.820069","lng":"141.127073"},{"town":"字岩間手橋ノ上","lat":"40.811369","lng":"141.256486"},{"town":"字後久保","lat":"40.770524","lng":"141.302773"},{"town":"字内蛯沢坂ノ下","lat":"40.765645","lng":"141.222948"},{"town":"字内蛯沢道ノ上","lat":"40.772419","lng":"141.218745"},{"town":"字内蛯沢向","lat":"40.769718","lng":"141.229474"},{"town":"字宇道坂","lat":"40.817259","lng":"141.096203"},{"town":"字姥沢","lat":"40.893530","lng":"141.218671"},{"town":"字馬尻","lat":"40.794460","lng":"141.200324"},{"town":"字狼ノ沢","lat":"40.802113","lng":"141.291882"},{"town":"字大久保","lat":"40.751715","lng":"141.315754"},{"town":"字大久保平","lat":"40.832852","lng":"141.196640"},{"town":"字大沢","lat":"40.805480","lng":"141.214226"},{"town":"字大平","lat":"40.826149","lng":"141.147865"},{"town":"字太田平","lat":"40.877399","lng":"141.208299"},{"town":"字大撫沢","lat":"40.843639","lng":"141.137103"},{"town":"字大籏屋","lat":"40.796557","lng":"141.198895"},{"town":"字大向","lat":"40.843462","lng":"141.164055"},{"town":"字往来ノ上","lat":"40.774220","lng":"141.270755"},{"town":"字往来ノ下","lat":"40.776713","lng":"141.285604"},{"town":"字岡端","lat":"40.829434","lng":"141.122054"},{"town":"字小沢","lat":"40.814555","lng":"141.193758"},{"town":"字落合","lat":"40.793900","lng":"141.256584"},{"town":"字乙越","lat":"40.770607","lng":"141.275400"},{"town":"字乙供","lat":"40.767990","lng":"141.207513"},{"town":"字乙供山","lat":"40.780629","lng":"141.197624"},{"town":"字乙部橋ノ上","lat":"40.810942","lng":"141.254214"},{"town":"字乙部道ノ上","lat":"40.804924","lng":"141.254938"},{"town":"字乙部道ノ下","lat":"40.799366","lng":"141.256795"},{"town":"字ガス平","lat":"40.900596","lng":"141.242896"},{"town":"字数牛","lat":"40.876475","lng":"141.232848"},{"town":"字数牛尻","lat":"40.870783","lng":"141.241247"},{"town":"字上板橋家ノ後","lat":"40.810919","lng":"141.118504"},{"town":"字上久保","lat":"40.763290","lng":"141.290583"},{"town":"字上笹橋","lat":"40.779592","lng":"141.214296"},{"town":"字上清水目","lat":"40.827722","lng":"141.116490"},{"town":"字川向","lat":"40.815948","lng":"141.098562"},{"town":"字川迎","lat":"40.805641","lng":"141.120340"},{"town":"字岩渡沢","lat":"40.798668","lng":"141.220950"},{"town":"字北膳前","lat":"40.785917","lng":"141.208461"},{"town":"字狐沢","lat":"40.852105","lng":"141.162233"},{"town":"字狐沢山","lat":"40.849923","lng":"141.158641"},{"town":"字切左坂道ノ上","lat":"40.827212","lng":"141.265538"},{"town":"字切左坂道ノ下","lat":"40.820555","lng":"141.259373"},{"town":"字熊堂","lat":"40.821721","lng":"141.289216"},{"town":"字栗山添","lat":"40.790740","lng":"141.216917"},{"town":"字黒志多","lat":"40.750045","lng":"141.296203"},{"town":"字枋木","lat":"40.819015","lng":"141.239258"},{"town":"字塞ノ神","lat":"40.815631","lng":"141.087307"},{"town":"字坂下","lat":"40.841810","lng":"141.160285"},{"town":"字坂ノ下","lat":"40.790377","lng":"141.257402"},{"town":"字笹久保","lat":"40.771438","lng":"141.287622"},{"town":"字淋代","lat":"40.867368","lng":"141.217834"},{"town":"字淋代下山","lat":"40.863227","lng":"141.252664"},{"town":"字漆玉","lat":"40.789051","lng":"141.289309"},{"town":"字篠内平","lat":"40.788817","lng":"141.187297"},{"town":"字清水目深山","lat":"40.804698","lng":"141.094570"},{"town":"字清水目向","lat":"40.817394","lng":"141.109846"},{"town":"字清水目山","lat":"40.819083","lng":"141.118981"},{"town":"字下板橋","lat":"40.808688","lng":"141.142998"},{"town":"字下笹橋","lat":"40.775851","lng":"141.214431"},{"town":"字下山","lat":"40.787628","lng":"141.218333"},{"town":"字素柄邸","lat":"40.779700","lng":"141.274840"},{"town":"字堰合","lat":"40.821194","lng":"141.113626"},{"town":"字堰向","lat":"40.824410","lng":"141.116561"},{"town":"字膳前","lat":"40.781986","lng":"141.207670"},{"town":"字添ノ沢","lat":"40.822210","lng":"141.104627"},{"town":"字袖ノ沢","lat":"40.808267","lng":"141.189273"},{"town":"字外蛯沢後久保","lat":"40.790150","lng":"141.229120"},{"town":"字外蛯沢北久保","lat":"40.786839","lng":"141.236416"},{"town":"字外蛯沢西平","lat":"40.782272","lng":"141.229589"},{"town":"字外蛯沢前平","lat":"40.781044","lng":"141.241311"},{"town":"字高森","lat":"40.864043","lng":"141.220077"},{"town":"字滝沢","lat":"40.848580","lng":"141.244905"},{"town":"字滝沢尻","lat":"40.799554","lng":"141.260997"},{"town":"字滝沢平","lat":"40.800185","lng":"141.274773"},{"town":"字滝沢山","lat":"40.843161","lng":"141.241949"},{"town":"字舘","lat":"40.765153","lng":"141.258347"},{"town":"字蓼内久保","lat":"40.757223","lng":"141.285464"},{"town":"字舘花","lat":"40.772880","lng":"141.212755"},{"town":"字田ノ沢","lat":"40.789030","lng":"141.302638"},{"town":"字田ノ沢川添","lat":"40.777399","lng":"141.301327"},{"town":"字田面木","lat":"40.845087","lng":"141.147528"},{"town":"字千曳","lat":"40.799910","lng":"141.167791"},{"town":"字千曳下山","lat":"40.798348","lng":"141.181537"},{"town":"字千曳向","lat":"40.798469","lng":"141.163969"},{"town":"字長者久保","lat":"40.847791","lng":"141.157247"},{"town":"字堤尻","lat":"40.762508","lng":"141.302184"},{"town":"字堤端","lat":"40.792312","lng":"141.185560"},{"town":"字鶴ケ崎","lat":"40.755174","lng":"141.317382"},{"town":"字寺沢","lat":"40.761593","lng":"141.273427"},{"town":"字寺沢川端","lat":"40.760037","lng":"141.265905"},{"town":"字塔ノ沢","lat":"40.812265","lng":"141.198244"},{"town":"字塔ノ沢山","lat":"40.779099","lng":"141.222246"},{"town":"字戸田ノ沢","lat":"40.849187","lng":"141.139928"},{"town":"字土場","lat":"40.790796","lng":"141.259832"},{"town":"字土場川","lat":"40.778025","lng":"141.253616"},{"town":"字土場川目","lat":"40.854560","lng":"141.234012"},{"town":"字鳥口平","lat":"40.767886","lng":"141.262927"},{"town":"字長久保","lat":"40.763663","lng":"141.281121"},{"town":"字中津平","lat":"40.755595","lng":"141.304666"},{"town":"字中村道ノ上","lat":"40.838053","lng":"141.280854"},{"town":"字中村道ノ下","lat":"40.829244","lng":"141.299636"},{"town":"字夏焼","lat":"40.819586","lng":"141.199717"},{"town":"字楢木山","lat":"40.856840","lng":"141.250512"},{"town":"字西ノ沢","lat":"40.853924","lng":"141.181991"},{"town":"字沼添左ノ平","lat":"40.817411","lng":"141.291850"},{"town":"字子ノ鳥平","lat":"40.818737","lng":"141.270161"},{"town":"字野田頭","lat":"40.821799","lng":"141.274176"},{"town":"字野田頭山","lat":"40.819818","lng":"141.280919"},{"town":"字野田尻","lat":"40.816767","lng":"141.278832"},{"town":"字浜家苫","lat":"40.771479","lng":"141.316766"},{"town":"字浜台","lat":"40.809745","lng":"141.291672"},{"town":"字林ノ下","lat":"40.824865","lng":"141.111807"},{"town":"字日影林ノ上山","lat":"40.782347","lng":"141.274519"},{"town":"旭北一丁目","lat":"40.734414","lng":"141.265428"},{"town":"旭北二丁目","lat":"40.736620","lng":"141.267647"},{"town":"旭北三丁目","lat":"40.737217","lng":"141.272008"},{"town":"旭北四丁目","lat":"40.739024","lng":"141.276295"},{"town":"旭南一丁目","lat":"40.729376","lng":"141.271603"},{"town":"旭南二丁目","lat":"40.731979","lng":"141.273020"},{"town":"旭南三丁目","lat":"40.732636","lng":"141.275620"},{"town":"旭南四丁目","lat":"40.734003","lng":"141.278155"},{"town":"字寒水","lat":"40.806632","lng":"141.226816"},{"town":"字寒水下","lat":"40.811190","lng":"141.241815"},{"town":"字寒水山","lat":"40.801709","lng":"141.244339"},{"town":"字敏蕩沢頭","lat":"40.796529","lng":"141.212095"},{"town":"字藤木沢","lat":"40.873034","lng":"141.250301"},{"town":"字夫雑原","lat":"40.809418","lng":"141.154999"},{"town":"字夫雑原下山","lat":"40.825997","lng":"141.173617"},{"town":"字夫雑原山中","lat":"40.811519","lng":"141.188305"},{"town":"字船ケ沢","lat":"40.761449","lng":"141.313969"},{"town":"字古屋敷","lat":"40.753517","lng":"141.299229"},{"town":"字細津","lat":"40.839079","lng":"141.253976"},{"town":"字細津橋ノ上","lat":"40.842594","lng":"141.262307"},{"town":"字仏沢","lat":"40.784179","lng":"141.217873"},{"town":"字保戸沢家ノ後","lat":"40.793959","lng":"141.248486"},{"town":"字保戸沢家ノ上","lat":"40.791735","lng":"141.246001"},{"town":"字保戸沢家ノ前","lat":"40.788561","lng":"141.247864"},{"town":"字保戸沢道橋ノ上","lat":"40.798076","lng":"141.242619"},{"town":"字洞内沢頭","lat":"40.861329","lng":"141.179165"},{"town":"字間手場","lat":"40.756135","lng":"141.271761"},{"town":"字饅頭長根","lat":"40.835697","lng":"141.211001"},{"town":"字水尻","lat":"40.779589","lng":"141.260809"},{"town":"字水流","lat":"40.860050","lng":"141.198850"},{"town":"字水喰","lat":"40.834025","lng":"141.274017"},{"town":"字水喰向","lat":"40.828623","lng":"141.275791"},{"town":"字道合","lat":"40.868941","lng":"141.216122"},{"town":"字道ノ北","lat":"40.758564","lng":"141.295466"},{"town":"字向平","lat":"40.798539","lng":"141.154107"},{"town":"字向籏屋","lat":"40.788395","lng":"141.210321"},{"town":"字向屋敷","lat":"40.794955","lng":"141.207917"},{"town":"字萠出道ノ上","lat":"40.827980","lng":"141.246995"},{"town":"字萠出道ノ下","lat":"40.835643","lng":"141.249169"},{"town":"字谷地頭","lat":"40.877380","lng":"141.219509"},{"town":"字弥太郎","lat":"40.759532","lng":"141.257663"},{"town":"字柳沢","lat":"40.775610","lng":"141.193031"},{"town":"字山添","lat":"40.833132","lng":"141.122791"},{"town":"字山下","lat":"40.798058","lng":"141.202723"},{"town":"字湯沢","lat":"40.833405","lng":"141.136620"},{"town":"字湯沢平","lat":"40.833079","lng":"141.114436"},{"town":"字湯田平","lat":"40.839953","lng":"141.114682"},{"town":"字横沢","lat":"40.847696","lng":"141.201756"},{"town":"字横沢頭","lat":"40.854109","lng":"141.194403"},{"town":"字横沢山","lat":"40.830357","lng":"141.231467"},{"town":"字横志多","lat":"40.757656","lng":"141.323898"},{"town":"字和山平","lat":"40.782297","lng":"141.293927"},{"town":"大字上野","lat":"40.735432","lng":"141.249514"},{"town":"大字大浦","lat":"40.719577","lng":"141.288172"},{"town":"大字新舘","lat":"40.698906","lng":"141.193802"},{"town":"上北北一丁目","lat":"40.733212","lng":"141.261481"},{"town":"上北北二丁目","lat":"40.731923","lng":"141.254097"},{"town":"上北北三丁目","lat":"40.729486","lng":"141.253065"},{"town":"上北南一丁目","lat":"40.728939","lng":"141.269352"},{"town":"上北南二丁目","lat":"40.728590","lng":"141.266787"},{"town":"上北南三丁目","lat":"40.728288","lng":"141.260202"},{"town":"上北南四丁目","lat":"40.727420","lng":"141.256990"}]