[{"town":"大字阿弥陀川","lat":"40.971970","lng":"140.623654"},{"town":"大字郷沢","lat":"40.989908","lng":"140.639284"},{"town":"大字瀬辺地","lat":"41.004786","lng":"140.639036"},{"town":"大字中沢","lat":"40.954651","lng":"140.640011"},{"town":"大字長科","lat":"40.962148","lng":"140.640499"},{"town":"大字広瀬","lat":"41.024986","lng":"140.635078"},{"town":"大字蓬田","lat":"40.979595","lng":"140.631923"}]