[{"town":"大字今別","lat":"41.167818","lng":"140.480629"},{"town":"大字大川平","lat":"41.144611","lng":"140.513776"},{"town":"大字大泊","lat":"41.211966","lng":"140.529271"},{"town":"大字奥平部","lat":"41.221239","lng":"140.575974"},{"town":"大字砂ケ森","lat":"41.220340","lng":"140.558550"},{"town":"大字鍋田","lat":"41.176877","lng":"140.513917"},{"town":"大字浜名","lat":"41.177262","lng":"140.457028"},{"town":"大字袰月","lat":"41.219503","lng":"140.546301"},{"town":"大字村元","lat":"41.184695","lng":"140.488171"},{"town":"大字山崎","lat":"41.193648","lng":"140.514424"}]