[{"town":"青葉一丁目","lat":"38.929515","lng":"141.127290"},{"town":"青葉二丁目","lat":"38.931489","lng":"141.128480"},{"town":"赤荻","lat":"38.947564","lng":"141.091209"},{"town":"字相去","lat":"38.923678","lng":"141.139166"},{"town":"字宇南","lat":"38.927064","lng":"141.143248"},{"town":"字柄貝","lat":"38.925084","lng":"141.141862"},{"town":"字北十軒街","lat":"38.933627","lng":"141.141459"},{"town":"字北ほうりょう","lat":"38.931698","lng":"141.144976"},{"town":"字久保","lat":"38.933537","lng":"141.147420"},{"town":"字桜街","lat":"38.933095","lng":"141.140078"},{"town":"字沢","lat":"38.911005","lng":"141.145425"},{"town":"字散田","lat":"38.926652","lng":"141.144434"},{"town":"字下大槻街","lat":"38.932547","lng":"141.139792"},{"town":"字吸川街","lat":"38.928847","lng":"141.139850"},{"town":"字台町","lat":"38.918178","lng":"141.128374"},{"town":"字反町","lat":"38.926248","lng":"141.139255"},{"town":"字釣山","lat":"38.923059","lng":"141.128795"},{"town":"字鳴神","lat":"38.929004","lng":"141.143654"},{"town":"字新山","lat":"38.923011","lng":"141.136085"},{"town":"字西沢","lat":"38.922013","lng":"141.137766"},{"town":"字二本木","lat":"38.927923","lng":"141.142482"},{"town":"字沼田","lat":"38.928767","lng":"141.146048"},{"town":"字機織山","lat":"38.917846","lng":"141.137419"},{"town":"字東花王町","lat":"38.935094","lng":"141.139286"},{"town":"旭町","lat":"38.919748","lng":"141.133791"},{"town":"字広街","lat":"38.924419","lng":"141.131282"},{"town":"字樋渡","lat":"38.930535","lng":"141.146807"},{"town":"字深町","lat":"38.925895","lng":"141.138380"},{"town":"字南十軒街","lat":"38.932192","lng":"141.141443"},{"town":"字南ほうりょう","lat":"38.929833","lng":"141.143226"},{"town":"字柳町","lat":"38.927147","lng":"141.140774"},{"town":"字要害","lat":"38.934778","lng":"141.143105"},{"town":"石畑","lat":"38.937115","lng":"141.134944"},{"town":"磐井町","lat":"38.934662","lng":"141.134578"},{"town":"駅前","lat":"38.925328","lng":"141.136604"},{"town":"大手町","lat":"38.929429","lng":"141.134557"},{"town":"大町","lat":"38.928766","lng":"141.136491"},{"town":"上大槻街","lat":"38.928782","lng":"141.138057"},{"town":"上日照","lat":"38.939527","lng":"141.134675"},{"town":"川崎町薄衣","lat":"38.894741","lng":"141.289886"},{"town":"川崎町門崎","lat":"38.925543","lng":"141.256540"},{"town":"川辺","lat":"38.969129","lng":"141.141008"},{"town":"厳美町","lat":"38.982390","lng":"140.889024"},{"town":"五十人町","lat":"38.930522","lng":"141.141742"},{"town":"狐禅寺","lat":"38.934393","lng":"141.199020"},{"town":"五代町","lat":"38.935983","lng":"141.131807"},{"town":"寿町","lat":"38.932039","lng":"141.123080"},{"town":"幸町","lat":"38.930161","lng":"141.123046"},{"town":"桜木町","lat":"38.934356","lng":"141.137385"},{"town":"三関","lat":"38.923624","lng":"141.148364"},{"town":"地主町","lat":"38.932105","lng":"141.134339"},{"town":"城内","lat":"38.926984","lng":"141.130277"},{"town":"上坊","lat":"38.942486","lng":"141.133970"},{"town":"新大町","lat":"38.924856","lng":"141.134573"},{"town":"新町","lat":"38.955713","lng":"141.129175"},{"town":"末広一丁目","lat":"38.927235","lng":"141.125336"},{"town":"末広二丁目","lat":"38.926377","lng":"141.120590"},{"town":"関が丘","lat":"38.917934","lng":"141.145132"},{"town":"千厩町磐清水","lat":"38.940777","lng":"141.318575"},{"town":"千厩町奥玉","lat":"38.959032","lng":"141.389800"},{"town":"千厩町清田","lat":"38.928817","lng":"141.381207"},{"town":"千厩町小梨","lat":"38.894206","lng":"141.386745"},{"town":"千厩町千厩","lat":"38.919739","lng":"141.344747"},{"town":"大東町大原","lat":"39.045686","lng":"141.439002"},{"town":"大東町沖田","lat":"39.048676","lng":"141.335018"},{"town":"大東町猿沢","lat":"39.049524","lng":"141.290620"},{"town":"大東町渋民","lat":"39.020871","lng":"141.343766"},{"town":"大東町摺沢","lat":"38.982495","lng":"141.331584"},{"town":"大東町曽慶","lat":"38.989169","lng":"141.391264"},{"town":"大東町鳥海","lat":"39.091885","lng":"141.338638"},{"town":"大東町中川","lat":"39.099921","lng":"141.394598"},{"town":"台町","lat":"38.917755","lng":"141.130647"},{"town":"高崎町","lat":"38.922540","lng":"141.130864"},{"town":"滝沢","lat":"38.906984","lng":"141.184711"},{"town":"竹山町","lat":"38.935514","lng":"141.126513"},{"town":"田村町","lat":"38.929959","lng":"141.131940"},{"town":"中央町一丁目","lat":"38.933778","lng":"141.130006"},{"town":"中央町二丁目","lat":"38.936165","lng":"141.129222"},{"town":"千代田町","lat":"38.913647","lng":"141.132542"},{"town":"銅谷町","lat":"38.932695","lng":"141.125425"},{"town":"中里","lat":"38.942815","lng":"141.146764"},{"town":"萩荘","lat":"38.911182","lng":"141.032568"},{"town":"八幡町","lat":"38.925177","lng":"141.132760"},{"town":"花泉町老松","lat":"38.828568","lng":"141.207892"},{"town":"花泉町金沢","lat":"38.866305","lng":"141.190108"},{"town":"花泉町永井","lat":"38.776440","lng":"141.226980"},{"town":"花泉町花泉","lat":"38.835731","lng":"141.151914"},{"town":"花泉町日形","lat":"38.831146","lng":"141.241910"},{"town":"花泉町油島","lat":"38.803706","lng":"141.162213"},{"town":"花泉町涌津","lat":"38.805404","lng":"141.202307"},{"town":"東五代","lat":"38.941697","lng":"141.131522"},{"town":"東地主町","lat":"38.931237","lng":"141.138610"},{"town":"東台","lat":"38.920281","lng":"141.161006"},{"town":"東山町田河津","lat":"39.032299","lng":"141.235730"},{"town":"東山町長坂","lat":"38.990593","lng":"141.261091"},{"town":"東山町松川","lat":"38.962426","lng":"141.255738"},{"town":"藤沢町大籠","lat":"38.800232","lng":"141.405908"},{"town":"藤沢町黄海","lat":"38.830865","lng":"141.292084"},{"town":"藤沢町砂子田","lat":"38.886875","lng":"141.356536"},{"town":"藤沢町徳田","lat":"38.867421","lng":"141.372789"},{"town":"藤沢町新沼","lat":"38.879519","lng":"141.342928"},{"town":"藤沢町西口","lat":"38.867255","lng":"141.314485"},{"town":"藤沢町藤沢","lat":"38.838733","lng":"141.347170"},{"town":"藤沢町保呂羽","lat":"38.845516","lng":"141.385268"},{"town":"藤沢町増沢","lat":"38.888804","lng":"141.327450"},{"town":"舞川","lat":"38.965234","lng":"141.187432"},{"town":"真柴","lat":"38.898790","lng":"141.135188"},{"town":"町浦","lat":"38.944399","lng":"141.132425"},{"town":"南新町","lat":"38.923706","lng":"141.135725"},{"town":"南町","lat":"38.915562","lng":"141.131200"},{"town":"宮坂町","lat":"38.921210","lng":"141.132526"},{"town":"宮下町","lat":"38.940851","lng":"141.127734"},{"town":"宮前町","lat":"38.938010","lng":"141.128168"},{"town":"室根町折壁","lat":"38.943683","lng":"141.469743"},{"town":"室根町折壁一丁目","lat":"38.937763","lng":"141.447371"},{"town":"室根町折壁二丁目","lat":"38.938146","lng":"141.450311"},{"town":"室根町津谷川","lat":"38.849312","lng":"141.431355"},{"town":"室根町矢越","lat":"38.912280","lng":"141.424479"},{"town":"弥栄","lat":"38.892340","lng":"141.238495"},{"town":"山目","lat":"38.938181","lng":"141.118392"},{"town":"山目町一丁目","lat":"38.944065","lng":"141.129255"},{"town":"山目町二丁目","lat":"38.947080","lng":"141.130268"},{"town":"山目町三丁目","lat":"38.950780","lng":"141.131174"},{"town":"豊町","lat":"38.931228","lng":"141.141746"},{"town":"蘭梅町","lat":"38.943620","lng":"141.126646"}]