[{"town":"小友町","lat":"38.997881","lng":"141.693076"},{"town":"気仙町","lat":"38.998348","lng":"141.596265"},{"town":"高田町","lat":"39.030175","lng":"141.644633"},{"town":"竹駒町","lat":"39.051204","lng":"141.622624"},{"town":"矢作町","lat":"39.053374","lng":"141.525767"},{"town":"横田町","lat":"39.080528","lng":"141.581512"},{"town":"米崎町","lat":"39.033749","lng":"141.670707"},{"town":"広田町","lat":"38.961794","lng":"141.705681"}]