[{"town":"赤池町","lat":"34.059673","lng":"131.011382"},{"town":"垢田町一丁目","lat":"33.993498","lng":"130.923942"},{"town":"垢田町二丁目","lat":"33.990963","lng":"130.925981"},{"town":"赤間町","lat":"33.959339","lng":"130.943753"},{"town":"秋根上町一丁目","lat":"34.012436","lng":"130.959028"},{"town":"秋根上町二丁目","lat":"34.010338","lng":"130.958720"},{"town":"秋根上町三丁目","lat":"34.007583","lng":"130.960032"},{"town":"秋根北町","lat":"34.014120","lng":"130.952190"},{"town":"秋根新町","lat":"34.011829","lng":"130.948328"},{"town":"秋根西町一丁目","lat":"34.009121","lng":"130.947528"},{"town":"秋根西町二丁目","lat":"34.007006","lng":"130.945444"},{"town":"秋根東町","lat":"34.010726","lng":"130.954617"},{"town":"秋根本町一丁目","lat":"34.010348","lng":"130.950399"},{"town":"秋根本町二丁目","lat":"34.010351","lng":"130.952473"},{"town":"秋根南町一丁目","lat":"34.007136","lng":"130.950210"},{"town":"秋根南町二丁目","lat":"34.007376","lng":"130.954458"},{"town":"阿弥陀寺町","lat":"33.959369","lng":"130.948383"},{"town":"綾羅木新町一丁目","lat":"34.009377","lng":"130.921381"},{"town":"綾羅木新町二丁目","lat":"34.011602","lng":"130.918222"},{"town":"綾羅木新町三丁目","lat":"34.011556","lng":"130.922713"},{"town":"綾羅木新町四丁目","lat":"34.010483","lng":"130.924301"},{"town":"綾羅木本町一丁目","lat":"34.004838","lng":"130.927386"},{"town":"綾羅木本町二丁目","lat":"34.002997","lng":"130.926177"},{"town":"綾羅木本町三丁目","lat":"34.001634","lng":"130.924290"},{"town":"綾羅木本町四丁目","lat":"34.004679","lng":"130.922764"},{"town":"綾羅木本町五丁目","lat":"34.006561","lng":"130.922983"},{"town":"綾羅木本町六丁目","lat":"34.008213","lng":"130.919589"},{"town":"綾羅木本町七丁目","lat":"34.006453","lng":"130.916548"},{"town":"綾羅木本町八丁目","lat":"34.004709","lng":"130.919185"},{"town":"綾羅木本町九丁目","lat":"34.003505","lng":"130.921979"},{"town":"綾羅木南町一丁目","lat":"34.001395","lng":"130.921145"},{"town":"綾羅木南町二丁目","lat":"34.002768","lng":"130.916587"},{"town":"綾羅木南町三丁目","lat":"34.002172","lng":"130.911445"},{"town":"あるかぽーと","lat":"33.953490","lng":"130.941213"},{"town":"生野町一丁目","lat":"33.981483","lng":"130.935688"},{"town":"生野町二丁目","lat":"33.984441","lng":"130.935554"},{"town":"伊倉新町一丁目","lat":"34.006342","lng":"130.940025"},{"town":"伊倉新町二丁目","lat":"34.006985","lng":"130.938766"},{"town":"伊倉新町三丁目","lat":"34.006416","lng":"130.932925"},{"town":"伊倉新町四丁目","lat":"34.005232","lng":"130.933922"},{"town":"伊倉新町五丁目","lat":"34.005044","lng":"130.931204"},{"town":"伊倉町一丁目","lat":"34.002952","lng":"130.929326"},{"town":"伊倉町二丁目","lat":"34.005030","lng":"130.929413"},{"town":"伊倉町三丁目","lat":"34.001881","lng":"130.933398"},{"town":"伊倉東町","lat":"34.005495","lng":"130.943731"},{"town":"伊倉本町","lat":"34.003420","lng":"130.935680"},{"town":"伊崎町一丁目","lat":"33.954749","lng":"130.917885"},{"town":"伊崎町二丁目","lat":"33.956505","lng":"130.910761"},{"town":"石神町","lat":"33.973860","lng":"130.938465"},{"town":"一の宮卸本町","lat":"33.989077","lng":"130.948630"},{"town":"一の宮学園町","lat":"33.999491","lng":"130.947946"},{"town":"一の宮住吉一丁目","lat":"34.002644","lng":"130.957160"},{"town":"一の宮住吉二丁目","lat":"33.997330","lng":"130.955803"},{"town":"一の宮住吉三丁目","lat":"33.993510","lng":"130.953638"},{"town":"一の宮町一丁目","lat":"34.003754","lng":"130.946637"},{"town":"一の宮町二丁目","lat":"34.002829","lng":"130.949868"},{"town":"一の宮町三丁目","lat":"33.997804","lng":"130.951101"},{"town":"一の宮町四丁目","lat":"33.994066","lng":"130.951449"},{"town":"一の宮町五丁目","lat":"33.993032","lng":"130.949178"},{"town":"一の宮東町一丁目","lat":"34.003740","lng":"130.961453"},{"town":"一の宮東町二丁目","lat":"33.999831","lng":"130.960930"},{"town":"一の宮東町三丁目","lat":"34.002647","lng":"130.964999"},{"town":"一の宮本町一丁目","lat":"34.004034","lng":"130.952279"},{"town":"一の宮本町二丁目","lat":"34.000633","lng":"130.953905"},{"town":"今浦町","lat":"33.954646","lng":"130.922198"},{"town":"入江町","lat":"33.954030","lng":"130.935230"},{"town":"上条町","lat":"33.955684","lng":"130.923783"},{"town":"後田町一丁目","lat":"33.969575","lng":"130.932624"},{"town":"後田町二丁目","lat":"33.971360","lng":"130.932157"},{"town":"後田町三丁目","lat":"33.972702","lng":"130.934830"},{"town":"後田町五丁目","lat":"33.973992","lng":"130.932373"},{"town":"王喜宇津井一丁目","lat":"34.064031","lng":"131.043072"},{"town":"王喜宇津井二丁目","lat":"34.063691","lng":"131.046785"},{"town":"王喜宇津井三丁目","lat":"34.061799","lng":"131.050048"},{"town":"王喜本町一丁目","lat":"34.061938","lng":"131.057725"},{"town":"王喜本町二丁目","lat":"34.065099","lng":"131.055625"},{"town":"王喜本町三丁目","lat":"34.066202","lng":"131.052103"},{"town":"王喜本町四丁目","lat":"34.069560","lng":"131.048820"},{"town":"王喜本町五丁目","lat":"34.065474","lng":"131.048669"},{"town":"王喜本町六丁目","lat":"34.061005","lng":"131.054229"},{"town":"王司上町一丁目","lat":"34.044471","lng":"131.013054"},{"town":"王司上町二丁目","lat":"34.040717","lng":"131.010393"},{"town":"王司上町三丁目","lat":"34.036878","lng":"131.009562"},{"town":"王司上町四丁目","lat":"34.035160","lng":"131.010342"},{"town":"王司上町五丁目","lat":"34.041492","lng":"131.014069"},{"town":"王司川端一丁目","lat":"34.047879","lng":"131.018001"},{"town":"王司川端二丁目","lat":"34.047692","lng":"131.020119"},{"town":"王司川端三丁目","lat":"34.046967","lng":"131.022401"},{"town":"王司神田一丁目","lat":"34.047157","lng":"131.015065"},{"town":"王司神田二丁目","lat":"34.047828","lng":"131.012172"},{"town":"王司神田三丁目","lat":"34.049928","lng":"131.009662"},{"town":"王司神田四丁目","lat":"34.053881","lng":"131.008664"},{"town":"王司神田五丁目","lat":"34.053681","lng":"131.012544"},{"town":"王司神田六丁目","lat":"34.048938","lng":"131.017059"},{"town":"王司本町一丁目","lat":"34.042621","lng":"131.017259"},{"town":"王司本町二丁目","lat":"34.041889","lng":"131.019438"},{"town":"王司本町三丁目","lat":"34.037408","lng":"131.016962"},{"town":"王司本町四丁目","lat":"34.039017","lng":"131.015034"},{"town":"王司本町五丁目","lat":"34.035776","lng":"131.012641"},{"town":"王司本町六丁目","lat":"34.034937","lng":"131.014445"},{"town":"王司南町","lat":"34.032505","lng":"131.012571"},{"town":"大字垢田","lat":"33.996817","lng":"130.913250"},{"town":"大字秋根","lat":"34.011666","lng":"130.963179"},{"town":"大字綾羅木","lat":"34.013146","lng":"130.930164"},{"town":"大字有冨","lat":"34.018245","lng":"130.945502"},{"town":"大字伊倉","lat":"34.001163","lng":"130.941030"},{"town":"大字石原","lat":"34.020677","lng":"130.952103"},{"town":"大字井田","lat":"34.056287","lng":"130.971907"},{"town":"大字植田","lat":"34.103908","lng":"130.981743"},{"town":"大字宇津井","lat":"34.070321","lng":"131.068600"},{"town":"大字内日上","lat":"34.089190","lng":"130.948705"},{"town":"大字内日下","lat":"34.102750","lng":"130.967504"},{"town":"大字宇部","lat":"34.040410","lng":"131.005774"},{"town":"大字小月町","lat":"34.087323","lng":"131.035756"},{"town":"大字小野","lat":"34.044049","lng":"130.956432"},{"town":"大字員光","lat":"34.043077","lng":"130.992189"},{"town":"大字形山","lat":"34.019507","lng":"130.960422"},{"town":"大字蒲生野","lat":"34.042700","lng":"130.941012"},{"town":"大字清末","lat":"34.073196","lng":"131.018278"},{"town":"大字楠乃","lat":"33.992229","lng":"130.961852"},{"town":"大字才川","lat":"34.030964","lng":"130.997334"},{"town":"大字勝谷","lat":"34.016531","lng":"130.979955"},{"town":"大字高畑","lat":"33.986530","lng":"130.968113"},{"town":"大字田倉","lat":"34.021546","lng":"130.971838"},{"town":"大字冨任","lat":"34.019385","lng":"130.931107"},{"town":"大字豊浦村","lat":"33.995586","lng":"130.977073"},{"town":"大字永田郷","lat":"34.088144","lng":"130.896624"},{"town":"大字延行","lat":"34.013435","lng":"130.939793"},{"town":"大字彦島","lat":"33.933414","lng":"130.929827"},{"town":"大字福江","lat":"34.048143","lng":"130.924378"},{"town":"大字藤ケ谷","lat":"33.982615","lng":"130.959557"},{"town":"大字蓋井島","lat":"34.103645","lng":"130.786664"},{"town":"大字前田","lat":"33.976876","lng":"130.971041"},{"town":"大字松小田","lat":"34.024734","lng":"130.991319"},{"town":"大字松屋","lat":"34.059119","lng":"131.071199"},{"town":"大字椋野","lat":"33.974734","lng":"130.957802"},{"town":"大字六連島","lat":"33.975601","lng":"130.863248"},{"town":"大字安岡","lat":"34.035868","lng":"130.930696"},{"town":"大字山田","lat":"34.059711","lng":"130.993167"},{"town":"大字横野","lat":"34.035980","lng":"130.916415"},{"town":"大字吉田","lat":"34.088898","lng":"131.063247"},{"town":"大字吉田地方","lat":"34.092837","lng":"131.088183"},{"town":"大字吉見上","lat":"34.088929","lng":"130.920117"},{"town":"大字吉見下","lat":"34.066345","lng":"130.921249"},{"town":"大字吉母","lat":"34.100339","lng":"130.881069"},{"town":"小月市原町","lat":"34.076297","lng":"131.032053"},{"town":"小月駅前一丁目","lat":"34.068875","lng":"131.033011"},{"town":"小月京泊","lat":"34.070465","lng":"131.045542"},{"town":"小月公園町","lat":"34.072466","lng":"131.031601"},{"town":"小月小島一丁目","lat":"34.066192","lng":"131.038158"},{"town":"小月小島二丁目","lat":"34.066586","lng":"131.042312"},{"town":"小月幸町","lat":"34.077841","lng":"131.034953"},{"town":"小月杉迫一丁目","lat":"34.072764","lng":"131.029436"},{"town":"小月杉迫二丁目","lat":"34.072123","lng":"131.026769"},{"town":"小月杉迫三丁目","lat":"34.076094","lng":"131.027097"},{"town":"小月高雄町","lat":"34.073858","lng":"131.043282"},{"town":"小月茶屋一丁目","lat":"34.069985","lng":"131.032006"},{"town":"小月茶屋二丁目","lat":"34.067437","lng":"131.029659"},{"town":"小月茶屋三丁目","lat":"34.069905","lng":"131.026196"},{"town":"小月西の台","lat":"34.069285","lng":"131.043223"},{"town":"小月本町一丁目","lat":"34.072089","lng":"131.033627"},{"town":"小月本町二丁目","lat":"34.072239","lng":"131.036191"},{"town":"小月南町","lat":"34.060246","lng":"131.037634"},{"town":"小月宮の町","lat":"34.073291","lng":"131.039566"},{"town":"卸新町","lat":"33.985490","lng":"130.949681"},{"town":"梶栗町一丁目","lat":"34.016184","lng":"130.918151"},{"town":"梶栗町二丁目","lat":"34.014245","lng":"130.918337"},{"town":"梶栗町三丁目","lat":"34.015609","lng":"130.920769"},{"town":"梶栗町五丁目","lat":"34.015938","lng":"130.925797"},{"town":"春日町","lat":"33.959495","lng":"130.929237"},{"town":"員光町一丁目","lat":"34.052659","lng":"131.003370"},{"town":"員光町二丁目","lat":"34.055283","lng":"131.003707"},{"town":"員光町三丁目","lat":"34.052322","lng":"130.997972"},{"town":"員光町四丁目","lat":"34.049530","lng":"131.000620"},{"town":"形山町","lat":"34.016068","lng":"130.958643"},{"town":"形山みどり町","lat":"34.015890","lng":"130.955159"},{"town":"上新地町一丁目","lat":"33.958789","lng":"130.921148"},{"town":"上新地町二丁目","lat":"33.961977","lng":"130.920872"},{"town":"上新地町三丁目","lat":"33.959164","lng":"130.919094"},{"town":"上新地町四丁目","lat":"33.956615","lng":"130.915930"},{"town":"上新地町五丁目","lat":"33.958602","lng":"130.916304"},{"town":"上田中町一丁目","lat":"33.966676","lng":"130.938294"},{"town":"上田中町二丁目","lat":"33.963982","lng":"130.940283"},{"town":"上田中町三丁目","lat":"33.960897","lng":"130.939511"},{"town":"上田中町四丁目","lat":"33.963391","lng":"130.937114"},{"town":"上田中町五丁目","lat":"33.961695","lng":"130.935722"},{"town":"上田中町六丁目","lat":"33.959904","lng":"130.935187"},{"town":"上田中町七丁目","lat":"33.961476","lng":"130.932350"},{"town":"上田中町八丁目","lat":"33.963590","lng":"130.934502"},{"town":"亀浜町","lat":"34.032161","lng":"131.016094"},{"town":"唐戸町","lat":"33.957118","lng":"130.943434"},{"town":"川中本町","lat":"34.000331","lng":"130.930689"},{"town":"川中本町一丁目","lat":"33.998170","lng":"130.933332"},{"town":"川中本町二丁目","lat":"34.001764","lng":"130.929096"},{"town":"川中豊町一丁目","lat":"33.999380","lng":"130.936920"},{"town":"川中豊町二丁目","lat":"33.997169","lng":"130.935723"},{"town":"川中豊町三丁目","lat":"33.997276","lng":"130.938969"},{"town":"川中豊町四丁目","lat":"33.998291","lng":"130.940716"},{"town":"川中豊町五丁目","lat":"33.995455","lng":"130.938959"},{"town":"川中豊町六丁目","lat":"33.995415","lng":"130.935638"},{"town":"川中豊町七丁目","lat":"33.993673","lng":"130.937536"},{"town":"関西町","lat":"33.957901","lng":"130.927668"},{"town":"関西本町","lat":"33.956562","lng":"130.926363"},{"town":"神田町一丁目","lat":"33.964396","lng":"130.923822"},{"town":"神田町二丁目","lat":"33.962342","lng":"130.925441"},{"town":"観音崎町","lat":"33.952984","lng":"130.938233"},{"town":"菊川町大字上大野","lat":"34.111851","lng":"131.050390"},{"town":"菊川町大字上岡枝","lat":"34.158269","lng":"131.020741"},{"town":"菊川町大字上田部","lat":"34.102438","lng":"131.023622"},{"town":"菊川町大字上保木","lat":"34.132077","lng":"131.047478"},{"town":"菊川町大字貴飯","lat":"34.160489","lng":"130.998257"},{"town":"菊川町大字轡井","lat":"34.118687","lng":"131.081307"},{"town":"菊川町大字久野","lat":"34.149458","lng":"130.967415"},{"town":"菊川町大字下大野","lat":"34.097025","lng":"131.051483"},{"town":"菊川町大字下岡枝","lat":"34.133573","lng":"131.036055"},{"town":"菊川町大字下保木","lat":"34.116826","lng":"131.060799"},{"town":"菊川町大字田部","lat":"34.108873","lng":"131.038406"},{"town":"菊川町大字七見","lat":"34.109898","lng":"131.006642"},{"town":"菊川町大字楢崎","lat":"34.137213","lng":"130.995167"},{"town":"菊川町大字西中山","lat":"34.152040","lng":"131.036560"},{"town":"菊川町大字日新","lat":"34.126773","lng":"130.981489"},{"town":"菊川町大字東中山","lat":"34.146178","lng":"131.058509"},{"town":"菊川町大字道市","lat":"34.133282","lng":"131.076197"},{"town":"菊川町大字樅ノ木","lat":"34.143677","lng":"131.076441"},{"town":"菊川町大字吉賀","lat":"34.129854","lng":"131.015007"},{"town":"貴船町一丁目","lat":"33.964134","lng":"130.944051"},{"town":"貴船町二丁目","lat":"33.966343","lng":"130.944270"},{"town":"貴船町三丁目","lat":"33.969343","lng":"130.943677"},{"town":"貴船町四丁目","lat":"33.971135","lng":"130.939581"},{"town":"清末鞍馬一丁目","lat":"34.062079","lng":"131.023878"},{"town":"清末鞍馬二丁目","lat":"34.061769","lng":"131.026390"},{"town":"清末鞍馬三丁目","lat":"34.064776","lng":"131.027800"},{"town":"清末鞍馬四丁目","lat":"34.065446","lng":"131.025651"},{"town":"清末鞍馬五丁目","lat":"34.068402","lng":"131.023027"},{"town":"清末五毛一丁目","lat":"34.055208","lng":"131.021832"},{"town":"清末陣屋","lat":"34.066396","lng":"131.021315"},{"town":"清末千房一丁目","lat":"34.055280","lng":"131.016000"},{"town":"清末千房二丁目","lat":"34.053299","lng":"131.018116"},{"town":"清末千房三丁目","lat":"34.052316","lng":"131.020646"},{"town":"清末大門","lat":"34.061714","lng":"131.015663"},{"town":"清末中町一丁目","lat":"34.058312","lng":"131.024186"},{"town":"清末中町二丁目","lat":"34.057357","lng":"131.025696"},{"town":"清末中町三丁目","lat":"34.056173","lng":"131.027437"},{"town":"清末西町一丁目","lat":"34.062830","lng":"131.019704"},{"town":"清末西町二丁目","lat":"34.060278","lng":"131.019627"},{"town":"清末西町三丁目","lat":"34.057267","lng":"131.020639"},{"town":"清末東町一丁目","lat":"34.051459","lng":"131.023568"},{"town":"清末東町二丁目","lat":"34.050213","lng":"131.028094"},{"town":"清末東町三丁目","lat":"34.052151","lng":"131.030666"},{"town":"清末東町四丁目","lat":"34.055408","lng":"131.029794"},{"town":"清末東町五丁目","lat":"34.054782","lng":"131.033454"},{"town":"清末東町六丁目","lat":"34.057886","lng":"131.033983"},{"town":"清末本町","lat":"34.059595","lng":"131.022475"},{"town":"楠乃一丁目","lat":"33.990536","lng":"130.953311"},{"town":"楠乃二丁目","lat":"33.996454","lng":"130.959546"},{"town":"楠乃三丁目","lat":"33.998355","lng":"130.970318"},{"town":"楠乃四丁目","lat":"34.000858","lng":"130.967258"},{"town":"楠乃五丁目","lat":"34.000187","lng":"130.972019"},{"town":"熊野町一丁目","lat":"33.989914","lng":"130.942511"},{"town":"熊野町二丁目","lat":"33.992851","lng":"130.943803"},{"town":"熊野町三丁目","lat":"33.992893","lng":"130.946269"},{"town":"熊野西町","lat":"33.995416","lng":"130.942971"},{"town":"工領開作","lat":"34.041596","lng":"131.064788"},{"town":"向洋町一丁目","lat":"33.965564","lng":"130.932636"},{"town":"向洋町二丁目","lat":"33.961769","lng":"130.930774"},{"town":"向洋町三丁目","lat":"33.962413","lng":"130.928877"},{"town":"木屋川一丁目","lat":"34.076958","lng":"131.070224"},{"town":"木屋川二丁目","lat":"34.079456","lng":"131.071493"},{"town":"木屋川本町一丁目","lat":"34.074225","lng":"131.066176"},{"town":"木屋川本町二丁目","lat":"34.076653","lng":"131.065141"},{"town":"木屋川本町三丁目","lat":"34.077216","lng":"131.060707"},{"town":"木屋川本町四丁目","lat":"34.077487","lng":"131.057211"},{"town":"木屋川本町五丁目","lat":"34.076776","lng":"131.054097"},{"town":"木屋川南町一丁目","lat":"34.072207","lng":"131.063313"},{"town":"木屋川南町二丁目","lat":"34.073049","lng":"131.055403"},{"town":"木屋川南町三丁目","lat":"34.069373","lng":"131.058849"},{"town":"木屋川南町四丁目","lat":"34.070233","lng":"131.053117"},{"town":"金比羅町","lat":"33.968884","lng":"130.916361"},{"town":"幸町","lat":"33.961889","lng":"130.943550"},{"town":"栄町","lat":"33.965799","lng":"130.928728"},{"town":"桜山町","lat":"33.960753","lng":"130.922000"},{"town":"笹山町","lat":"33.953424","lng":"130.927526"},{"town":"汐入町","lat":"33.973522","lng":"130.916926"},{"town":"勝谷新町一丁目","lat":"34.003261","lng":"130.969168"},{"town":"勝谷新町二丁目","lat":"34.006225","lng":"130.969787"},{"town":"勝谷新町三丁目","lat":"34.006019","lng":"130.971840"},{"town":"勝谷新町四丁目","lat":"34.005686","lng":"130.974609"},{"town":"白崎一丁目","lat":"34.058803","lng":"131.041264"},{"town":"白崎二丁目","lat":"34.056142","lng":"131.045096"},{"town":"白崎三丁目","lat":"34.059577","lng":"131.048305"},{"town":"白崎四丁目","lat":"34.055779","lng":"131.050622"},{"town":"新垢田西町一丁目","lat":"33.987735","lng":"130.913980"},{"town":"新垢田西町三丁目","lat":"33.987192","lng":"130.912764"},{"town":"新垢田西町四丁目","lat":"33.989153","lng":"130.910771"},{"town":"新垢田東町一丁目","lat":"33.988803","lng":"130.915807"},{"town":"新地町","lat":"33.955774","lng":"130.921246"},{"town":"新地西町","lat":"33.956729","lng":"130.919970"},{"town":"新椋野一丁目","lat":"33.983395","lng":"130.947279"},{"town":"新椋野二丁目","lat":"33.982154","lng":"130.944993"},{"town":"新椋野三丁目","lat":"33.984507","lng":"130.944244"},{"town":"筋ケ浜町","lat":"33.961464","lng":"130.913001"},{"town":"筋川町","lat":"33.965446","lng":"130.915721"},{"town":"大学町一丁目","lat":"33.986274","lng":"130.933312"},{"town":"大学町二丁目","lat":"33.988336","lng":"130.933943"},{"town":"大学町三丁目","lat":"33.990399","lng":"130.936230"},{"town":"大学町四丁目","lat":"33.992098","lng":"130.937309"},{"town":"大学町五丁目","lat":"33.987306","lng":"130.937739"},{"town":"大平町","lat":"33.963947","lng":"130.918878"},{"town":"宝町","lat":"33.982176","lng":"130.939673"},{"town":"田倉御殿町一丁目","lat":"34.015727","lng":"130.974004"},{"town":"田倉御殿町二丁目","lat":"34.015638","lng":"130.975167"},{"town":"竹崎町一丁目","lat":"33.952445","lng":"130.925817"},{"town":"竹崎町二丁目","lat":"33.952536","lng":"130.924178"},{"town":"竹崎町三丁目","lat":"33.952424","lng":"130.921502"},{"town":"竹崎町四丁目","lat":"33.949555","lng":"130.924361"},{"town":"田中町","lat":"33.959754","lng":"130.941045"},{"town":"壇之浦町","lat":"33.962798","lng":"130.953519"},{"town":"千鳥ケ丘町","lat":"34.032695","lng":"131.006576"},{"town":"千鳥浜町","lat":"34.036162","lng":"131.020160"},{"town":"中央町","lat":"33.961432","lng":"130.928602"},{"town":"長府安養寺一丁目","lat":"34.007805","lng":"130.982660"},{"town":"長府安養寺二丁目","lat":"34.002940","lng":"130.982313"},{"town":"長府安養寺三丁目","lat":"34.001117","lng":"130.982605"},{"town":"長府安養寺四丁目","lat":"34.003531","lng":"130.984599"},{"town":"長府印内町","lat":"34.004839","lng":"130.992081"},{"town":"長府江下町","lat":"34.012376","lng":"130.996005"},{"town":"長府扇町","lat":"34.018592","lng":"131.013276"},{"town":"長府逢坂町","lat":"33.998544","lng":"130.979805"},{"town":"長府金屋町","lat":"34.002332","lng":"130.989994"},{"town":"長府金屋浜町","lat":"34.001945","lng":"130.991280"},{"town":"長府亀の甲一丁目","lat":"34.001120","lng":"130.987653"},{"town":"長府亀の甲二丁目","lat":"34.002753","lng":"130.987417"},{"town":"長府川端一丁目","lat":"33.995686","lng":"130.981889"},{"town":"長府川端二丁目","lat":"33.993940","lng":"130.983815"},{"town":"長府黒門町","lat":"33.984613","lng":"130.984100"},{"town":"長府黒門東町","lat":"33.989998","lng":"130.989613"},{"town":"長府黒門南町","lat":"33.986133","lng":"130.986815"},{"town":"長府古城町","lat":"34.011045","lng":"130.992795"},{"town":"長府紺屋町","lat":"34.001666","lng":"130.986024"},{"town":"長府才川二丁目","lat":"34.024085","lng":"131.003613"},{"town":"長府侍町一丁目","lat":"33.994205","lng":"130.986756"},{"town":"長府侍町二丁目","lat":"33.995399","lng":"130.989680"},{"town":"長府四王司町","lat":"34.018754","lng":"130.985998"},{"town":"長府新四王司町","lat":"34.018854","lng":"130.983673"},{"town":"長府新松原町","lat":"33.992316","lng":"130.988805"},{"town":"長府惣社町","lat":"33.997194","lng":"130.985528"},{"town":"長府外浦町","lat":"33.987832","lng":"130.991804"},{"town":"長府高場町","lat":"33.978772","lng":"130.976913"},{"town":"長府珠の浦町","lat":"34.007502","lng":"130.978398"},{"town":"長府土居の内町","lat":"33.999194","lng":"130.989662"},{"town":"長府豊浦町","lat":"34.010314","lng":"130.989083"},{"town":"長府中尾町","lat":"34.009277","lng":"130.986403"},{"town":"長府中土居北町","lat":"34.007614","lng":"130.987849"},{"town":"長府中土居本町","lat":"34.006158","lng":"130.989871"},{"town":"長府中之町","lat":"34.000363","lng":"130.990061"},{"town":"長府中浜町","lat":"33.998228","lng":"130.989329"},{"town":"長府中六波町","lat":"34.012739","lng":"130.992212"},{"town":"長府野久留米町","lat":"33.990859","lng":"130.979734"},{"town":"長府羽衣町","lat":"33.989683","lng":"130.987105"},{"town":"長府羽衣南町","lat":"33.989244","lng":"130.985296"},{"town":"長府浜浦町","lat":"33.983308","lng":"130.979879"},{"town":"長府浜浦西町","lat":"33.986509","lng":"130.978416"},{"town":"長府浜浦南町","lat":"33.980383","lng":"130.977591"},{"town":"長府東侍町","lat":"33.994879","lng":"130.992249"},{"town":"長府日の出町","lat":"34.015127","lng":"130.993785"},{"town":"長府古江小路町","lat":"33.998250","lng":"130.985662"},{"town":"長府豊城町","lat":"34.014430","lng":"130.989947"},{"town":"長府前八幡町","lat":"34.007643","lng":"130.993414"},{"town":"長府松小田北町","lat":"34.022134","lng":"130.997916"},{"town":"長府松小田中町","lat":"34.019068","lng":"130.994330"},{"town":"長府松小田西町","lat":"34.017490","lng":"130.988973"},{"town":"長府松小田東町","lat":"34.019205","lng":"131.003140"},{"town":"長府松小田本町","lat":"34.017585","lng":"130.999499"},{"town":"長府松小田南町","lat":"34.016016","lng":"130.996408"},{"town":"長府松原町","lat":"33.993247","lng":"130.990134"},{"town":"長府満珠新町","lat":"34.012783","lng":"130.984180"},{"town":"長府満珠町","lat":"34.013787","lng":"130.988386"},{"town":"長府三島町","lat":"34.005674","lng":"130.985816"},{"town":"長府港町","lat":"34.006675","lng":"130.997714"},{"town":"長府南之町","lat":"33.997144","lng":"130.989286"},{"town":"長府宮崎町","lat":"33.991375","lng":"130.993487"},{"town":"長府宮の内町","lat":"33.999635","lng":"130.985730"},{"town":"長府向田町","lat":"33.981857","lng":"130.975537"},{"town":"長府八幡町","lat":"34.009341","lng":"130.993877"},{"town":"富任町四丁目","lat":"34.023438","lng":"130.919856"},{"town":"富任町五丁目","lat":"34.023510","lng":"130.924112"},{"town":"富任町六丁目","lat":"34.019646","lng":"130.923277"},{"town":"富任町七丁目","lat":"34.019613","lng":"130.926062"},{"town":"富任町八丁目","lat":"34.022440","lng":"130.928965"},{"town":"豊浦町大字厚母郷","lat":"34.110442","lng":"130.903197"},{"town":"豊浦町大字宇賀","lat":"34.217779","lng":"130.938231"},{"town":"豊浦町大字川棚","lat":"34.168090","lng":"130.957235"},{"town":"豊浦町大字黒井","lat":"34.119259","lng":"130.920681"},{"town":"豊浦町大字小串","lat":"34.176768","lng":"130.937634"},{"town":"豊浦町大字室津上","lat":"34.117468","lng":"130.880802"},{"town":"豊浦町大字室津下","lat":"34.132430","lng":"130.881898"},{"town":"豊浦町大字吉永","lat":"34.129701","lng":"130.925863"},{"town":"豊浦町大字涌田後地","lat":"34.148394","lng":"130.907792"},{"town":"豊浦町豊洋台一丁目","lat":"34.114926","lng":"130.910463"},{"town":"豊浦町豊洋台二丁目","lat":"34.115917","lng":"130.912924"},{"town":"豊浦町豊洋台三丁目","lat":"34.112322","lng":"130.913531"},{"town":"豊浦町豊洋台新町","lat":"34.118957","lng":"130.910983"},{"town":"豊田町大字阿座上","lat":"34.193085","lng":"131.056749"},{"town":"豊田町大字荒木","lat":"34.254291","lng":"131.047742"},{"town":"豊田町大字一ノ俣","lat":"34.283486","lng":"131.057620"},{"town":"豊田町大字稲見","lat":"34.246480","lng":"131.092779"},{"town":"豊田町大字稲光","lat":"34.182599","lng":"131.083458"},{"town":"豊田町大字今出","lat":"34.248732","lng":"131.149384"},{"town":"豊田町大字浮石","lat":"34.241202","lng":"131.049311"},{"town":"豊田町大字宇内","lat":"34.239545","lng":"131.076311"},{"town":"豊田町大字江良","lat":"34.180025","lng":"131.044040"},{"town":"豊田町大字大河内","lat":"34.225927","lng":"131.121628"},{"town":"豊田町大字城戸","lat":"34.156304","lng":"131.065395"},{"town":"豊田町大字金道","lat":"34.226804","lng":"131.068506"},{"town":"豊田町大字佐野","lat":"34.264336","lng":"131.046997"},{"town":"豊田町大字地吉","lat":"34.251560","lng":"131.118632"},{"town":"豊田町大字鷹子","lat":"34.206037","lng":"131.039230"},{"town":"豊田町大字高山","lat":"34.169470","lng":"131.073104"},{"town":"豊田町大字手洗","lat":"34.178894","lng":"131.066870"},{"town":"豊田町大字殿居","lat":"34.266252","lng":"131.029833"},{"town":"豊田町大字殿敷","lat":"34.193710","lng":"131.091911"},{"town":"豊田町大字中村","lat":"34.191704","lng":"131.071840"},{"town":"豊田町大字楢原","lat":"34.213060","lng":"131.089122"},{"town":"豊田町大字西市","lat":"34.202335","lng":"131.075424"},{"town":"豊田町大字西長野","lat":"34.171474","lng":"131.055081"},{"town":"豊田町大字庭田","lat":"34.201046","lng":"131.057897"},{"town":"豊田町大字萩原","lat":"34.159533","lng":"131.083488"},{"town":"豊田町大字東長野","lat":"34.168274","lng":"131.061996"},{"town":"豊田町大字日野","lat":"34.174688","lng":"131.081706"},{"town":"豊田町大字杢路子","lat":"34.216146","lng":"131.001653"},{"town":"豊田町大字八道","lat":"34.218344","lng":"131.059997"},{"town":"豊田町大字矢田","lat":"34.202244","lng":"131.070797"},{"town":"長崎新町","lat":"33.954962","lng":"130.926029"},{"town":"長崎中央町","lat":"33.956038","lng":"130.929242"},{"town":"長崎町一丁目","lat":"33.957821","lng":"130.923553"},{"town":"長崎本町","lat":"33.956778","lng":"130.924862"},{"town":"永田本町一丁目","lat":"34.072623","lng":"130.895829"},{"town":"永田本町二丁目","lat":"34.071183","lng":"130.893494"},{"town":"永田本町三丁目","lat":"34.075954","lng":"130.893709"},{"town":"永田本町四丁目","lat":"34.069514","lng":"130.890357"},{"town":"長門町","lat":"33.954039","lng":"130.925265"},{"town":"中之町","lat":"33.958166","lng":"130.945306"},{"town":"南部町","lat":"33.955763","lng":"130.940383"},{"town":"西入江町","lat":"33.953943","lng":"130.933709"},{"town":"西大坪町","lat":"33.962553","lng":"130.916647"},{"town":"西神田町","lat":"33.960129","lng":"130.923608"},{"town":"西観音町","lat":"34.047360","lng":"131.003055"},{"town":"乃木浜一丁目","lat":"34.044346","lng":"131.023924"},{"town":"乃木浜二丁目","lat":"34.041975","lng":"131.028728"},{"town":"乃木浜三丁目","lat":"34.039454","lng":"131.023920"},{"town":"幡生町一丁目","lat":"33.977615","lng":"130.939175"},{"town":"幡生町二丁目","lat":"33.977860","lng":"130.932850"},{"town":"岬之町","lat":"33.951571","lng":"130.935162"},{"town":"稗田北町","lat":"33.996452","lng":"130.931754"},{"town":"稗田町","lat":"33.994535","lng":"130.931114"},{"town":"稗田中町","lat":"33.995481","lng":"130.927827"},{"town":"稗田西町","lat":"33.999156","lng":"130.927424"},{"town":"稗田南町","lat":"33.991449","lng":"130.929655"},{"town":"東神田町","lat":"33.961011","lng":"130.926601"},{"town":"東観音町","lat":"34.047152","lng":"131.008571"},{"town":"東勝谷","lat":"34.001784","lng":"130.973070"},{"town":"東向山町","lat":"33.966114","lng":"130.927644"},{"town":"東大和町一丁目","lat":"33.945837","lng":"130.922330"},{"town":"東大和町二丁目","lat":"33.943214","lng":"130.921055"},{"town":"彦島海士郷町","lat":"33.951570","lng":"130.914974"},{"town":"彦島江の浦町一丁目","lat":"33.936144","lng":"130.914265"},{"town":"彦島江の浦町二丁目","lat":"33.933295","lng":"130.914231"},{"town":"彦島江の浦町三丁目","lat":"33.930396","lng":"130.915753"},{"town":"彦島江の浦町四丁目","lat":"33.934354","lng":"130.917923"},{"town":"彦島江の浦町五丁目","lat":"33.933025","lng":"130.920269"},{"town":"彦島江の浦町六丁目","lat":"33.934831","lng":"130.922147"},{"town":"彦島江の浦町七丁目","lat":"33.931310","lng":"130.924285"},{"town":"彦島江の浦町八丁目","lat":"33.930059","lng":"130.920713"},{"town":"彦島江の浦町九丁目","lat":"33.929168","lng":"130.916671"},{"town":"彦島老の山公園","lat":"33.947957","lng":"130.903536"},{"town":"彦島老町一丁目","lat":"33.949387","lng":"130.915073"},{"town":"彦島老町二丁目","lat":"33.949089","lng":"130.908758"},{"town":"彦島老町三丁目","lat":"33.945517","lng":"130.912647"},{"town":"彦島桜ケ丘町","lat":"33.921496","lng":"130.922829"},{"town":"彦島迫町一丁目","lat":"33.930208","lng":"130.903408"},{"town":"彦島迫町二丁目","lat":"33.935355","lng":"130.903022"},{"town":"彦島迫町三丁目","lat":"33.938109","lng":"130.900531"},{"town":"彦島迫町四丁目","lat":"33.940326","lng":"130.903214"},{"town":"彦島迫町五丁目","lat":"33.941420","lng":"130.896501"},{"town":"彦島迫町六丁目","lat":"33.947332","lng":"130.901631"},{"town":"彦島迫町七丁目","lat":"33.934877","lng":"130.897277"},{"town":"彦島塩浜町一丁目","lat":"33.922768","lng":"130.911973"},{"town":"彦島塩浜町二丁目","lat":"33.917859","lng":"130.907486"},{"town":"彦島塩浜町三丁目","lat":"33.917826","lng":"130.911571"},{"town":"彦島塩浜町四丁目","lat":"33.915709","lng":"130.904876"},{"town":"彦島杉田町一丁目","lat":"33.928162","lng":"130.922201"},{"town":"彦島杉田町二丁目","lat":"33.925937","lng":"130.921292"},{"town":"彦島角倉町一丁目","lat":"33.927082","lng":"130.915028"},{"town":"彦島角倉町二丁目","lat":"33.924470","lng":"130.914058"},{"town":"彦島角倉町三丁目","lat":"33.924539","lng":"130.917643"},{"town":"彦島角倉町四丁目","lat":"33.927658","lng":"130.917173"},{"town":"彦島竹ノ子島町","lat":"33.951386","lng":"130.877496"},{"town":"彦島田の首町一丁目","lat":"33.916413","lng":"130.917478"},{"town":"彦島田の首町二丁目","lat":"33.914938","lng":"130.913869"},{"town":"彦島弟子待町一丁目","lat":"33.927226","lng":"130.926045"},{"town":"彦島弟子待町二丁目","lat":"33.924642","lng":"130.924339"},{"town":"彦島弟子待町三丁目","lat":"33.918244","lng":"130.923546"},{"town":"彦島弟子待東町","lat":"33.928566","lng":"130.924307"},{"town":"彦島西山町一丁目","lat":"33.940857","lng":"130.888766"},{"town":"彦島西山町二丁目","lat":"33.946463","lng":"130.888186"},{"town":"彦島西山町三丁目","lat":"33.944975","lng":"130.881205"},{"town":"彦島西山町四丁目","lat":"33.948717","lng":"130.882124"},{"town":"彦島西山町五丁目","lat":"33.950825","lng":"130.884450"},{"town":"彦島福浦町一丁目","lat":"33.925996","lng":"130.904398"},{"town":"彦島福浦町二丁目","lat":"33.929272","lng":"130.910140"},{"town":"彦島福浦町三丁目","lat":"33.926708","lng":"130.912356"},{"town":"彦島本村町一丁目","lat":"33.944997","lng":"130.907474"},{"town":"彦島本村町二丁目","lat":"33.942999","lng":"130.906474"},{"town":"彦島本村町三丁目","lat":"33.943562","lng":"130.911752"},{"town":"彦島本村町四丁目","lat":"33.943022","lng":"130.909835"},{"town":"彦島本村町五丁目","lat":"33.940766","lng":"130.909249"},{"town":"彦島本村町六丁目","lat":"33.939509","lng":"130.912311"},{"town":"彦島本村町七丁目","lat":"33.937056","lng":"130.909701"},{"town":"彦島緑町","lat":"33.932047","lng":"130.908657"},{"town":"彦島向井町一丁目","lat":"33.918549","lng":"130.921090"},{"town":"彦島向井町二丁目","lat":"33.919028","lng":"130.917660"},{"town":"彦島山中町一丁目","lat":"33.922667","lng":"130.918283"},{"town":"彦島山中町二丁目","lat":"33.922151","lng":"130.920847"},{"town":"藤ケ谷町","lat":"33.981270","lng":"130.955738"},{"town":"藤附町","lat":"33.965495","lng":"130.921521"},{"town":"豊前田町一丁目","lat":"33.953588","lng":"130.928961"},{"town":"豊前田町二丁目","lat":"33.952076","lng":"130.927167"},{"town":"豊前田町三丁目","lat":"33.950443","lng":"130.928865"},{"town":"古屋町一丁目","lat":"33.997270","lng":"130.923984"},{"town":"古屋町二丁目","lat":"33.999768","lng":"130.920389"},{"town":"豊北町大字阿川","lat":"34.329490","lng":"130.929704"},{"town":"豊北町大字粟野","lat":"34.330068","lng":"130.986765"},{"town":"豊北町大字神田","lat":"34.328149","lng":"130.901143"},{"town":"豊北町大字神田上","lat":"34.281659","lng":"130.900956"},{"town":"豊北町大字北宇賀","lat":"34.243118","lng":"130.951938"},{"town":"豊北町大字滝部","lat":"34.295853","lng":"130.946241"},{"town":"豊北町大字田耕","lat":"34.269528","lng":"130.988175"},{"town":"豊北町大字角島","lat":"34.354968","lng":"130.859718"},{"town":"豊北町大字矢玉","lat":"34.274918","lng":"130.888522"},{"town":"細江新町","lat":"33.948528","lng":"130.929297"},{"town":"細江町一丁目","lat":"33.952616","lng":"130.932187"},{"town":"細江町二丁目","lat":"33.951186","lng":"130.932512"},{"town":"細江町三丁目","lat":"33.950777","lng":"130.930667"},{"town":"本町一丁目","lat":"33.963890","lng":"130.951542"},{"town":"本町二丁目","lat":"33.964626","lng":"130.949619"},{"town":"本町三丁目","lat":"33.966244","lng":"130.947752"},{"town":"本町四丁目","lat":"33.967766","lng":"130.950957"},{"town":"前勝谷町","lat":"34.006490","lng":"130.964929"},{"town":"前田一丁目","lat":"33.975073","lng":"130.971087"},{"town":"前田二丁目","lat":"33.973438","lng":"130.966441"},{"town":"松屋上町一丁目","lat":"34.055046","lng":"131.058649"},{"town":"松屋上町二丁目","lat":"34.056322","lng":"131.062172"},{"town":"松屋上町三丁目","lat":"34.059800","lng":"131.061646"},{"town":"松屋東町一丁目","lat":"34.045503","lng":"131.064464"},{"town":"松屋東町二丁目","lat":"34.048311","lng":"131.063124"},{"town":"松屋東町三丁目","lat":"34.049854","lng":"131.065418"},{"town":"松屋本町一丁目","lat":"34.052902","lng":"131.057163"},{"town":"松屋本町二丁目","lat":"34.049423","lng":"131.058837"},{"town":"松屋本町三丁目","lat":"34.048269","lng":"131.053324"},{"town":"松屋本町四丁目","lat":"34.055453","lng":"131.053960"},{"town":"松屋本町五丁目","lat":"34.058466","lng":"131.054544"},{"town":"丸山町一丁目","lat":"33.957230","lng":"130.936078"},{"town":"丸山町二丁目","lat":"33.958448","lng":"130.934072"},{"town":"丸山町三丁目","lat":"33.958302","lng":"130.931362"},{"town":"丸山町四丁目","lat":"33.956084","lng":"130.932400"},{"town":"丸山町五丁目","lat":"33.954094","lng":"130.931419"},{"town":"三河町","lat":"33.987193","lng":"130.942195"},{"town":"南大坪町","lat":"33.959874","lng":"130.916162"},{"town":"みもすそ川町","lat":"33.968491","lng":"130.956992"},{"town":"宮田町一丁目","lat":"33.960965","lng":"130.946983"},{"town":"宮田町二丁目","lat":"33.961769","lng":"130.945734"},{"town":"向山町","lat":"33.967099","lng":"130.926199"},{"town":"椋野上町","lat":"33.975673","lng":"130.953599"},{"town":"椋野町一丁目","lat":"33.973575","lng":"130.944926"},{"town":"椋野町二丁目","lat":"33.977825","lng":"130.949399"},{"town":"椋野町三丁目","lat":"33.980817","lng":"130.943818"},{"town":"名池町","lat":"33.958222","lng":"130.937796"},{"town":"元町","lat":"33.965877","lng":"130.924646"},{"town":"安岡駅前二丁目","lat":"34.023586","lng":"130.914727"},{"town":"安岡町一丁目","lat":"34.027406","lng":"130.914674"},{"town":"安岡町二丁目","lat":"34.026164","lng":"130.917757"},{"town":"安岡町三丁目","lat":"34.027733","lng":"130.919349"},{"town":"安岡町四丁目","lat":"34.031061","lng":"130.917919"},{"town":"安岡町五丁目","lat":"34.032126","lng":"130.923564"},{"town":"安岡町六丁目","lat":"34.033850","lng":"130.926154"},{"town":"安岡町七丁目","lat":"34.029022","lng":"130.924707"},{"town":"安岡町八丁目","lat":"34.032099","lng":"130.931278"},{"town":"安岡本町一丁目","lat":"34.025433","lng":"130.912225"},{"town":"安岡本町二丁目","lat":"34.028111","lng":"130.911578"},{"town":"安岡本町三丁目","lat":"34.026520","lng":"130.906834"},{"town":"山手町","lat":"33.959061","lng":"130.925333"},{"town":"大和町一丁目","lat":"33.947821","lng":"130.919404"},{"town":"大和町二丁目","lat":"33.941834","lng":"130.916280"},{"town":"山の口町","lat":"33.969731","lng":"130.936256"},{"town":"山の田北町","lat":"33.991697","lng":"130.932559"},{"town":"山の田中央町","lat":"33.987575","lng":"130.926673"},{"town":"山の田西町","lat":"33.988234","lng":"130.923345"},{"town":"山の田本町","lat":"33.989330","lng":"130.928548"},{"town":"横野町一丁目","lat":"34.033292","lng":"130.913706"},{"town":"横野町二丁目","lat":"34.029643","lng":"130.908668"},{"town":"横野町三丁目","lat":"34.033245","lng":"130.910374"},{"town":"横野町四丁目","lat":"34.036663","lng":"130.912051"},{"town":"吉見古宿町","lat":"34.062840","lng":"130.903147"},{"town":"吉見里町一丁目","lat":"34.072533","lng":"130.900964"},{"town":"吉見里町二丁目","lat":"34.074892","lng":"130.904219"},{"town":"吉見新町一丁目","lat":"34.070324","lng":"130.899895"},{"town":"吉見新町二丁目","lat":"34.071843","lng":"130.898290"},{"town":"吉見本町一丁目","lat":"34.069504","lng":"130.902261"},{"town":"吉見本町二丁目","lat":"34.067409","lng":"130.903674"},{"town":"吉見竜王町","lat":"34.068596","lng":"130.905784"},{"town":"大字阿内","lat":"34.088652","lng":"131.004323"},{"town":"長州出島","lat":"33.989636","lng":"130.898124"},{"town":"山の田南町","lat":"33.985332","lng":"130.925779"},{"town":"武久西原台","lat":"33.986274","lng":"130.921509"},{"town":"新垢田南町一丁目","lat":"33.987549","lng":"130.916313"},{"town":"新垢田南町二丁目","lat":"33.986322","lng":"130.916729"},{"town":"新垢田南町三丁目","lat":"33.985213","lng":"130.915598"},{"town":"新垢田西町二丁目","lat":"33.985234","lng":"130.913694"},{"town":"梶栗町四丁目","lat":"34.015965","lng":"130.922345"},{"town":"富任町三丁目","lat":"34.019726","lng":"130.921211"},{"town":"長府才川一丁目","lat":"34.028817","lng":"131.008093"},{"town":"ゆめタウン","lat":"34.029143","lng":"131.013051"},{"town":"山の田東町","lat":"33.985626","lng":"130.928865"},{"town":"安岡駅前一丁目","lat":"34.023800","lng":"130.916474"},{"town":"富任町二丁目","lat":"34.019453","lng":"130.919678"},{"town":"富任町一丁目","lat":"34.019391","lng":"130.917646"},{"town":"垢田町三丁目","lat":"33.990620","lng":"130.922313"},{"town":"垢田町五丁目","lat":"33.994794","lng":"130.920651"},{"town":"垢田町四丁目","lat":"33.989758","lng":"130.919130"},{"town":"新垢田東町二丁目","lat":"33.990027","lng":"130.914573"},{"town":"新垢田北町","lat":"33.990987","lng":"130.912067"},{"town":"幡生宮の下町","lat":"33.983360","lng":"130.930931"},{"town":"武久町一丁目","lat":"33.981687","lng":"130.923474"},{"town":"武久町二丁目","lat":"33.981284","lng":"130.917751"},{"town":"大坪本町","lat":"33.970060","lng":"130.921118"},{"town":"後田町四丁目","lat":"33.971900","lng":"130.926451"},{"town":"羽山町","lat":"33.970266","lng":"130.924029"},{"town":"幡生新町","lat":"33.976316","lng":"130.923058"},{"town":"幡生本町","lat":"33.975313","lng":"130.926164"}]