[{"town":"青木","lat":"35.395400","lng":"133.364157"},{"town":"赤井手","lat":"35.418369","lng":"133.396299"},{"town":"朝日町","lat":"35.432213","lng":"133.330916"},{"town":"愛宕町","lat":"35.420385","lng":"133.330078"},{"town":"安倍","lat":"35.443857","lng":"133.303743"},{"town":"石井","lat":"35.406142","lng":"133.342630"},{"town":"泉","lat":"35.427129","lng":"133.423129"},{"town":"一部","lat":"35.408254","lng":"133.395364"},{"town":"今在家","lat":"35.425044","lng":"133.392398"},{"town":"岩倉町","lat":"35.432400","lng":"133.327673"},{"town":"陰田町","lat":"35.407428","lng":"133.329537"},{"town":"内町","lat":"35.429069","lng":"133.317662"},{"town":"浦津","lat":"35.423186","lng":"133.376302"},{"town":"榎原","lat":"35.393007","lng":"133.354883"},{"town":"大崎","lat":"35.468261","lng":"133.258943"},{"town":"大篠津町","lat":"35.491172","lng":"133.253284"},{"town":"大谷町","lat":"35.415075","lng":"133.336361"},{"town":"大袋","lat":"35.386380","lng":"133.357111"},{"town":"岡成","lat":"35.418912","lng":"133.427970"},{"town":"奥谷","lat":"35.408883","lng":"133.347033"},{"town":"尾高","lat":"35.420479","lng":"133.408873"},{"town":"尾高町","lat":"35.432471","lng":"133.329638"},{"town":"皆生一丁目","lat":"35.444017","lng":"133.365117"},{"town":"皆生二丁目","lat":"35.445270","lng":"133.367583"},{"town":"皆生三丁目","lat":"35.447148","lng":"133.364124"},{"town":"皆生四丁目","lat":"35.448215","lng":"133.362315"},{"town":"皆生五丁目","lat":"35.448752","lng":"133.358614"},{"town":"皆生六丁目","lat":"35.452059","lng":"133.360290"},{"town":"皆生温泉一丁目","lat":"35.455242","lng":"133.358480"},{"town":"皆生温泉二丁目","lat":"35.454268","lng":"133.363451"},{"town":"皆生温泉三丁目","lat":"35.457538","lng":"133.365849"},{"town":"皆生温泉四丁目","lat":"35.458395","lng":"133.357593"},{"town":"皆生新田一丁目","lat":"35.451216","lng":"133.363659"},{"town":"皆生新田二丁目","lat":"35.450360","lng":"133.368969"},{"town":"皆生新田三丁目","lat":"35.454799","lng":"133.369850"},{"town":"角盤町一丁目","lat":"35.430973","lng":"133.334779"},{"town":"角盤町二丁目","lat":"35.433258","lng":"133.332499"},{"town":"角盤町三丁目","lat":"35.435302","lng":"133.329228"},{"town":"角盤町四丁目","lat":"35.437378","lng":"133.327280"},{"town":"兼久","lat":"35.405285","lng":"133.361370"},{"town":"上安曇","lat":"35.383414","lng":"133.364650"},{"town":"上後藤一丁目","lat":"35.443079","lng":"133.319774"},{"town":"上後藤二丁目","lat":"35.444176","lng":"133.320974"},{"town":"上後藤三丁目","lat":"35.446935","lng":"133.319581"},{"town":"上後藤四丁目","lat":"35.444653","lng":"133.317027"},{"town":"上後藤五丁目","lat":"35.446447","lng":"133.315162"},{"town":"上後藤六丁目","lat":"35.447437","lng":"133.311360"},{"town":"上後藤七丁目","lat":"35.449011","lng":"133.313129"},{"town":"上後藤八丁目","lat":"35.449102","lng":"133.315591"},{"town":"上新印","lat":"35.411045","lng":"133.389488"},{"town":"上福原","lat":"35.439603","lng":"133.359083"},{"town":"上福原一丁目","lat":"35.443193","lng":"133.362899"},{"town":"上福原二丁目","lat":"35.444628","lng":"133.358545"},{"town":"上福原三丁目","lat":"35.445455","lng":"133.353535"},{"town":"上福原四丁目","lat":"35.448608","lng":"133.355050"},{"town":"上福原五丁目","lat":"35.449375","lng":"133.353270"},{"town":"上福原六丁目","lat":"35.453017","lng":"133.357308"},{"town":"上福原七丁目","lat":"35.454922","lng":"133.354134"},{"town":"加茂町一丁目","lat":"35.428704","lng":"133.329279"},{"town":"加茂町二丁目","lat":"35.427545","lng":"133.329244"},{"town":"蚊屋","lat":"35.426584","lng":"133.384180"},{"town":"河岡","lat":"35.410006","lng":"133.401406"},{"town":"河崎","lat":"35.459101","lng":"133.305460"},{"town":"勝田町","lat":"35.432496","lng":"133.345139"},{"town":"観音寺","lat":"35.420468","lng":"133.361101"},{"town":"観音寺新町一丁目","lat":"35.424818","lng":"133.356706"},{"town":"観音寺新町二丁目","lat":"35.422464","lng":"133.358572"},{"town":"観音寺新町三丁目","lat":"35.425120","lng":"133.359566"},{"town":"観音寺新町四丁目","lat":"35.425120","lng":"133.361574"},{"town":"観音寺新町五丁目","lat":"35.422979","lng":"133.362542"},{"town":"祇園町一丁目","lat":"35.422088","lng":"133.327685"},{"town":"祇園町二丁目","lat":"35.418311","lng":"133.325160"},{"town":"義方町","lat":"35.438814","lng":"133.323340"},{"town":"錦海町一丁目","lat":"35.417411","lng":"133.321506"},{"town":"錦海町二丁目","lat":"35.414968","lng":"133.320212"},{"town":"錦海町三丁目","lat":"35.417942","lng":"133.318294"},{"town":"日下","lat":"35.403701","lng":"133.427521"},{"town":"車尾","lat":"35.428537","lng":"133.352892"},{"town":"車尾一丁目","lat":"35.432375","lng":"133.348703"},{"town":"車尾二丁目","lat":"35.431570","lng":"133.354052"},{"town":"車尾三丁目","lat":"35.433993","lng":"133.357142"},{"town":"車尾四丁目","lat":"35.434355","lng":"133.360808"},{"town":"車尾五丁目","lat":"35.430940","lng":"133.359616"},{"town":"車尾六丁目","lat":"35.430100","lng":"133.364096"},{"town":"車尾七丁目","lat":"35.433996","lng":"133.364928"},{"town":"車尾南一丁目","lat":"35.426773","lng":"133.357330"},{"town":"車尾南二丁目","lat":"35.426070","lng":"133.364471"},{"town":"熊党","lat":"35.430487","lng":"133.375646"},{"town":"久米町","lat":"35.425452","lng":"133.325450"},{"town":"糀町一丁目","lat":"35.428003","lng":"133.337969"},{"town":"糀町二丁目","lat":"35.429664","lng":"133.337024"},{"town":"紺屋町","lat":"35.428965","lng":"133.333702"},{"town":"古豊千","lat":"35.415746","lng":"133.372977"},{"town":"三本松一丁目","lat":"35.440587","lng":"133.324312"},{"town":"三本松二丁目","lat":"35.442352","lng":"133.324002"},{"town":"三本松三丁目","lat":"35.444203","lng":"133.323884"},{"town":"三本松四丁目","lat":"35.445678","lng":"133.323757"},{"town":"塩町","lat":"35.423892","lng":"133.331415"},{"town":"下安曇","lat":"35.389218","lng":"133.365679"},{"town":"下新印","lat":"35.418079","lng":"133.383719"},{"town":"下郷","lat":"35.430308","lng":"133.401938"},{"town":"昭和町","lat":"35.426908","lng":"133.342020"},{"town":"新開一丁目","lat":"35.455208","lng":"133.351341"},{"town":"新開二丁目","lat":"35.455817","lng":"133.348761"},{"town":"新開三丁目","lat":"35.459330","lng":"133.350769"},{"town":"新開四丁目","lat":"35.460728","lng":"133.343779"},{"town":"新開五丁目","lat":"35.456403","lng":"133.345499"},{"town":"新開六丁目","lat":"35.457192","lng":"133.342550"},{"town":"新開七丁目","lat":"35.457988","lng":"133.338948"},{"town":"末広町","lat":"35.421991","lng":"133.332762"},{"town":"諏訪","lat":"35.391009","lng":"133.385032"},{"town":"石州府","lat":"35.393907","lng":"133.417495"},{"town":"大工町","lat":"35.422940","lng":"133.331166"},{"town":"高島","lat":"35.409713","lng":"133.383194"},{"town":"立町一丁目","lat":"35.433388","lng":"133.326852"},{"town":"立町二丁目","lat":"35.433684","lng":"133.325618"},{"town":"立町三丁目","lat":"35.435988","lng":"133.325738"},{"town":"立町四丁目","lat":"35.437714","lng":"133.324534"},{"town":"茶町","lat":"35.424717","lng":"133.332246"},{"town":"寺町","lat":"35.434451","lng":"133.327897"},{"town":"天神町一丁目","lat":"35.431327","lng":"133.327396"},{"town":"天神町二丁目","lat":"35.431990","lng":"133.325979"},{"town":"道笑町一丁目","lat":"35.426914","lng":"133.334990"},{"town":"道笑町二丁目","lat":"35.426315","lng":"133.337375"},{"town":"道笑町三丁目","lat":"35.425297","lng":"133.340588"},{"town":"道笑町四丁目","lat":"35.423813","lng":"133.346083"},{"town":"富益町","lat":"35.474099","lng":"133.281836"},{"town":"永江","lat":"35.396306","lng":"133.370058"},{"town":"中島一丁目","lat":"35.437053","lng":"133.351169"},{"town":"中島二丁目","lat":"35.434704","lng":"133.352209"},{"town":"長砂町","lat":"35.421143","lng":"133.351212"},{"town":"中町","lat":"35.429334","lng":"133.330391"},{"town":"奈喜良","lat":"35.399778","lng":"133.339286"},{"town":"灘町一丁目","lat":"35.429871","lng":"133.317231"},{"town":"灘町二丁目","lat":"35.434581","lng":"133.323536"},{"town":"灘町三丁目","lat":"35.431683","lng":"133.316957"},{"town":"新山","lat":"35.388969","lng":"133.321609"},{"town":"錦町一丁目","lat":"35.435140","lng":"133.334044"},{"town":"錦町二丁目","lat":"35.436909","lng":"133.331960"},{"town":"錦町三丁目","lat":"35.439083","lng":"133.327668"},{"town":"西倉吉町","lat":"35.430870","lng":"133.330172"},{"town":"西町","lat":"35.427603","lng":"133.319490"},{"town":"西福原","lat":"35.437144","lng":"133.339630"},{"town":"西福原一丁目","lat":"35.439658","lng":"133.338539"},{"town":"西福原二丁目","lat":"35.440999","lng":"133.339947"},{"town":"西福原三丁目","lat":"35.442272","lng":"133.343499"},{"town":"西福原四丁目","lat":"35.443561","lng":"133.339567"},{"town":"西福原五丁目","lat":"35.445912","lng":"133.340712"},{"town":"西福原六丁目","lat":"35.448439","lng":"133.340384"},{"town":"西福原七丁目","lat":"35.451482","lng":"133.344100"},{"town":"西福原八丁目","lat":"35.452324","lng":"133.341039"},{"town":"西福原九丁目","lat":"35.453387","lng":"133.337961"},{"town":"二本木","lat":"35.441246","lng":"133.388991"},{"town":"博労町一丁目","lat":"35.430485","lng":"133.338853"},{"town":"博労町二丁目","lat":"35.430979","lng":"133.341385"},{"town":"博労町三丁目","lat":"35.433658","lng":"133.338908"},{"town":"博労町四丁目","lat":"35.435304","lng":"133.341585"},{"town":"橋本","lat":"35.396197","lng":"133.350251"},{"town":"旗ヶ崎","lat":"35.432942","lng":"133.311163"},{"town":"旗ヶ崎一丁目","lat":"35.438877","lng":"133.319055"},{"town":"旗ヶ崎二丁目","lat":"35.436872","lng":"133.316563"},{"town":"旗ヶ崎三丁目","lat":"35.441143","lng":"133.317031"},{"town":"旗ヶ崎四丁目","lat":"35.441945","lng":"133.314614"},{"town":"旗ヶ崎五丁目","lat":"35.443173","lng":"133.312412"},{"town":"旗ヶ崎六丁目","lat":"35.438665","lng":"133.312363"},{"town":"旗ヶ崎七丁目","lat":"35.439338","lng":"133.307811"},{"town":"旗ヶ崎八丁目","lat":"35.442847","lng":"133.308713"},{"town":"旗ヶ崎九丁目","lat":"35.445209","lng":"133.309835"},{"town":"花園町","lat":"35.436123","lng":"133.321600"},{"town":"東倉吉町","lat":"35.430406","lng":"133.331681"},{"town":"東町","lat":"35.425675","lng":"133.331102"},{"town":"東福原一丁目","lat":"35.436391","lng":"133.344392"},{"town":"東福原二丁目","lat":"35.437775","lng":"133.346171"},{"town":"東福原三丁目","lat":"35.441275","lng":"133.345565"},{"town":"東福原四丁目","lat":"35.442051","lng":"133.348309"},{"town":"東福原五丁目","lat":"35.444515","lng":"133.345370"},{"town":"東福原六丁目","lat":"35.446339","lng":"133.347012"},{"town":"東福原七丁目","lat":"35.449955","lng":"133.350227"},{"town":"東福原八丁目","lat":"35.450730","lng":"133.347218"},{"town":"東山町","lat":"35.429793","lng":"133.345264"},{"town":"東八幡","lat":"35.403512","lng":"133.390311"},{"town":"彦名新田","lat":"35.449022","lng":"133.272556"},{"town":"彦名町","lat":"35.451990","lng":"133.284083"},{"town":"日ノ出町一丁目","lat":"35.437613","lng":"133.337989"},{"town":"日ノ出町二丁目","lat":"35.438149","lng":"133.334577"},{"town":"日野町","lat":"35.425702","lng":"133.333603"},{"town":"日原","lat":"35.408207","lng":"133.356542"},{"town":"福市","lat":"35.408093","lng":"133.369740"},{"town":"福万","lat":"35.397790","lng":"133.424341"},{"town":"冨士見町","lat":"35.433447","lng":"133.336519"},{"town":"冨士見町一丁目","lat":"35.431610","lng":"133.337604"},{"town":"冨士見町二丁目","lat":"35.432521","lng":"133.335016"},{"town":"古市","lat":"35.384854","lng":"133.329795"},{"town":"別所","lat":"35.386490","lng":"133.375647"},{"town":"法勝寺町","lat":"35.428222","lng":"133.334882"},{"town":"万能町","lat":"35.425125","lng":"133.335005"},{"town":"水浜","lat":"35.402166","lng":"133.397164"},{"town":"三旗町","lat":"35.440277","lng":"133.321359"},{"town":"美吉","lat":"35.418797","lng":"133.343981"},{"town":"宗像","lat":"35.413059","lng":"133.355999"},{"town":"明治町","lat":"35.424206","lng":"133.334428"},{"town":"目久美町","lat":"35.417889","lng":"133.338496"},{"town":"弥生町","lat":"35.422999","lng":"133.336415"},{"town":"八幡","lat":"35.399706","lng":"133.385846"},{"town":"陽田町","lat":"35.427036","lng":"133.347666"},{"town":"吉岡","lat":"35.429358","lng":"133.369953"},{"town":"吉谷","lat":"35.388823","lng":"133.339473"},{"town":"葭津","lat":"35.477369","lng":"133.241262"},{"town":"四日市町","lat":"35.429590","lng":"133.332388"},{"town":"淀江町稲吉","lat":"35.436967","lng":"133.462195"},{"town":"淀江町今津","lat":"35.465938","lng":"133.431659"},{"town":"淀江町小波","lat":"35.440662","lng":"133.408838"},{"town":"淀江町佐陀","lat":"35.443063","lng":"133.395267"},{"town":"淀江町高井谷","lat":"35.436317","lng":"133.440010"},{"town":"淀江町富繁","lat":"35.441059","lng":"133.430589"},{"town":"淀江町中西尾","lat":"35.436588","lng":"133.433827"},{"town":"淀江町中間","lat":"35.442920","lng":"133.402231"},{"town":"淀江町西尾原","lat":"35.429907","lng":"133.435662"},{"town":"淀江町西原","lat":"35.449965","lng":"133.422257"},{"town":"淀江町平岡","lat":"35.434053","lng":"133.424801"},{"town":"淀江町福井","lat":"35.445926","lng":"133.429495"},{"town":"淀江町福岡","lat":"35.453503","lng":"133.446070"},{"town":"淀江町福頼","lat":"35.440658","lng":"133.424981"},{"town":"淀江町本宮","lat":"35.422233","lng":"133.453404"},{"town":"淀江町淀江","lat":"35.457801","lng":"133.430488"},{"town":"米原","lat":"35.439591","lng":"133.330876"},{"town":"米原一丁目","lat":"35.441993","lng":"133.327561"},{"town":"米原二丁目","lat":"35.443023","lng":"133.329414"},{"town":"米原三丁目","lat":"35.440333","lng":"133.333389"},{"town":"米原四丁目","lat":"35.441901","lng":"133.334494"},{"town":"米原五丁目","lat":"35.444801","lng":"133.329088"},{"town":"米原六丁目","lat":"35.444786","lng":"133.335937"},{"town":"米原七丁目","lat":"35.445925","lng":"133.332076"},{"town":"米原八丁目","lat":"35.448232","lng":"133.333456"},{"town":"米原九丁目","lat":"35.448524","lng":"133.328718"},{"town":"夜見町","lat":"35.464619","lng":"133.296185"},{"town":"流通町","lat":"35.429474","lng":"133.396243"},{"town":"両三柳","lat":"35.457198","lng":"133.324628"},{"town":"和田町","lat":"35.485030","lng":"133.269376"}]