[{"town":"阿島","koaza":"","lat":33.958125,"lng":133.3575},{"town":"阿島一丁目","koaza":"","lat":33.979888,"lng":133.35193},{"town":"阿島二丁目","koaza":"","lat":33.975896,"lng":133.354776},{"town":"阿島三丁目","koaza":"","lat":33.96985,"lng":133.35839},{"town":"阿島四丁目","koaza":"","lat":33.964712,"lng":133.368905},{"town":"泉池町","koaza":"","lat":33.966016,"lng":133.275071},{"town":"泉宮町","koaza":"","lat":33.963598,"lng":133.275914},{"town":"磯浦町","koaza":"","lat":33.951649,"lng":133.247762},{"town":"一宮町一丁目","koaza":"","lat":33.959889,"lng":133.282427},{"town":"一宮町二丁目","koaza":"","lat":33.958402,"lng":133.277406},{"town":"宇高町一丁目","koaza":"","lat":33.968682,"lng":133.304991},{"town":"宇高町二丁目","koaza":"","lat":33.973091,"lng":133.304128},{"town":"宇高町三丁目","koaza":"","lat":33.97729,"lng":133.302888},{"town":"宇高町四丁目","koaza":"","lat":33.98057,"lng":133.302787},{"town":"宇高町五丁目","koaza":"","lat":33.974334,"lng":133.308428},{"town":"上原一丁目","koaza":"","lat":33.924406,"lng":133.284569},{"town":"上原二丁目","koaza":"","lat":33.920345,"lng":133.285418},{"town":"上原三丁目","koaza":"","lat":33.922474,"lng":133.281583},{"town":"上原四丁目","koaza":"","lat":33.916344,"lng":133.283495},{"town":"江口町","koaza":"","lat":33.956735,"lng":133.272403},{"town":"王子町","koaza":"","lat":33.953106,"lng":133.263551},{"town":"大江町","koaza":"","lat":33.972084,"lng":133.271685},{"town":"大島","koaza":"","lat":33.999123,"lng":133.360169},{"town":"大生院","koaza":"","lat":33.899194,"lng":133.257014},{"town":"御蔵町","koaza":"","lat":33.918061,"lng":133.287904},{"town":"落神町","koaza":"","lat":33.965442,"lng":133.321333},{"town":"金子","koaza":"","lat":33.946041,"lng":133.260748},{"town":"上泉町","koaza":"","lat":33.936019,"lng":133.307329},{"town":"観音原町","koaza":"","lat":33.95313,"lng":133.315398},{"town":"菊本町一丁目","koaza":"","lat":33.976929,"lng":133.277754},{"town":"菊本町二丁目","koaza":"","lat":33.979412,"lng":133.282576},{"town":"喜光地町一丁目","koaza":"","lat":33.934433,"lng":133.298869},{"town":"喜光地町二丁目","koaza":"","lat":33.932898,"lng":133.300377},{"town":"岸の上町一丁目","koaza":"","lat":33.945724,"lng":133.308214},{"town":"岸の上町二丁目","koaza":"","lat":33.942569,"lng":133.312002},{"town":"北内町一丁目","koaza":"","lat":33.931842,"lng":133.306134},{"town":"北内町二丁目","koaza":"","lat":33.934005,"lng":133.310037},{"town":"北内町三丁目","koaza":"","lat":33.929894,"lng":133.311222},{"town":"北内町四丁目","koaza":"","lat":33.9266,"lng":133.308664},{"town":"北新町","koaza":"","lat":33.959605,"lng":133.271384},{"town":"清住町","koaza":"","lat":33.961495,"lng":133.311543},{"town":"楠崎一丁目","koaza":"","lat":33.973721,"lng":133.337546},{"town":"楠崎二丁目","koaza":"","lat":33.971478,"lng":133.334492},{"town":"久保田町一丁目","koaza":"","lat":33.956818,"lng":133.28341},{"town":"久保田町二丁目","koaza":"","lat":33.955581,"lng":133.278255},{"town":"久保田町三丁目","koaza":"","lat":33.954432,"lng":133.28377},{"town":"黒島","koaza":"","lat":33.987724,"lng":133.346379},{"town":"黒島一丁目","koaza":"","lat":33.986873,"lng":133.339668},{"town":"黒島二丁目","koaza":"","lat":33.987956,"lng":133.342595},{"town":"郷","koaza":"","lat":33.963987,"lng":133.335652},{"town":"郷一丁目","koaza":"","lat":33.962913,"lng":133.305827},{"town":"郷二丁目","koaza":"","lat":33.965452,"lng":133.309763},{"town":"郷三丁目","koaza":"","lat":33.964121,"lng":133.312073},{"town":"郷四丁目","koaza":"","lat":33.958434,"lng":133.305135},{"town":"郷五丁目","koaza":"","lat":33.957849,"lng":133.30156},{"town":"神郷一丁目","koaza":"","lat":33.967343,"lng":133.316939},{"town":"神郷二丁目","koaza":"","lat":33.964583,"lng":133.316352},{"town":"河内町","koaza":"","lat":33.953032,"lng":133.273593},{"town":"光明寺一丁目","koaza":"","lat":33.945768,"lng":133.327638},{"town":"光明寺二丁目","koaza":"","lat":33.951901,"lng":133.333459},{"town":"国領一丁目","koaza":"","lat":33.937631,"lng":133.31832},{"town":"寿町","koaza":"","lat":33.941149,"lng":133.301218},{"town":"西連寺町一丁目","koaza":"","lat":33.926805,"lng":133.298163},{"town":"西連寺町二丁目","koaza":"","lat":33.922841,"lng":133.299872},{"town":"坂井町一丁目","koaza":"","lat":33.947558,"lng":133.290381},{"town":"坂井町二丁目","koaza":"","lat":33.948734,"lng":133.29345},{"town":"坂井町三丁目","koaza":"","lat":33.945847,"lng":133.294025},{"town":"桜木町","koaza":"","lat":33.968147,"lng":133.299844},{"town":"沢津町一丁目","koaza":"","lat":33.974403,"lng":133.294773},{"town":"沢津町二丁目","koaza":"","lat":33.976004,"lng":133.298108},{"town":"沢津町三丁目","koaza":"","lat":33.97739,"lng":133.294923},{"town":"繁本町","koaza":"","lat":33.962307,"lng":133.281577},{"town":"七宝台町","koaza":"","lat":33.942027,"lng":133.328722},{"town":"東雲町一丁目","koaza":"","lat":33.966993,"lng":133.29528},{"town":"東雲町二丁目","koaza":"","lat":33.963595,"lng":133.299433},{"town":"東雲町三丁目","koaza":"","lat":33.9611,"lng":133.300771},{"town":"篠場町","koaza":"","lat":33.923748,"lng":133.295554},{"town":"清水町","koaza":"","lat":33.978401,"lng":133.291243},{"town":"下泉町一丁目","koaza":"","lat":33.948818,"lng":133.300471},{"town":"下泉町二丁目","koaza":"","lat":33.94897,"lng":133.306153},{"town":"庄内町一丁目","koaza":"","lat":33.957124,"lng":133.288746},{"town":"庄内町二丁目","koaza":"","lat":33.958362,"lng":133.295128},{"town":"庄内町三丁目","koaza":"","lat":33.955969,"lng":133.296355},{"town":"庄内町四丁目","koaza":"","lat":33.952338,"lng":133.28902},{"town":"庄内町五丁目","koaza":"","lat":33.952358,"lng":133.292873},{"town":"庄内町六丁目","koaza":"","lat":33.953675,"lng":133.298273},{"town":"城下町","koaza":"","lat":33.952488,"lng":133.30305},{"town":"新須賀町一丁目","koaza":"","lat":33.965438,"lng":133.287243},{"town":"新須賀町二丁目","koaza":"","lat":33.967888,"lng":133.286051},{"town":"新須賀町三丁目","koaza":"","lat":33.970112,"lng":133.284847},{"town":"新須賀町四丁目","koaza":"","lat":33.970479,"lng":133.288712},{"town":"新田町一丁目","koaza":"","lat":33.958969,"lng":133.264584},{"town":"新田町二丁目","koaza":"","lat":33.955227,"lng":133.261282},{"town":"新田町三丁目","koaza":"","lat":33.956629,"lng":133.259399},{"town":"角野","koaza":"","lat":33.928127,"lng":133.320225},{"town":"角野新田町一丁目","koaza":"","lat":33.929348,"lng":133.317164},{"town":"角野新田町二丁目","koaza":"","lat":33.927199,"lng":133.313714},{"town":"角野新田町三丁目","koaza":"","lat":33.923881,"lng":133.311069},{"town":"瀬戸町","koaza":"","lat":33.944717,"lng":133.3005},{"town":"惣開町","koaza":"","lat":33.96896,"lng":133.254786},{"town":"大永山","koaza":"","lat":33.873935,"lng":133.298343},{"town":"高木町","koaza":"","lat":33.951505,"lng":133.285612},{"town":"高田一丁目","koaza":"","lat":33.968135,"lng":133.310211},{"town":"高田二丁目","koaza":"","lat":33.970654,"lng":133.309808},{"town":"高津町","koaza":"","lat":33.972074,"lng":133.299506},{"town":"滝の宮町","koaza":"","lat":33.945056,"lng":133.281811},{"town":"多喜浜一丁目","koaza":"","lat":33.974269,"lng":133.334282},{"town":"多喜浜二丁目","koaza":"","lat":33.977552,"lng":133.330658},{"town":"多喜浜三丁目","koaza":"","lat":33.978679,"lng":133.336154},{"town":"多喜浜四丁目","koaza":"","lat":33.974208,"lng":133.343208},{"town":"多喜浜五丁目","koaza":"","lat":33.974249,"lng":133.349089},{"town":"多喜浜六丁目","koaza":"","lat":33.979602,"lng":133.343692},{"town":"立川町","koaza":"","lat":33.892712,"lng":133.315656},{"town":"田所町","koaza":"","lat":33.96304,"lng":133.288167},{"town":"種子川町","koaza":"","lat":33.923503,"lng":133.315525},{"town":"種子川山","koaza":"","lat":33.89927,"lng":133.338529},{"town":"田の上一丁目","koaza":"","lat":33.970045,"lng":133.315072},{"town":"田の上二丁目","koaza":"","lat":33.971971,"lng":133.318603},{"town":"田の上三丁目","koaza":"","lat":33.975659,"lng":133.3187},{"town":"田の上四丁目","koaza":"","lat":33.97419,"lng":133.313584},{"town":"土橋一丁目","koaza":"","lat":33.935951,"lng":133.290919},{"town":"土橋二丁目","koaza":"","lat":33.931111,"lng":133.293973},{"town":"東田一丁目","koaza":"","lat":33.946951,"lng":133.315367},{"town":"東田二丁目","koaza":"","lat":33.941244,"lng":133.318793},{"town":"東田三丁目","koaza":"","lat":33.945007,"lng":133.321448},{"town":"徳常町","koaza":"","lat":33.964347,"lng":133.280812},{"town":"外山町","koaza":"","lat":33.940416,"lng":133.310427},{"town":"長岩町","koaza":"","lat":33.978997,"lng":133.326385},{"town":"中須賀町一丁目","koaza":"","lat":33.962532,"lng":133.27279},{"town":"中須賀町二丁目","koaza":"","lat":33.966658,"lng":133.27131},{"town":"中筋町一丁目","koaza":"","lat":33.926579,"lng":133.305471},{"town":"中筋町二丁目","koaza":"","lat":33.921912,"lng":133.305886},{"town":"中西町","koaza":"","lat":33.92606,"lng":133.302521},{"town":"中萩町","koaza":"","lat":33.928934,"lng":133.282661},{"town":"中村一丁目","koaza":"","lat":33.931998,"lng":133.287991},{"town":"中村二丁目","koaza":"","lat":33.929506,"lng":133.289547},{"town":"中村三丁目","koaza":"","lat":33.926717,"lng":133.291007},{"town":"中村四丁目","koaza":"","lat":33.923185,"lng":133.289728},{"town":"中村松木一丁目","koaza":"","lat":33.941639,"lng":133.28985},{"town":"中村松木二丁目","koaza":"","lat":33.938647,"lng":133.289517},{"town":"新居浜乙","koaza":"","lat":33.943999,"lng":133.239703},{"town":"西泉町","koaza":"","lat":33.930233,"lng":133.29762},{"town":"西喜光地町","koaza":"","lat":33.937527,"lng":133.295415},{"town":"西の土居町一丁目","koaza":"","lat":33.951014,"lng":133.28231},{"town":"西の土居町二丁目","koaza":"","lat":33.950542,"lng":133.277428},{"town":"西原町一丁目","koaza":"","lat":33.963327,"lng":133.269738},{"town":"西原町二丁目","koaza":"","lat":33.96539,"lng":133.269135},{"town":"西原町三丁目","koaza":"","lat":33.965406,"lng":133.265818},{"town":"西町","koaza":"","lat":33.96793,"lng":133.274985},{"town":"荷内町","koaza":"","lat":33.978062,"lng":133.376726},{"town":"萩生","koaza":"","lat":33.911838,"lng":133.268311},{"town":"八幡一丁目","koaza":"","lat":33.978043,"lng":133.309923},{"town":"八幡二丁目","koaza":"","lat":33.982083,"lng":133.309715},{"town":"八幡三丁目","koaza":"","lat":33.983344,"lng":133.315261},{"town":"垣生","koaza":"","lat":33.9879,"lng":133.326094},{"town":"垣生一丁目","koaza":"","lat":33.980727,"lng":133.316235},{"town":"垣生二丁目","koaza":"","lat":33.978209,"lng":133.317297},{"town":"垣生三丁目","koaza":"","lat":33.984664,"lng":133.330434},{"town":"垣生四丁目","koaza":"","lat":33.98368,"lng":133.319845},{"town":"垣生五丁目","koaza":"","lat":33.989129,"lng":133.320611},{"town":"垣生六丁目","koaza":"","lat":33.987893,"lng":133.318059},{"town":"平形町","koaza":"","lat":33.962381,"lng":133.29387},{"town":"船木","koaza":"","lat":33.925772,"lng":133.343366},{"town":"別子山","koaza":"","lat":33.85378,"lng":133.386529},{"town":"星越町","koaza":"","lat":33.947546,"lng":133.269782},{"town":"星原町","koaza":"","lat":33.939867,"lng":133.30454},{"town":"本郷一丁目","koaza":"","lat":33.935817,"lng":133.28608},{"town":"本郷二丁目","koaza":"","lat":33.935849,"lng":133.28107},{"town":"本郷三丁目","koaza":"","lat":33.932823,"lng":133.281576},{"town":"前田町","koaza":"","lat":33.955668,"lng":133.266842},{"town":"政枝町一丁目","koaza":"","lat":33.947459,"lng":133.286506},{"town":"政枝町二丁目","koaza":"","lat":33.94451,"lng":133.28731},{"town":"政枝町三丁目","koaza":"","lat":33.941494,"lng":133.284852},{"town":"又野一丁目","koaza":"","lat":33.971004,"lng":133.325672},{"town":"又野二丁目","koaza":"","lat":33.967689,"lng":133.325578},{"town":"又野三丁目","koaza":"","lat":33.969068,"lng":133.327011},{"town":"松木町","koaza":"","lat":33.942407,"lng":133.292877},{"town":"松の木町","koaza":"","lat":33.98009,"lng":133.296061},{"town":"松原町","koaza":"","lat":33.9392,"lng":133.298578},{"town":"松神子一丁目","koaza":"","lat":33.97242,"lng":133.321848},{"town":"松神子二丁目","koaza":"","lat":33.974087,"lng":133.324035},{"town":"松神子三丁目","koaza":"","lat":33.975175,"lng":133.326771},{"town":"松神子四丁目","koaza":"","lat":33.97666,"lng":133.322227},{"town":"港町","koaza":"","lat":33.970667,"lng":133.278969},{"town":"南小松原町","koaza":"","lat":33.971653,"lng":133.293776},{"town":"宮西町","koaza":"","lat":33.960891,"lng":133.276819},{"town":"宮原町","koaza":"","lat":33.93067,"lng":133.301597},{"town":"八雲町","koaza":"","lat":33.960762,"lng":133.289666},{"town":"山田町","koaza":"","lat":33.918573,"lng":133.293443},{"town":"山根町","koaza":"","lat":33.919206,"lng":133.300386},{"town":"横水町","koaza":"","lat":33.938991,"lng":133.2819},{"town":"吉岡町","koaza":"","lat":33.933405,"lng":133.313734},{"town":"若水町一丁目","koaza":"","lat":33.966487,"lng":133.280013},{"town":"若水町二丁目","koaza":"","lat":33.96832,"lng":133.280025},{"town":"萩生","koaza":"岸ノ下","lat":33.927408,"lng":133.263281},{"town":"船木","koaza":"池田","lat":33.939464,"lng":133.331824},{"town":"船木","koaza":"長野","lat":33.94444,"lng":133.345723}]