[{"town":"大字会染","lat":"36.404205","lng":"137.887261"},{"town":"大字池田","lat":"36.440165","lng":"137.889128"},{"town":"大字中鵜","lat":"36.374988","lng":"137.896517"},{"town":"大字広津","lat":"36.453702","lng":"137.912671"},{"town":"大字陸郷","lat":"36.411376","lng":"137.909500"}]