[{"town":"大字万場","koaza":"","lat":36.131565,"lng":138.912058},{"town":"大字塩沢","koaza":"","lat":36.134341,"lng":138.879764},{"town":"大字小平","koaza":"","lat":36.101089,"lng":138.894866},{"town":"大字尾附","koaza":"","lat":36.09604,"lng":138.803932},{"town":"大字平原","koaza":"","lat":36.119951,"lng":138.804472},{"town":"大字柏木","koaza":"","lat":36.127345,"lng":138.943375},{"town":"大字森戸","koaza":"","lat":36.103282,"lng":138.908732},{"town":"大字生利","koaza":"","lat":36.120272,"lng":138.926229},{"town":"大字相原","koaza":"","lat":36.102071,"lng":138.878664},{"town":"大字神ケ原","koaza":"","lat":36.080009,"lng":138.840106},{"town":"大字船子","koaza":"","lat":36.117288,"lng":138.862427},{"town":"大字青梨","koaza":"","lat":36.094839,"lng":138.880027},{"town":"大字魚尾","koaza":"","lat":36.098871,"lng":138.853338},{"town":"大字麻生","koaza":"","lat":36.110044,"lng":138.944952},{"town":"大字黒田","koaza":"","lat":36.117841,"lng":138.893356}]