[{"town":"青ノ木","koaza":"","lat":36.231086,"lng":136.247967},{"town":"赤尾","koaza":"","lat":36.245536,"lng":136.225945},{"town":"芦鶴","koaza":"","lat":36.232287,"lng":136.194426},{"town":"伊井","koaza":"","lat":36.192258,"lng":136.243881},{"town":"井江葭","koaza":"","lat":36.230948,"lng":136.21032},{"town":"池口","koaza":"","lat":36.192237,"lng":136.238656},{"town":"市姫一丁目","koaza":"","lat":36.211014,"lng":136.232119},{"town":"市姫二丁目","koaza":"","lat":36.214053,"lng":136.228574},{"town":"市姫三丁目","koaza":"","lat":36.210535,"lng":136.228124},{"town":"市姫四丁目","koaza":"","lat":36.207709,"lng":136.230608},{"town":"市姫五丁目","koaza":"","lat":36.202305,"lng":136.230905},{"town":"稲越","koaza":"","lat":36.203955,"lng":136.233826},{"town":"牛ノ谷","koaza":"","lat":36.255914,"lng":136.286176},{"town":"牛山","koaza":"","lat":36.239191,"lng":136.205658},{"town":"宇根","koaza":"","lat":36.240561,"lng":136.306063},{"town":"畝市野々","koaza":"","lat":36.247964,"lng":136.29339},{"town":"瓜生","koaza":"","lat":36.182992,"lng":136.275524},{"town":"大溝一丁目","koaza":"","lat":36.214039,"lng":136.222681},{"town":"大溝二丁目","koaza":"","lat":36.210637,"lng":136.222483},{"town":"大溝三丁目","koaza":"","lat":36.207701,"lng":136.22324},{"town":"温泉一丁目","koaza":"","lat":36.223856,"lng":136.193887},{"town":"温泉二丁目","koaza":"","lat":36.2256,"lng":136.194863},{"town":"温泉三丁目","koaza":"","lat":36.223874,"lng":136.19138},{"town":"温泉四丁目","koaza":"","lat":36.225385,"lng":136.19264},{"town":"温泉五丁目","koaza":"","lat":36.227399,"lng":136.192742},{"town":"柿原","koaza":"","lat":36.240208,"lng":136.240268},{"town":"鎌谷","koaza":"","lat":36.209589,"lng":136.297124},{"town":"河原井手","koaza":"","lat":36.194312,"lng":136.235678},{"town":"上番","koaza":"","lat":36.203142,"lng":136.212782},{"town":"北","koaza":"","lat":36.198775,"lng":136.269184},{"town":"北潟","koaza":"","lat":36.26276,"lng":136.226659},{"town":"北金津","koaza":"","lat":36.218358,"lng":136.216303},{"town":"北野","koaza":"","lat":36.201775,"lng":136.267642},{"town":"北疋田","koaza":"","lat":36.186256,"lng":136.268223},{"town":"北本堂","koaza":"","lat":36.212815,"lng":136.176617},{"town":"清滝","koaza":"","lat":36.207682,"lng":136.313783},{"town":"国影","koaza":"","lat":36.226227,"lng":136.204421},{"town":"熊坂","koaza":"","lat":36.229701,"lng":136.289299},{"town":"公文","koaza":"","lat":36.212738,"lng":136.180298},{"town":"桑原","koaza":"","lat":36.191584,"lng":136.254787},{"town":"河間","koaza":"","lat":36.202075,"lng":136.187088},{"town":"権世","koaza":"","lat":36.21507,"lng":136.290263},{"town":"権世市野々","koaza":"","lat":36.220953,"lng":136.300941},{"town":"坂口","koaza":"","lat":36.247339,"lng":136.239932},{"town":"笹岡","koaza":"","lat":36.214511,"lng":136.273383},{"town":"沢","koaza":"","lat":36.253049,"lng":136.268117},{"town":"重義","koaza":"","lat":36.215693,"lng":136.2082},{"town":"下金屋","koaza":"","lat":36.243422,"lng":136.282578},{"town":"下番","koaza":"","lat":36.199595,"lng":136.193834},{"town":"自由ヶ丘一丁目","koaza":"","lat":36.213207,"lng":136.237258},{"town":"自由ヶ丘二丁目","koaza":"","lat":36.218088,"lng":136.238007},{"town":"城","koaza":"","lat":36.253719,"lng":136.19156},{"town":"城新田","koaza":"","lat":36.254477,"lng":136.186467},{"town":"次郎丸","koaza":"","lat":36.189541,"lng":136.267822},{"town":"新","koaza":"","lat":36.197934,"lng":136.226746},{"town":"新用","koaza":"","lat":36.200233,"lng":136.226339},{"town":"菅野","koaza":"","lat":36.212849,"lng":136.247474},{"town":"角屋","koaza":"","lat":36.21315,"lng":136.170374},{"town":"清王","koaza":"","lat":36.23006,"lng":136.235191},{"town":"清間","koaza":"","lat":36.197078,"lng":136.249979},{"town":"高塚","koaza":"","lat":36.223463,"lng":136.234028},{"town":"滝","koaza":"","lat":36.240211,"lng":136.264001},{"town":"田中々","koaza":"","lat":36.21507,"lng":136.194744},{"town":"玉木","koaza":"","lat":36.207329,"lng":136.187801},{"town":"谷畠","koaza":"","lat":36.209441,"lng":136.212886},{"town":"東善寺","koaza":"","lat":36.2088,"lng":136.217755},{"town":"轟木","koaza":"","lat":36.195982,"lng":136.214503},{"town":"中浜","koaza":"","lat":36.201761,"lng":136.1783},{"town":"中番","koaza":"","lat":36.198833,"lng":136.201943},{"town":"波松","koaza":"","lat":36.262136,"lng":136.20141},{"town":"西温泉一丁目","koaza":"","lat":36.221634,"lng":136.185515},{"town":"西温泉二丁目","koaza":"","lat":36.221669,"lng":136.183537},{"town":"布目","koaza":"","lat":36.219251,"lng":136.180489},{"town":"橋屋","koaza":"","lat":36.269401,"lng":136.25925},{"town":"蓮ケ浦","koaza":"","lat":36.255566,"lng":136.24483},{"town":"花乃杜一丁目","koaza":"","lat":36.216926,"lng":136.222942},{"town":"花乃杜二丁目","koaza":"","lat":36.22161,"lng":136.226041},{"town":"花乃杜三丁目","koaza":"","lat":36.221246,"lng":136.222494},{"town":"花乃杜四丁目","koaza":"","lat":36.22156,"lng":136.218874},{"town":"花乃杜五丁目","koaza":"","lat":36.227615,"lng":136.225024},{"town":"馬場","koaza":"","lat":36.200651,"lng":136.222813},{"town":"浜坂","koaza":"","lat":36.284853,"lng":136.24247},{"town":"春宮一丁目","koaza":"","lat":36.215285,"lng":136.233846},{"town":"春宮二丁目","koaza":"","lat":36.217903,"lng":136.232088},{"town":"春宮三丁目","koaza":"","lat":36.219358,"lng":136.228394},{"town":"番田","koaza":"","lat":36.213415,"lng":136.20074},{"town":"番堂野","koaza":"","lat":36.25054,"lng":136.199935},{"town":"東温泉一丁目","koaza":"","lat":36.220511,"lng":136.199164},{"town":"東温泉二丁目","koaza":"","lat":36.22062,"lng":136.200874},{"town":"東田中","koaza":"","lat":36.194033,"lng":136.268256},{"town":"東山","koaza":"","lat":36.182787,"lng":136.288711},{"town":"樋山","koaza":"","lat":36.262674,"lng":136.26066},{"town":"二面","koaza":"","lat":36.233778,"lng":136.198825},{"town":"二面一丁目","koaza":"","lat":36.226703,"lng":136.198438},{"town":"二面二丁目","koaza":"","lat":36.226571,"lng":136.200248},{"town":"二面三丁目","koaza":"","lat":36.224095,"lng":136.199648},{"town":"二面四丁目","koaza":"","lat":36.22454,"lng":136.198412},{"town":"二面五丁目","koaza":"","lat":36.222272,"lng":136.198173},{"town":"舟津","koaza":"","lat":36.227732,"lng":136.187577},{"town":"舟津一丁目","koaza":"","lat":36.227782,"lng":136.190498},{"town":"舟津二丁目","koaza":"","lat":36.226543,"lng":136.190486},{"town":"舟津三丁目","koaza":"","lat":36.225375,"lng":136.190373},{"town":"舟津四丁目","koaza":"","lat":36.22331,"lng":136.190271},{"town":"古屋石塚","koaza":"","lat":36.184249,"lng":136.257731},{"town":"細呂木","koaza":"","lat":36.268581,"lng":136.247339},{"town":"堀江十楽","koaza":"","lat":36.216872,"lng":136.188748},{"town":"御簾尾","koaza":"","lat":36.19745,"lng":136.261936},{"town":"南金津","koaza":"","lat":36.203048,"lng":136.226126},{"town":"南疋田","koaza":"","lat":36.180892,"lng":136.266138},{"town":"宮谷","koaza":"","lat":36.22793,"lng":136.263774},{"town":"宮前","koaza":"","lat":36.211817,"lng":136.182701},{"town":"矢地","koaza":"","lat":36.205301,"lng":136.253717},{"town":"山西方寺","koaza":"","lat":36.233635,"lng":136.242774},{"town":"山十楽","koaza":"","lat":36.233797,"lng":136.226992},{"town":"山室","koaza":"","lat":36.220384,"lng":136.247282},{"town":"指中","koaza":"","lat":36.250433,"lng":136.255516},{"town":"横垣","koaza":"","lat":36.228906,"lng":136.216015},{"town":"吉崎","koaza":"","lat":36.282043,"lng":136.254336},{"town":"吉崎一丁目","koaza":"","lat":36.288984,"lng":136.251146},{"town":"吉崎二丁目","koaza":"","lat":36.289835,"lng":136.25342},{"town":"前谷","koaza":"","lat":36.205131,"lng":136.275249},{"town":"後山","koaza":"","lat":36.191394,"lng":136.289955},{"town":"椚","koaza":"","lat":36.20213,"lng":136.28277},{"town":"中川","koaza":"","lat":36.195568,"lng":136.276569}]