[{"town":"荒土町松ヶ崎","koaza":"","lat":36.073558,"lng":136.474504},{"town":"遅羽町ほうき","koaza":"","lat":36.033356,"lng":136.497148},{"town":"北谷町中野俣","koaza":"","lat":36.139501,"lng":136.542118},{"town":"野向町牛ヶ谷","koaza":"","lat":36.111466,"lng":136.525462},{"town":"平泉寺町岩ヶ野","koaza":"","lat":36.015165,"lng":136.546496},{"town":"松原","koaza":"","lat":36.066401,"lng":136.491355},{"town":"村岡町郡","koaza":"","lat":36.076622,"lng":136.504383},{"town":"村岡町滝波","koaza":"","lat":36.086084,"lng":136.515164},{"town":"旭毛屋町","koaza":"","lat":36.048632,"lng":136.511828},{"town":"旭町一丁目","koaza":"","lat":36.056845,"lng":136.508143},{"town":"旭町二丁目","koaza":"","lat":36.053076,"lng":136.509761},{"town":"旭町三丁目","koaza":"","lat":36.04983,"lng":136.51423},{"town":"荒土町伊波","koaza":"","lat":36.079886,"lng":136.467233},{"town":"荒土町北新在家","koaza":"","lat":36.084721,"lng":136.480959},{"town":"荒土町北宮地","koaza":"","lat":36.083738,"lng":136.466883},{"town":"荒土町清水島","koaza":"","lat":36.081657,"lng":136.484033},{"town":"荒土町新保","koaza":"","lat":36.073047,"lng":136.482259},{"town":"荒土町田名部","koaza":"","lat":36.078284,"lng":136.48049},{"town":"荒土町布市","koaza":"","lat":36.07979,"lng":136.48996},{"town":"荒土町別所","koaza":"","lat":36.089992,"lng":136.478107},{"town":"荒土町細野","koaza":"","lat":36.125642,"lng":136.479745},{"town":"荒土町細野口","koaza":"","lat":36.091753,"lng":136.464822},{"town":"荒土町堀名中清水","koaza":"","lat":36.084787,"lng":136.455403},{"town":"荒土町松田","koaza":"","lat":36.078743,"lng":136.473983},{"town":"荒土町妙金島","koaza":"","lat":36.075405,"lng":136.463038},{"town":"猪野","koaza":"","lat":36.043914,"lng":136.516915},{"town":"猪野口","koaza":"","lat":36.032593,"lng":136.516341},{"town":"猪野毛屋","koaza":"","lat":36.044377,"lng":136.509651},{"town":"遅羽町大袋","koaza":"","lat":36.036602,"lng":136.48397},{"town":"遅羽町北山","koaza":"","lat":36.04152,"lng":136.485967},{"town":"遅羽町下荒井","koaza":"","lat":36.024491,"lng":136.505217},{"town":"遅羽町比島","koaza":"","lat":36.061362,"lng":136.483536},{"town":"遅羽町比島","koaza":"中島","lat":36.052697,"lng":136.492822},{"town":"遅羽町比島","koaza":"千代田","lat":36.057297,"lng":136.491107},{"town":"遅羽町蓬生","koaza":"","lat":36.049429,"lng":136.490192},{"town":"片瀬","koaza":"","lat":36.051987,"lng":136.521833},{"town":"片瀬町一丁目","koaza":"","lat":36.054555,"lng":136.51415},{"town":"片瀬町二丁目","koaza":"","lat":36.051204,"lng":136.515926},{"town":"上高島","koaza":"","lat":36.040791,"lng":136.505078},{"town":"北市","koaza":"","lat":36.042819,"lng":136.509465},{"town":"北郷町伊知地","koaza":"","lat":36.103933,"lng":136.412535},{"town":"北郷町岩屋","koaza":"","lat":36.121084,"lng":136.44989},{"town":"北郷町志比原","koaza":"","lat":36.088196,"lng":136.437285},{"town":"北郷町西妙金島","koaza":"","lat":36.075527,"lng":136.453353},{"town":"北郷町坂東島","koaza":"","lat":36.085841,"lng":136.406059},{"town":"北郷町東野","koaza":"","lat":36.104867,"lng":136.42868},{"town":"北郷町檜曽谷","koaza":"","lat":36.086939,"lng":136.44864},{"town":"北郷町森川","koaza":"","lat":36.079285,"lng":136.439893},{"town":"北谷町小原","koaza":"","lat":36.078605,"lng":136.620457},{"town":"北谷町北六呂師","koaza":"","lat":36.101068,"lng":136.552507},{"town":"北谷町木根橋","koaza":"","lat":36.095006,"lng":136.581313},{"town":"北谷町河合","koaza":"","lat":36.103118,"lng":136.56059},{"town":"北谷町杉山","koaza":"","lat":36.11826,"lng":136.543716},{"town":"北谷町谷","koaza":"","lat":36.124596,"lng":136.579751},{"town":"北谷町中尾","koaza":"","lat":36.10176,"lng":136.544038},{"town":"毛屋町","koaza":"","lat":36.046101,"lng":136.510696},{"town":"郡町一丁目","koaza":"","lat":36.069595,"lng":136.497379},{"town":"郡町二丁目","koaza":"","lat":36.073494,"lng":136.50182},{"town":"郡町三丁目","koaza":"","lat":36.073076,"lng":136.49668},{"town":"栄町一丁目","koaza":"","lat":36.062415,"lng":136.497019},{"town":"栄町二丁目","koaza":"","lat":36.063212,"lng":136.495718},{"town":"栄町三丁目","koaza":"","lat":36.064925,"lng":136.498336},{"town":"栄町四丁目","koaza":"","lat":36.065449,"lng":136.49555},{"town":"栄町五丁目","koaza":"","lat":36.065802,"lng":136.49374},{"town":"沢町一丁目","koaza":"","lat":36.063506,"lng":136.500136},{"town":"沢町二丁目","koaza":"","lat":36.064291,"lng":136.502526},{"town":"鹿谷町北西俣","koaza":"","lat":36.042182,"lng":136.446299},{"town":"鹿谷町西光寺","koaza":"","lat":36.054137,"lng":136.453847},{"town":"鹿谷町志田","koaza":"","lat":36.064986,"lng":136.4629},{"town":"鹿谷町杉俣","koaza":"","lat":36.058532,"lng":136.47218},{"town":"鹿谷町西遅羽口","koaza":"","lat":36.048127,"lng":136.468974},{"town":"鹿谷町東遅羽口","koaza":"","lat":36.047844,"lng":136.476938},{"town":"鹿谷町保田","koaza":"","lat":36.063709,"lng":136.449213},{"town":"鹿谷町発坂","koaza":"","lat":36.06768,"lng":136.466962},{"town":"鹿谷町本郷","koaza":"","lat":36.055382,"lng":136.466201},{"town":"鹿谷町矢戸口","koaza":"","lat":36.032758,"lng":136.458469},{"town":"下毛屋","koaza":"","lat":36.046652,"lng":136.507398},{"town":"下高島","koaza":"","lat":36.053849,"lng":136.496616},{"town":"昭和町一丁目","koaza":"","lat":36.061901,"lng":136.50493},{"town":"昭和町二丁目","koaza":"","lat":36.06414,"lng":136.512403},{"town":"昭和町三丁目","koaza":"","lat":36.060722,"lng":136.508982},{"town":"滝波町一丁目","koaza":"","lat":36.069246,"lng":136.491227},{"town":"滝波町二丁目","koaza":"","lat":36.071856,"lng":136.493086},{"town":"滝波町三丁目","koaza":"","lat":36.069313,"lng":136.48602},{"town":"滝波町四丁目","koaza":"","lat":36.072833,"lng":136.486943},{"town":"滝波町五丁目","koaza":"","lat":36.075022,"lng":136.494259},{"town":"立川町一丁目","koaza":"","lat":36.054502,"lng":136.500169},{"town":"立川町二丁目","koaza":"","lat":36.050426,"lng":136.502276},{"town":"長山町一丁目","koaza":"","lat":36.067421,"lng":136.506568},{"town":"長山町二丁目","koaza":"","lat":36.069615,"lng":136.505142},{"town":"野向町北野津又","koaza":"","lat":36.108264,"lng":136.498178},{"town":"野向町竹林","koaza":"","lat":36.084266,"lng":136.490516},{"town":"野向町聖丸","koaza":"","lat":36.090951,"lng":136.497534},{"town":"野向町深谷","koaza":"","lat":36.095511,"lng":136.507309},{"town":"野向町薬師神谷","koaza":"","lat":36.095918,"lng":136.531095},{"town":"野向町横倉","koaza":"","lat":36.13109,"lng":136.511236},{"town":"野向町龍谷","koaza":"","lat":36.090441,"lng":136.490052},{"town":"平泉寺町赤尾","koaza":"","lat":36.029395,"lng":136.53769},{"town":"平泉寺町大矢谷","koaza":"","lat":36.020359,"lng":136.557438},{"town":"平泉寺町大渡","koaza":"","lat":36.025817,"lng":136.518321},{"town":"平泉寺町岡横江","koaza":"","lat":36.039492,"lng":136.517277},{"town":"平泉寺町壁倉","koaza":"","lat":36.020468,"lng":136.526359},{"town":"平泉寺町小矢谷","koaza":"","lat":36.028649,"lng":136.555991},{"town":"平泉寺町笹尾","koaza":"","lat":36.024846,"lng":136.532318},{"town":"平泉寺町平泉寺","koaza":"","lat":36.04474,"lng":136.582866},{"town":"本町一丁目","koaza":"","lat":36.061306,"lng":136.497002},{"town":"本町二丁目","koaza":"","lat":36.059829,"lng":136.497771},{"town":"本町三丁目","koaza":"","lat":36.058097,"lng":136.497967},{"town":"本町四丁目","koaza":"","lat":36.056787,"lng":136.498787},{"town":"村岡町暮見","koaza":"","lat":36.081981,"lng":136.530918},{"town":"村岡町黒原","koaza":"","lat":36.085598,"lng":136.501883},{"town":"村岡町五本寺","koaza":"","lat":36.080961,"lng":136.500919},{"town":"村岡町浄土寺","koaza":"","lat":36.071791,"lng":136.521161},{"town":"村岡町寺尾","koaza":"","lat":36.081118,"lng":136.515114},{"town":"村岡町栃神谷","koaza":"","lat":36.091035,"lng":136.545586},{"town":"元町一丁目","koaza":"","lat":36.060235,"lng":136.50192},{"town":"元町二丁目","koaza":"","lat":36.05616,"lng":136.502797},{"town":"元町三丁目","koaza":"","lat":36.051716,"lng":136.504727},{"town":"芳野","koaza":"","lat":36.071082,"lng":136.56092},{"town":"芳野町一丁目","koaza":"","lat":36.066065,"lng":136.502567},{"town":"芳野町二丁目","koaza":"","lat":36.068358,"lng":136.501367},{"town":"若猪野","koaza":"","lat":36.035785,"lng":136.508989}]