[{"town":"相木町","koaza":"","lat":35.932367,"lng":136.311394},{"town":"あおば町","koaza":"","lat":35.896762,"lng":136.167349},{"town":"赤坂町","koaza":"","lat":35.942714,"lng":136.24532},{"town":"赤谷町","koaza":"","lat":35.921059,"lng":136.291954},{"town":"味真野町","koaza":"","lat":35.887155,"lng":136.227897},{"town":"吾妻町","koaza":"","lat":35.900542,"lng":136.169925},{"town":"荒谷町","koaza":"","lat":35.87265,"lng":136.202433},{"town":"粟田部町","koaza":"","lat":35.91459,"lng":136.237887},{"town":"粟田部町中央一丁目","koaza":"","lat":35.918976,"lng":136.243241},{"town":"粟田部町中央二丁目","koaza":"","lat":35.919973,"lng":136.245279},{"town":"粟野町","koaza":"","lat":35.910083,"lng":136.04929},{"town":"安養寺町","koaza":"","lat":35.908246,"lng":136.075025},{"town":"家久町","koaza":"","lat":35.929543,"lng":136.168318},{"town":"池泉町","koaza":"","lat":35.888882,"lng":136.232682},{"town":"池ノ上町","koaza":"","lat":35.871768,"lng":136.134193},{"town":"市野々町","koaza":"","lat":35.905641,"lng":136.300137},{"town":"稲寄町","koaza":"","lat":35.920796,"lng":136.184969},{"town":"今宿町","koaza":"","lat":35.862574,"lng":136.16691},{"town":"入谷町","koaza":"","lat":35.874364,"lng":136.28809},{"town":"岩内町","koaza":"","lat":35.893757,"lng":136.203376},{"town":"岩本町","koaza":"","lat":35.907722,"lng":136.246942},{"town":"瓜生町","koaza":"","lat":35.924121,"lng":136.182703},{"town":"瓜生野町","koaza":"","lat":35.81976,"lng":136.142912},{"town":"不老町","koaza":"","lat":35.902415,"lng":136.242991},{"town":"大塩町","koaza":"","lat":35.847331,"lng":136.153162},{"town":"大滝町","koaza":"","lat":35.900101,"lng":136.256845},{"town":"大谷町","koaza":"","lat":35.917113,"lng":136.274585},{"town":"大手町","koaza":"","lat":35.887069,"lng":136.210961},{"town":"大平町","koaza":"","lat":35.905667,"lng":136.270703},{"town":"大虫町","koaza":"","lat":35.901502,"lng":136.110146},{"town":"大虫本町","koaza":"","lat":35.897189,"lng":136.139967},{"town":"大屋町","koaza":"","lat":35.895438,"lng":136.191855},{"town":"岡本町","koaza":"","lat":35.896729,"lng":136.14641},{"town":"押田一丁目","koaza":"","lat":35.9058,"lng":136.185198},{"town":"押田二丁目","koaza":"","lat":35.905331,"lng":136.188005},{"town":"小野谷町","koaza":"","lat":35.882144,"lng":136.183976},{"town":"春日野町","koaza":"","lat":35.855538,"lng":136.139356},{"town":"片屋町","koaza":"","lat":35.920532,"lng":136.147334},{"town":"桂町","koaza":"","lat":35.905604,"lng":136.16499},{"town":"金屋町","koaza":"","lat":35.904069,"lng":136.227699},{"town":"上太田町","koaza":"","lat":35.907029,"lng":136.148757},{"town":"上大坪町","koaza":"","lat":35.881402,"lng":136.22705},{"town":"上小松町","koaza":"","lat":35.841342,"lng":136.162624},{"town":"上四目町","koaza":"","lat":35.894331,"lng":136.132731},{"town":"上杉本町","koaza":"","lat":35.886522,"lng":136.059278},{"town":"上真柄町","koaza":"","lat":35.900727,"lng":136.220627},{"town":"萱谷町","koaza":"","lat":35.8678,"lng":136.222926},{"town":"北小山町","koaza":"","lat":35.899664,"lng":136.230652},{"town":"北府一丁目","koaza":"","lat":35.9146,"lng":136.172579},{"town":"北府二丁目","koaza":"","lat":35.914305,"lng":136.168451},{"town":"北府三丁目","koaza":"","lat":35.912314,"lng":136.164477},{"town":"北府四丁目","koaza":"","lat":35.917513,"lng":136.165603},{"town":"北府本町","koaza":"","lat":35.919213,"lng":136.16883},{"town":"北坂下町","koaza":"","lat":35.92128,"lng":136.267097},{"town":"北千福町","koaza":"","lat":35.898896,"lng":136.151886},{"town":"北町","koaza":"","lat":35.909222,"lng":136.214078},{"town":"北山町","koaza":"","lat":35.918551,"lng":136.134223},{"town":"京町一丁目","koaza":"","lat":35.903178,"lng":136.164951},{"town":"京町二丁目","koaza":"","lat":35.902464,"lng":136.162747},{"town":"京町三丁目","koaza":"","lat":35.90385,"lng":136.16277},{"town":"清根町","koaza":"","lat":35.939672,"lng":136.307373},{"town":"葛岡町","koaza":"","lat":35.902006,"lng":136.191848},{"town":"朽飯町","koaza":"","lat":35.935268,"lng":136.258497},{"town":"国兼町","koaza":"","lat":35.850253,"lng":136.170261},{"town":"国高一丁目","koaza":"","lat":35.910502,"lng":136.185408},{"town":"国高二丁目","koaza":"","lat":35.910363,"lng":136.188473},{"town":"国高三丁目","koaza":"","lat":35.914474,"lng":136.187174},{"town":"国中町","koaza":"","lat":35.934978,"lng":136.2356},{"town":"黒川町","koaza":"","lat":35.891655,"lng":136.069585},{"town":"勾当原町","koaza":"","lat":35.86722,"lng":136.081769},{"town":"向陽町","koaza":"","lat":35.873945,"lng":136.151959},{"town":"国府一丁目","koaza":"","lat":35.905439,"lng":136.167059},{"town":"国府二丁目","koaza":"","lat":35.907835,"lng":136.167515},{"town":"小杉町","koaza":"","lat":35.903877,"lng":136.054018},{"town":"小谷町","koaza":"","lat":35.870632,"lng":136.048512},{"town":"小野町","koaza":"","lat":35.881863,"lng":136.100868},{"town":"五分市町","koaza":"","lat":35.894224,"lng":136.230214},{"town":"小松一丁目","koaza":"","lat":35.904635,"lng":136.156713},{"town":"小松二丁目","koaza":"","lat":35.907217,"lng":136.155613},{"town":"米口町","koaza":"","lat":35.875888,"lng":136.054748},{"town":"幸町","koaza":"","lat":35.903909,"lng":136.16698},{"town":"定友町","koaza":"","lat":35.916874,"lng":136.248997},{"town":"沢町","koaza":"","lat":35.894196,"lng":136.150533},{"town":"芝原一丁目","koaza":"","lat":35.918013,"lng":136.162154},{"town":"芝原二丁目","koaza":"","lat":35.921036,"lng":136.163658},{"town":"芝原三丁目","koaza":"","lat":35.917023,"lng":136.157893},{"town":"芝原四丁目","koaza":"","lat":35.919488,"lng":136.159438},{"town":"芝原五丁目","koaza":"","lat":35.923176,"lng":136.162108},{"town":"島町","koaza":"","lat":35.910117,"lng":136.270685},{"town":"清水頭町","koaza":"","lat":35.892415,"lng":136.226597},{"town":"下太田町","koaza":"","lat":35.912343,"lng":136.150487},{"town":"下四目町","koaza":"","lat":35.903819,"lng":136.141922},{"town":"下中津原町","koaza":"","lat":35.861965,"lng":136.100618},{"town":"下平吹町","koaza":"","lat":35.869635,"lng":136.178739},{"town":"下別所町","koaza":"","lat":35.85008,"lng":136.088779},{"town":"庄町","koaza":"","lat":35.905965,"lng":136.199019},{"town":"庄田町","koaza":"","lat":35.885601,"lng":136.20585},{"town":"菖蒲谷町","koaza":"","lat":35.881432,"lng":136.045014},{"town":"勝蓮花町","koaza":"","lat":35.880872,"lng":136.085757},{"town":"四郎丸町","koaza":"","lat":35.869575,"lng":136.163687},{"town":"白崎町","koaza":"","lat":35.867744,"lng":136.148474},{"town":"新在家町","koaza":"","lat":35.911618,"lng":136.245873},{"town":"新町","koaza":"","lat":35.903742,"lng":136.152908},{"town":"新堂町","koaza":"","lat":35.942077,"lng":136.236593},{"town":"新保一丁目","koaza":"","lat":35.910661,"lng":136.156382},{"town":"新保二丁目","koaza":"","lat":35.913688,"lng":136.15614},{"town":"新保町","koaza":"","lat":35.911447,"lng":136.153671},{"town":"神明町","koaza":"","lat":35.898787,"lng":136.167347},{"town":"杉尾町","koaza":"","lat":35.915228,"lng":136.257945},{"town":"杉崎町","koaza":"","lat":35.900428,"lng":136.204889},{"town":"菅町","koaza":"","lat":35.863119,"lng":136.049108},{"town":"住吉町","koaza":"","lat":35.898633,"lng":136.169708},{"town":"千合谷町","koaza":"","lat":35.890143,"lng":136.032914},{"town":"千福町","koaza":"","lat":35.889281,"lng":136.154787},{"town":"曽原町","koaza":"","lat":35.912951,"lng":136.056876},{"town":"高岡町","koaza":"","lat":35.932731,"lng":136.26234},{"town":"高木町","koaza":"","lat":35.924319,"lng":136.195595},{"town":"高瀬一丁目","koaza":"","lat":35.895461,"lng":136.157765},{"town":"高瀬二丁目","koaza":"","lat":35.899157,"lng":136.158226},{"town":"高森町","koaza":"","lat":35.906123,"lng":136.139629},{"town":"武生柳町","koaza":"","lat":35.895785,"lng":136.165048},{"town":"千原町","koaza":"","lat":35.908509,"lng":136.238175},{"town":"中央一丁目","koaza":"","lat":35.901183,"lng":136.158074},{"town":"中央二丁目","koaza":"","lat":35.902627,"lng":136.156725},{"town":"長五町","koaza":"","lat":35.90815,"lng":136.2788},{"town":"塚町","koaza":"","lat":35.913628,"lng":136.196429},{"town":"塚原町","koaza":"","lat":35.8697,"lng":136.155164},{"town":"月見町","koaza":"","lat":35.878092,"lng":136.16197},{"town":"土山町","koaza":"","lat":35.87541,"lng":136.043752},{"town":"常久町","koaza":"","lat":35.886239,"lng":136.163916},{"town":"寺地町","koaza":"","lat":35.935398,"lng":136.28967},{"town":"天王町","koaza":"","lat":35.900667,"lng":136.167424},{"town":"戸谷町","koaza":"","lat":35.919332,"lng":136.222942},{"town":"轟井町","koaza":"","lat":35.911771,"lng":136.264295},{"town":"殿町","koaza":"","lat":35.919333,"lng":136.270395},{"town":"都辺町","koaza":"","lat":35.888387,"lng":136.054142},{"town":"中居町","koaza":"","lat":35.883676,"lng":136.295916},{"town":"中印町","koaza":"","lat":35.894721,"lng":136.272986},{"town":"長尾町","koaza":"","lat":35.921671,"lng":136.218048},{"town":"中新庄町","koaza":"","lat":35.92701,"lng":136.213812},{"town":"長谷町","koaza":"","lat":35.926304,"lng":136.281449},{"town":"中津原町","koaza":"","lat":35.852317,"lng":136.107457},{"town":"中津山町","koaza":"","lat":35.92853,"lng":136.234042},{"town":"長土呂町","koaza":"","lat":35.918612,"lng":136.189955},{"town":"中野町","koaza":"","lat":35.893059,"lng":136.05006},{"town":"中平吹町","koaza":"","lat":35.861109,"lng":136.18913},{"town":"中山町","koaza":"","lat":35.858026,"lng":136.063805},{"town":"波垣町","koaza":"","lat":35.933649,"lng":136.284176},{"town":"畷町","koaza":"","lat":35.887365,"lng":136.166039},{"town":"二階堂町","koaza":"","lat":35.887283,"lng":136.045469},{"town":"西尾町","koaza":"","lat":35.890008,"lng":136.216165},{"town":"西樫尾町","koaza":"","lat":35.915361,"lng":136.229222},{"town":"錦町","koaza":"","lat":35.902557,"lng":136.172645},{"town":"西河内町","koaza":"","lat":35.927119,"lng":136.322549},{"town":"西庄境町","koaza":"","lat":35.932987,"lng":136.247436},{"town":"西谷町","koaza":"","lat":35.877321,"lng":136.192476},{"town":"丹生郷町","koaza":"","lat":35.909184,"lng":136.141476},{"town":"野岡町","koaza":"","lat":35.92655,"lng":136.251006},{"town":"野上町一丁目","koaza":"","lat":35.899992,"lng":136.149666},{"town":"野上町二丁目","koaza":"","lat":35.898321,"lng":136.149499},{"town":"野上町三丁目","koaza":"","lat":35.900154,"lng":136.147864},{"town":"萩原町","koaza":"","lat":35.895518,"lng":136.054855},{"town":"余田町","koaza":"","lat":35.933036,"lng":136.146406},{"town":"馬上免町","koaza":"","lat":35.917136,"lng":136.18569},{"town":"畑町","koaza":"","lat":35.879578,"lng":136.178263},{"town":"八石町","koaza":"","lat":35.902485,"lng":136.280443},{"town":"八幡一丁目","koaza":"","lat":35.911706,"lng":136.175407},{"town":"八幡二丁目","koaza":"","lat":35.915851,"lng":136.177026},{"town":"春山町","koaza":"","lat":35.932824,"lng":136.278742},{"town":"万代町","koaza":"","lat":35.906814,"lng":136.171722},{"town":"桧尾谷町","koaza":"","lat":35.881941,"lng":136.251304},{"town":"東樫尾町","koaza":"","lat":35.940082,"lng":136.280831},{"town":"東庄境町","koaza":"","lat":35.937509,"lng":136.253127},{"town":"東千福町","koaza":"","lat":35.890928,"lng":136.15805},{"town":"氷坂町","koaza":"","lat":35.928087,"lng":136.13889},{"town":"日野美一丁目","koaza":"","lat":35.899584,"lng":136.154969},{"town":"日野美二丁目","koaza":"","lat":35.899485,"lng":136.153948},{"town":"姫川一丁目","koaza":"","lat":35.890681,"lng":136.169095},{"town":"姫川二丁目","koaza":"","lat":35.894624,"lng":136.171111},{"town":"平出一丁目","koaza":"","lat":35.907986,"lng":136.160086},{"town":"平出二丁目","koaza":"","lat":35.911496,"lng":136.160766},{"town":"平出三丁目","koaza":"","lat":35.915824,"lng":136.161007},{"town":"平林町","koaza":"","lat":35.884063,"lng":136.199566},{"town":"広瀬町","koaza":"","lat":35.877729,"lng":136.119876},{"town":"深草一丁目","koaza":"","lat":35.903532,"lng":136.160134},{"town":"深草二丁目","koaza":"","lat":35.906073,"lng":136.160942},{"town":"藤木町","koaza":"","lat":35.933567,"lng":136.266471},{"town":"富士見が丘一丁目","koaza":"","lat":35.872686,"lng":136.168567},{"town":"富士見が丘二丁目","koaza":"","lat":35.872483,"lng":136.170658},{"town":"府中一丁目","koaza":"","lat":35.902913,"lng":136.169778},{"town":"府中二丁目","koaza":"","lat":35.905284,"lng":136.169583},{"town":"府中三丁目","koaza":"","lat":35.907878,"lng":136.16958},{"town":"文室町","koaza":"","lat":35.86297,"lng":136.253159},{"town":"文京一丁目","koaza":"","lat":35.890566,"lng":136.161944},{"town":"文京二丁目","koaza":"","lat":35.893815,"lng":136.161394},{"town":"平和町","koaza":"","lat":35.899076,"lng":136.162592},{"town":"別印町","koaza":"","lat":35.890525,"lng":136.306783},{"town":"蓬莱町","koaza":"","lat":35.902363,"lng":136.166999},{"town":"仏谷町","koaza":"","lat":35.872235,"lng":136.058434},{"town":"帆山町","koaza":"","lat":35.895021,"lng":136.178104},{"town":"堀川町","koaza":"","lat":35.899318,"lng":136.172869},{"town":"堀町","koaza":"","lat":35.881697,"lng":136.051797},{"town":"本多一丁目","koaza":"","lat":35.905764,"lng":136.163169},{"town":"本多二丁目","koaza":"","lat":35.907873,"lng":136.165249},{"town":"本多三丁目","koaza":"","lat":35.907937,"lng":136.163557},{"town":"本保町","koaza":"","lat":35.928917,"lng":136.158738},{"town":"本町","koaza":"","lat":35.899091,"lng":136.165075},{"town":"真柄町","koaza":"","lat":35.902704,"lng":136.211169},{"town":"牧町","koaza":"","lat":35.901604,"lng":136.047503},{"town":"松森町","koaza":"","lat":35.882824,"lng":136.165634},{"town":"丸岡町","koaza":"","lat":35.876096,"lng":136.069586},{"town":"水間町","koaza":"","lat":35.91309,"lng":136.283434},{"town":"三ツ口町","koaza":"","lat":35.887003,"lng":136.158026},{"town":"三ツ俣町","koaza":"","lat":35.90808,"lng":136.126752},{"town":"三ツ屋町","koaza":"","lat":35.918523,"lng":136.205249},{"town":"南一丁目","koaza":"","lat":35.889744,"lng":136.165434},{"town":"南二丁目","koaza":"","lat":35.89162,"lng":136.165834},{"town":"南三丁目","koaza":"","lat":35.893178,"lng":136.16506},{"town":"南小山町","koaza":"","lat":35.89463,"lng":136.241825},{"town":"南坂下町","koaza":"","lat":35.894016,"lng":136.294874},{"town":"南中町","koaza":"","lat":35.921279,"lng":136.279919},{"town":"蓑脇町","koaza":"","lat":35.881303,"lng":136.261759},{"town":"宮谷町","koaza":"","lat":35.881806,"lng":136.217527},{"town":"御幸町","koaza":"","lat":35.895697,"lng":136.162815},{"town":"妙法寺町","koaza":"","lat":35.878871,"lng":136.156997},{"town":"向新保町","koaza":"","lat":35.878141,"lng":136.171558},{"town":"向が丘町","koaza":"","lat":35.893399,"lng":136.136926},{"town":"村国一丁目","koaza":"","lat":35.90335,"lng":136.177259},{"town":"村国二丁目","koaza":"","lat":35.906078,"lng":136.176407},{"town":"村国三丁目","koaza":"","lat":35.910907,"lng":136.180825},{"town":"村国四丁目","koaza":"","lat":35.915404,"lng":136.181725},{"town":"村国町","koaza":"","lat":35.902287,"lng":136.181738},{"town":"室谷町","koaza":"","lat":35.927881,"lng":136.266693},{"town":"元町","koaza":"","lat":35.901003,"lng":136.164882},{"town":"森久町","koaza":"","lat":35.834539,"lng":136.15215},{"town":"安戸町","koaza":"","lat":35.872001,"lng":136.036846},{"town":"柳元町","koaza":"","lat":35.913903,"lng":136.297527},{"town":"矢放町","koaza":"","lat":35.889433,"lng":136.184356},{"town":"矢船町","koaza":"","lat":35.888157,"lng":136.174488},{"town":"山室町","koaza":"","lat":35.924233,"lng":136.257223},{"town":"行松町","koaza":"","lat":35.877889,"lng":136.165499},{"town":"豊町","koaza":"","lat":35.896215,"lng":136.169148},{"town":"湯谷町","koaza":"","lat":35.854595,"lng":136.077595},{"town":"余川町","koaza":"","lat":35.886304,"lng":136.241554},{"town":"横市町","koaza":"","lat":35.908894,"lng":136.195275},{"town":"横住町","koaza":"","lat":35.931322,"lng":136.300721},{"town":"横根町","koaza":"","lat":35.911951,"lng":136.128902},{"town":"領家町","koaza":"","lat":35.935754,"lng":136.272344},{"town":"若須町","koaza":"","lat":35.897777,"lng":136.039485},{"town":"若竹町","koaza":"","lat":35.893754,"lng":136.167605},{"town":"若松町","koaza":"","lat":35.901086,"lng":136.162107},{"town":"行松町","koaza":"一丁目","lat":35.87913,"lng":136.166895},{"town":"家久町","koaza":"一丁目","lat":35.930842,"lng":136.168165},{"town":"家久町","koaza":"二丁目","lat":35.931845,"lng":136.169835},{"town":"行松町","koaza":"二丁目","lat":35.878129,"lng":136.167247},{"town":"上真柄町","koaza":"宮谷入会地","lat":35.886163,"lng":136.220111}]