[{"town":"赤川町","lat":"41.267566","lng":"141.212019"},{"town":"旭町","lat":"41.289548","lng":"141.178289"},{"town":"荒川町","lat":"41.296271","lng":"141.164227"},{"town":"宇田町","lat":"41.258701","lng":"141.142504"},{"town":"海老川町","lat":"41.288861","lng":"141.201764"},{"town":"大字大平","lat":"41.296962","lng":"141.164532"},{"town":"大字大湊","lat":"41.262716","lng":"141.128581"},{"town":"大字奥内","lat":"41.217975","lng":"141.285132"},{"town":"大字城ヶ沢","lat":"41.231788","lng":"141.106034"},{"town":"大字関根","lat":"41.359506","lng":"141.207815"},{"town":"大字田名部","lat":"41.289767","lng":"141.236132"},{"town":"大字中野沢","lat":"41.170953","lng":"141.283290"},{"town":"大平町","lat":"41.282212","lng":"141.166927"},{"town":"大畑町","lat":"41.371460","lng":"141.039145"},{"town":"大曲一丁目","lat":"41.268086","lng":"141.217911"},{"town":"大曲二丁目","lat":"41.260757","lng":"141.223802"},{"town":"大曲三丁目","lat":"41.255234","lng":"141.227805"},{"town":"大湊上町","lat":"41.271447","lng":"141.153144"},{"town":"大湊新町","lat":"41.283699","lng":"141.159350"},{"town":"大湊町","lat":"41.250586","lng":"141.137572"},{"town":"大湊浜町","lat":"41.278390","lng":"141.156245"},{"town":"金曲一丁目","lat":"41.281670","lng":"141.209555"},{"town":"金曲二丁目","lat":"41.276425","lng":"141.213529"},{"town":"金曲三丁目","lat":"41.274127","lng":"141.211088"},{"town":"金谷一丁目","lat":"41.296225","lng":"141.198060"},{"town":"金谷二丁目","lat":"41.294446","lng":"141.191863"},{"town":"上川町","lat":"41.300205","lng":"141.220333"},{"town":"川内町","lat":"41.268681","lng":"140.982645"},{"town":"川内町蛎崎","lat":"41.175498","lng":"140.889897"},{"town":"川内町宿野部","lat":"41.189888","lng":"140.934983"},{"town":"川内町桧川","lat":"41.195058","lng":"140.959602"},{"town":"川守町","lat":"41.263799","lng":"141.148924"},{"town":"栗山町","lat":"41.303660","lng":"141.207432"},{"town":"小川町一丁目","lat":"41.296664","lng":"141.204290"},{"town":"小川町二丁目","lat":"41.296098","lng":"141.209385"},{"town":"桜木町","lat":"41.251194","lng":"141.132358"},{"town":"下北町","lat":"41.285365","lng":"141.191384"},{"town":"十二林","lat":"41.297953","lng":"141.188547"},{"town":"昭和町","lat":"41.284196","lng":"141.204202"},{"town":"新町","lat":"41.288891","lng":"141.212097"},{"town":"田名部町","lat":"41.295559","lng":"141.215603"},{"town":"中央一丁目","lat":"41.292589","lng":"141.186225"},{"town":"中央二丁目","lat":"41.290081","lng":"141.183463"},{"town":"苫生町一丁目","lat":"41.286608","lng":"141.219049"},{"town":"苫生町二丁目","lat":"41.283159","lng":"141.214627"},{"town":"仲町","lat":"41.280998","lng":"141.198102"},{"town":"並川町","lat":"41.289006","lng":"141.162235"},{"town":"文京町","lat":"41.289663","lng":"141.167083"},{"town":"本町","lat":"41.294465","lng":"141.212664"},{"town":"真砂町","lat":"41.282260","lng":"141.177063"},{"town":"松原町","lat":"41.267728","lng":"141.206382"},{"town":"松森町","lat":"41.299198","lng":"141.158334"},{"town":"松山町","lat":"41.301348","lng":"141.197744"},{"town":"美里町","lat":"41.300093","lng":"141.182652"},{"town":"緑ヶ丘","lat":"41.300607","lng":"141.190785"},{"town":"緑町","lat":"41.287289","lng":"141.195977"},{"town":"港町","lat":"41.278766","lng":"141.181960"},{"town":"南赤川町","lat":"41.257735","lng":"141.220032"},{"town":"南町","lat":"41.273274","lng":"141.205706"},{"town":"柳町一丁目","lat":"41.297053","lng":"141.213725"},{"town":"柳町二丁目","lat":"41.299806","lng":"141.213901"},{"town":"柳町三丁目","lat":"41.302697","lng":"141.215389"},{"town":"柳町四丁目","lat":"41.305832","lng":"141.214494"},{"town":"山田町","lat":"41.291676","lng":"141.171599"},{"town":"横迎町一丁目","lat":"41.291144","lng":"141.220267"},{"town":"横迎町二丁目","lat":"41.295398","lng":"141.220762"},{"town":"若松町","lat":"41.277073","lng":"141.201833"},{"town":"脇野沢","lat":"41.176862","lng":"140.824708"}]