[{"town":"大字居土","lat":"40.493720","lng":"140.529435"},{"town":"大字大鰐","lat":"40.509444","lng":"140.577860"},{"town":"大字唐牛","lat":"40.494569","lng":"140.606161"},{"town":"大字蔵館","lat":"40.527735","lng":"140.578573"},{"town":"大字駒木","lat":"40.518023","lng":"140.631222"},{"town":"大字鯖石","lat":"40.534389","lng":"140.554448"},{"town":"大字島田","lat":"40.477375","lng":"140.580839"},{"town":"大字宿川原","lat":"40.527282","lng":"140.560940"},{"town":"大字長峰","lat":"40.523778","lng":"140.611726"},{"town":"大字苦木","lat":"40.507950","lng":"140.594944"},{"town":"大字虹貝","lat":"40.507480","lng":"140.561182"},{"town":"大字八幡館","lat":"40.537966","lng":"140.565511"},{"town":"大字早瀬野","lat":"40.484504","lng":"140.556078"},{"town":"大字三ツ目内","lat":"40.512854","lng":"140.542241"},{"town":"大字森山","lat":"40.535984","lng":"140.545025"}]