[{"town":"大字柏木堰","lat":"40.693127","lng":"140.513657"},{"town":"大字亀岡","lat":"40.691783","lng":"140.494718"},{"town":"大字久井名舘","lat":"40.693778","lng":"140.533330"},{"town":"大字葛野","lat":"40.662351","lng":"140.502059"},{"town":"大字郷山前","lat":"40.717804","lng":"140.526649"},{"town":"大字小畑","lat":"40.661883","lng":"140.520014"},{"town":"大字五林","lat":"40.679391","lng":"140.491223"},{"town":"大字榊","lat":"40.669079","lng":"140.529346"},{"town":"大字下俵舛","lat":"40.703041","lng":"140.504772"},{"town":"大字俵舛","lat":"40.696921","lng":"140.504846"},{"town":"大字常盤","lat":"40.667073","lng":"140.545379"},{"town":"大字富柳","lat":"40.700184","lng":"140.534361"},{"town":"大字中島","lat":"40.673946","lng":"140.519577"},{"town":"大字中野目","lat":"40.683078","lng":"140.503896"},{"town":"大字西豊田一丁目","lat":"40.655928","lng":"140.501966"},{"town":"大字西豊田二丁目","lat":"40.654091","lng":"140.503197"},{"town":"大字西豊田三丁目","lat":"40.652449","lng":"140.504316"},{"town":"大字西中野目","lat":"40.694275","lng":"140.500068"},{"town":"大字林崎","lat":"40.674639","lng":"140.484056"},{"town":"大字福舘","lat":"40.710014","lng":"140.529678"},{"town":"大字藤越","lat":"40.650926","lng":"140.515729"},{"town":"大字藤崎","lat":"40.658020","lng":"140.481122"},{"town":"大字増館","lat":"40.673823","lng":"140.548238"},{"town":"大字水木","lat":"40.683245","lng":"140.531128"},{"town":"大字水沼","lat":"40.669457","lng":"140.504142"},{"town":"大字矢沢","lat":"40.671986","lng":"140.513321"},{"town":"大字吉野田","lat":"40.716396","lng":"140.528045"},{"town":"大字吉向","lat":"40.687166","lng":"140.503780"},{"town":"大字若松","lat":"40.664520","lng":"140.537618"},{"town":"大字徳下","lat":"40.666596","lng":"140.555640"},{"town":"大字福島","lat":"40.679981","lng":"140.566899"},{"town":"大字三ツ屋","lat":"40.671150","lng":"140.564956"}]