[{"town":"胆沢小山","koaza":"","lat":"39.091826","lng":"141.054452"},{"town":"胆沢南都田","koaza":"","lat":"39.135886","lng":"141.092873"},{"town":"胆沢若柳","koaza":"","lat":"39.097522","lng":"140.830218"},{"town":"江刺伊手","koaza":"","lat":"39.168598","lng":"141.323613"},{"town":"江刺稲瀬","koaza":"","lat":"39.233676","lng":"141.140228"},{"town":"江刺岩谷堂","koaza":"","lat":"39.203392","lng":"141.189612"},{"town":"江刺大通り","koaza":"","lat":"39.192858","lng":"141.175403"},{"town":"江刺愛宕","koaza":"","lat":"39.172712","lng":"141.165196"},{"town":"江刺男石一丁目","koaza":"","lat":"39.197152","lng":"141.176898"},{"town":"江刺男石二丁目","koaza":"","lat":"39.197084","lng":"141.174130"},{"town":"江刺男石三丁目","koaza":"","lat":"39.199032","lng":"141.173391"},{"town":"江刺川原町","koaza":"","lat":"39.188795","lng":"141.180376"},{"town":"江刺栄町","koaza":"","lat":"39.185992","lng":"141.184824"},{"town":"江刺杉ノ町","koaza":"","lat":"39.183551","lng":"141.173922"},{"town":"江刺銭町","koaza":"","lat":"39.194245","lng":"141.176897"},{"town":"江刺館山","koaza":"","lat":"39.194216","lng":"141.180266"},{"town":"江刺玉里","koaza":"","lat":"39.217765","lng":"141.249656"},{"town":"江刺田原","koaza":"","lat":"39.133851","lng":"141.254278"},{"town":"江刺重染寺","koaza":"","lat":"39.194782","lng":"141.185092"},{"town":"江刺豊田町一丁目","koaza":"","lat":"39.183767","lng":"141.177155"},{"town":"江刺豊田町二丁目","koaza":"","lat":"39.184167","lng":"141.179174"},{"town":"江刺豊田町三丁目","koaza":"","lat":"39.184352","lng":"141.181250"},{"town":"江刺中町","koaza":"","lat":"39.188376","lng":"141.178959"},{"town":"江刺西大通り","koaza":"","lat":"39.193521","lng":"141.172616"},{"town":"江刺広瀬","koaza":"","lat":"39.250197","lng":"141.221564"},{"town":"江刺藤里","koaza":"","lat":"39.174652","lng":"141.250788"},{"town":"江刺本町","koaza":"","lat":"39.192258","lng":"141.180856"},{"town":"江刺前田町","koaza":"","lat":"39.198603","lng":"141.186438"},{"town":"江刺南大通り","koaza":"","lat":"39.187994","lng":"141.177002"},{"town":"江刺南町","koaza":"","lat":"39.190529","lng":"141.183082"},{"town":"江刺六日町","koaza":"","lat":"39.192275","lng":"141.177835"},{"town":"江刺梁川","koaza":"","lat":"39.280554","lng":"141.276340"},{"town":"江刺八日町一丁目","koaza":"","lat":"39.186816","lng":"141.173372"},{"town":"江刺八日町二丁目","koaza":"","lat":"39.186585","lng":"141.168901"},{"town":"江刺米里","koaza":"","lat":"39.220886","lng":"141.343707"},{"town":"衣川愛宕下","koaza":"","lat":"39.016120","lng":"141.108998"},{"town":"衣川天田","koaza":"","lat":"39.075970","lng":"141.020334"},{"town":"衣川天土","koaza":"","lat":"39.018004","lng":"141.039292"},{"town":"衣川有浦","koaza":"","lat":"39.078042","lng":"140.969786"},{"town":"衣川池田","koaza":"","lat":"39.009141","lng":"141.109911"},{"town":"衣川池田西","koaza":"","lat":"39.008208","lng":"141.106193"},{"town":"衣川石ヶ沢","koaza":"","lat":"39.044298","lng":"141.051560"},{"town":"衣川石神","koaza":"","lat":"39.038869","lng":"141.050813"},{"town":"衣川石生","koaza":"","lat":"39.080068","lng":"141.012517"},{"town":"衣川板倉","koaza":"","lat":"39.057920","lng":"141.033936"},{"town":"衣川一本木東","koaza":"","lat":"39.013506","lng":"141.104337"},{"town":"衣川岩の上","koaza":"","lat":"39.032073","lng":"141.061390"},{"town":"衣川後滝の沢","koaza":"","lat":"39.012028","lng":"141.057354"},{"town":"衣川後山","koaza":"","lat":"39.035472","lng":"140.972345"},{"town":"衣川畦畑","koaza":"","lat":"39.016857","lng":"141.001829"},{"town":"衣川畦畑山","koaza":"","lat":"39.022090","lng":"141.007082"},{"town":"衣川采女沢","koaza":"","lat":"39.016200","lng":"141.103082"},{"town":"衣川姥神谷起","koaza":"","lat":"39.012775","lng":"141.092900"},{"town":"衣川上野","koaza":"","lat":"39.009319","lng":"141.098084"},{"town":"衣川雲南田","koaza":"","lat":"39.064646","lng":"141.031411"},{"town":"衣川雲南田向","koaza":"","lat":"39.049167","lng":"141.031215"},{"town":"衣川大石ヶ沢","koaza":"","lat":"39.006845","lng":"141.105104"},{"town":"衣川大坂","koaza":"","lat":"39.023288","lng":"141.075685"},{"town":"衣川大平","koaza":"","lat":"39.076506","lng":"140.953793"},{"town":"衣川大面","koaza":"","lat":"39.021975","lng":"141.085185"},{"town":"衣川大西","koaza":"","lat":"39.033691","lng":"141.072544"},{"town":"衣川大原","koaza":"","lat":"39.003499","lng":"141.000717"},{"town":"衣川大原山","koaza":"","lat":"39.011839","lng":"140.982846"},{"town":"衣川荻ヶ袋","koaza":"","lat":"39.018618","lng":"141.085947"},{"town":"衣川沖田","koaza":"","lat":"39.022744","lng":"141.083123"},{"town":"衣川沖の野","koaza":"","lat":"39.035840","lng":"141.058024"},{"town":"衣川押切","koaza":"","lat":"39.006186","lng":"141.108868"},{"town":"衣川表","koaza":"","lat":"39.013130","lng":"141.084046"},{"town":"衣川女石","koaza":"","lat":"39.043992","lng":"141.045929"},{"town":"衣川懸田","koaza":"","lat":"39.050755","lng":"141.049618"},{"town":"衣川月山","koaza":"","lat":"39.007798","lng":"141.082149"},{"town":"衣川壁ヶ沢","koaza":"","lat":"39.012595","lng":"141.033074"},{"town":"衣川上大森","koaza":"","lat":"39.050489","lng":"141.001872"},{"town":"衣川上河内","koaza":"","lat":"39.007368","lng":"141.018964"},{"town":"衣川上川原","koaza":"","lat":"39.017320","lng":"141.079371"},{"town":"衣川上小路","koaza":"","lat":"39.023508","lng":"141.088352"},{"town":"衣川上立沢","koaza":"","lat":"39.032419","lng":"140.954624"},{"town":"衣川上寺田","koaza":"","lat":"39.050494","lng":"141.042821"},{"town":"衣川唐金","koaza":"","lat":"39.009389","lng":"141.101457"},{"town":"衣川川端","koaza":"","lat":"39.006195","lng":"141.088879"},{"town":"衣川金成","koaza":"","lat":"39.019520","lng":"141.070762"},{"town":"衣川北沢","koaza":"","lat":"39.027745","lng":"141.039842"},{"town":"衣川衣原","koaza":"","lat":"39.089645","lng":"140.993305"},{"town":"衣川旧殿","koaza":"","lat":"39.032492","lng":"141.058419"},{"town":"衣川国見","koaza":"","lat":"39.062980","lng":"141.000947"},{"town":"衣川窪田","koaza":"","lat":"39.049114","lng":"141.038863"},{"town":"衣川鞍掛","koaza":"","lat":"39.027127","lng":"141.037058"},{"town":"衣川九輪堂","koaza":"","lat":"39.010668","lng":"141.106629"},{"town":"衣川桑木谷地","koaza":"","lat":"39.023116","lng":"141.078039"},{"town":"衣川桑畑","koaza":"","lat":"39.064081","lng":"141.018691"},{"town":"衣川小安代","koaza":"","lat":"39.058794","lng":"141.039686"},{"town":"衣川小田","koaza":"","lat":"39.078537","lng":"140.980276"},{"town":"衣川小成沢","koaza":"","lat":"39.010790","lng":"141.079416"},{"town":"衣川小林","koaza":"","lat":"39.011687","lng":"141.102134"},{"town":"衣川小林山","koaza":"","lat":"39.024808","lng":"141.041911"},{"town":"衣川小正板","koaza":"","lat":"39.055167","lng":"141.046200"},{"town":"衣川駒場","koaza":"","lat":"39.037582","lng":"141.063143"},{"town":"衣川小水沢","koaza":"","lat":"39.028664","lng":"141.066629"},{"town":"衣川桜瀬","koaza":"","lat":"39.010145","lng":"141.092113"},{"town":"衣川沢田","koaza":"","lat":"39.031805","lng":"141.081508"},{"town":"衣川清水の上","koaza":"","lat":"39.010001","lng":"141.095342"},{"town":"衣川下大森","koaza":"","lat":"39.044490","lng":"140.994393"},{"town":"衣川下河内","koaza":"","lat":"39.015082","lng":"141.030851"},{"town":"衣川下立沢","koaza":"","lat":"39.003694","lng":"140.987280"},{"town":"衣川下寺田","koaza":"","lat":"39.046924","lng":"141.045611"},{"town":"衣川十一ケ銘","koaza":"","lat":"39.057923","lng":"141.053279"},{"town":"衣川菖蒲平","koaza":"","lat":"39.031466","lng":"141.027054"},{"town":"衣川陣場下","koaza":"","lat":"39.016225","lng":"141.105743"},{"town":"衣川杉野","koaza":"","lat":"39.034478","lng":"141.067432"},{"town":"衣川杉林","koaza":"","lat":"39.020148","lng":"141.083214"},{"town":"衣川杉谷起","koaza":"","lat":"39.032063","lng":"141.069613"},{"town":"衣川堰下","koaza":"","lat":"39.018894","lng":"141.096809"},{"town":"衣川関袋","koaza":"","lat":"39.039161","lng":"141.056372"},{"town":"衣川関谷起","koaza":"","lat":"39.005300","lng":"141.096310"},{"town":"衣川瀬原","koaza":"","lat":"39.014257","lng":"141.109716"},{"town":"衣川瀬原西浦","koaza":"","lat":"39.013672","lng":"141.106928"},{"town":"衣川噌味","koaza":"","lat":"38.996811","lng":"141.016559"},{"town":"衣川外の沢","koaza":"","lat":"39.093070","lng":"140.995119"},{"town":"衣川鷹の巣","koaza":"","lat":"38.993655","lng":"140.992486"},{"town":"衣川高保呂","koaza":"","lat":"39.034455","lng":"141.076964"},{"town":"衣川竹の中","koaza":"","lat":"39.033427","lng":"141.057234"},{"town":"衣川館城","koaza":"","lat":"39.029335","lng":"141.075203"},{"town":"衣川田中","koaza":"","lat":"39.016210","lng":"141.101376"},{"town":"衣川田中西","koaza":"","lat":"39.012799","lng":"141.098531"},{"town":"衣川長塚","koaza":"","lat":"39.063856","lng":"140.976396"},{"town":"衣川土屋","koaza":"","lat":"39.022391","lng":"141.064657"},{"town":"衣川土屋谷起","koaza":"","lat":"39.026596","lng":"141.075488"},{"town":"衣川寺袋","koaza":"","lat":"39.019623","lng":"141.078650"},{"town":"衣川寺袋谷起","koaza":"","lat":"39.017065","lng":"141.076750"},{"town":"衣川徳沢","koaza":"","lat":"39.028866","lng":"141.102886"},{"town":"衣川富沢","koaza":"","lat":"39.040977","lng":"141.048015"},{"town":"衣川富田","koaza":"","lat":"39.021275","lng":"141.091379"},{"town":"衣川富田前","koaza":"","lat":"39.019741","lng":"141.089803"},{"town":"衣川豊巻","koaza":"","lat":"39.029344","lng":"141.070744"},{"town":"衣川長板沢","koaza":"","lat":"39.046561","lng":"141.023891"},{"town":"衣川中河内","koaza":"","lat":"39.011113","lng":"141.024588"},{"town":"衣川中島","koaza":"","lat":"39.023985","lng":"141.081352"},{"town":"衣川長嚢","koaza":"","lat":"39.025960","lng":"141.046814"},{"town":"衣川長袋","koaza":"","lat":"39.080009","lng":"140.993986"},{"town":"衣川中屋敷","koaza":"","lat":"39.074157","lng":"141.010796"},{"town":"衣川中山","koaza":"","lat":"39.016488","lng":"141.015569"},{"town":"衣川夏秋","koaza":"","lat":"39.031518","lng":"141.065703"},{"town":"衣川夏梨","koaza":"","lat":"39.023055","lng":"141.044829"},{"town":"衣川七日市場","koaza":"","lat":"39.006657","lng":"141.096860"},{"town":"衣川並木前","koaza":"","lat":"39.008299","lng":"141.091899"},{"town":"衣川楢原","koaza":"","lat":"38.999967","lng":"140.983354"},{"town":"衣川楢原山","koaza":"","lat":"39.027550","lng":"140.932556"},{"town":"衣川西風山","koaza":"","lat":"39.017595","lng":"141.046863"},{"town":"衣川苗代沢","koaza":"","lat":"39.069159","lng":"141.011068"},{"town":"衣川西裏","koaza":"","lat":"39.016743","lng":"141.083457"},{"town":"衣川西窪","koaza":"","lat":"39.075886","lng":"141.003156"},{"town":"衣川沼野","koaza":"","lat":"38.996791","lng":"141.002232"},{"town":"衣川野崎","koaza":"","lat":"39.000445","lng":"140.992714"},{"town":"衣川除","koaza":"","lat":"39.030660","lng":"141.048700"},{"town":"衣川野田","koaza":"","lat":"39.017142","lng":"141.094618"},{"town":"衣川野田東","koaza":"","lat":"39.014099","lng":"141.097017"},{"town":"衣川能登屋敷","koaza":"","lat":"39.030066","lng":"141.078425"},{"town":"衣川八千","koaza":"","lat":"39.013652","lng":"141.072216"},{"town":"衣川張山","koaza":"","lat":"39.027085","lng":"141.081514"},{"town":"衣川東裏","koaza":"","lat":"39.015173","lng":"141.090420"},{"town":"衣川日向","koaza":"","lat":"39.031356","lng":"141.093375"},{"town":"衣川桧山沢","koaza":"","lat":"39.033107","lng":"141.049179"},{"town":"衣川桧山沢山","koaza":"","lat":"39.032542","lng":"141.036053"},{"town":"衣川平","koaza":"","lat":"39.015421","lng":"141.079902"},{"town":"衣川深沢","koaza":"","lat":"39.034600","lng":"141.070649"},{"town":"衣川舟窪","koaza":"","lat":"39.033641","lng":"141.062522"},{"town":"衣川古館","koaza":"","lat":"39.082261","lng":"141.000527"},{"town":"衣川古戸","koaza":"","lat":"39.043195","lng":"141.063406"},{"town":"衣川宝塔谷地","koaza":"","lat":"38.990270","lng":"140.998772"},{"town":"衣川星屋","koaza":"","lat":"39.025400","lng":"141.085257"},{"town":"衣川細田","koaza":"","lat":"39.008723","lng":"141.103113"},{"town":"衣川細畑","koaza":"","lat":"39.013017","lng":"140.990358"},{"town":"衣川本田原","koaza":"","lat":"39.026183","lng":"141.078899"},{"town":"衣川真打","koaza":"","lat":"39.003744","lng":"140.969283"},{"town":"衣川前滝の沢","koaza":"","lat":"39.004694","lng":"141.047990"},{"town":"衣川馬懸","koaza":"","lat":"39.047082","lng":"141.057131"},{"town":"衣川正板","koaza":"","lat":"39.057996","lng":"141.044166"},{"town":"衣川増沢","koaza":"","lat":"39.087329","lng":"140.926718"},{"town":"衣川松下","koaza":"","lat":"39.005578","lng":"141.087419"},{"town":"衣川松林","koaza":"","lat":"39.031605","lng":"141.042152"},{"town":"衣川六日市場","koaza":"","lat":"39.007458","lng":"141.101866"},{"town":"衣川向","koaza":"","lat":"39.005271","lng":"141.025791"},{"town":"衣川向館","koaza":"","lat":"39.017448","lng":"141.092425"},{"town":"衣川向館谷起","koaza":"","lat":"39.015276","lng":"141.093156"},{"town":"衣川室の木","koaza":"","lat":"39.011173","lng":"141.099034"},{"town":"衣川百ヶ袋","koaza":"","lat":"39.034967","lng":"141.063020"},{"town":"衣川餅転","koaza":"","lat":"39.006597","lng":"140.936626"},{"town":"衣川本巻","koaza":"","lat":"39.024047","lng":"141.014995"},{"town":"衣川山岸","koaza":"","lat":"39.027462","lng":"141.050354"},{"town":"衣川山岸前","koaza":"","lat":"39.016134","lng":"141.098137"},{"town":"衣川山口","koaza":"","lat":"39.009366","lng":"141.086487"},{"town":"衣川山田","koaza":"","lat":"39.030258","lng":"141.039698"},{"town":"衣川横道下","koaza":"","lat":"39.011714","lng":"141.088119"},{"town":"衣川葭ヶ沢","koaza":"","lat":"39.003234","lng":"141.064231"},{"town":"衣川六道","koaza":"","lat":"39.036422","lng":"141.075295"},{"town":"前沢","koaza":"","lat":"39.047667","lng":"141.111848"},{"town":"前沢あすか通一丁目","koaza":"","lat":"39.053283","lng":"141.126094"},{"town":"前沢あすか通二丁目","koaza":"","lat":"39.053654","lng":"141.124625"},{"town":"前沢あすか通三丁目","koaza":"","lat":"39.057070","lng":"141.125030"},{"town":"前沢あすか通四丁目","koaza":"","lat":"39.056949","lng":"141.126318"},{"town":"前沢駅東一丁目","koaza":"","lat":"39.047794","lng":"141.127502"},{"town":"前沢駅東二丁目","koaza":"","lat":"39.049294","lng":"141.127888"},{"town":"前沢駅東三丁目","koaza":"","lat":"39.051297","lng":"141.127324"},{"town":"前沢駅東四丁目","koaza":"","lat":"39.053335","lng":"141.128058"},{"town":"前沢古城","koaza":"","lat":"39.075089","lng":"141.127521"},{"town":"前沢白山","koaza":"","lat":"39.068673","lng":"141.155519"},{"town":"前沢生母","koaza":"","lat":"39.042196","lng":"141.177049"},{"town":"前沢向田一丁目","koaza":"","lat":"39.048039","lng":"141.129858"},{"town":"前沢向田二丁目","koaza":"","lat":"39.051707","lng":"141.130482"},{"town":"水沢","koaza":"","lat":"39.139091","lng":"141.123617"},{"town":"水沢秋葉町","koaza":"","lat":"39.149078","lng":"141.143941"},{"town":"水沢朝日町","koaza":"","lat":"39.131496","lng":"141.161738"},{"town":"水沢姉体町","koaza":"","lat":"39.103362","lng":"141.177982"},{"town":"水沢泉町","koaza":"","lat":"39.131547","lng":"141.158386"},{"town":"水沢大鐘町一丁目","koaza":"","lat":"39.129083","lng":"141.140360"},{"town":"水沢大鐘町二丁目","koaza":"","lat":"39.129574","lng":"141.137344"},{"town":"水沢大鐘町三丁目","koaza":"","lat":"39.130828","lng":"141.138277"},{"town":"水沢大手町一丁目","koaza":"","lat":"39.144279","lng":"141.138340"},{"town":"水沢大手町二丁目","koaza":"","lat":"39.145749","lng":"141.136845"},{"town":"水沢大手町三丁目","koaza":"","lat":"39.145924","lng":"141.139072"},{"town":"水沢大手町四丁目","koaza":"","lat":"39.145211","lng":"141.141199"},{"town":"水沢大手町五丁目","koaza":"","lat":"39.143638","lng":"141.140591"},{"town":"水沢卸町","koaza":"","lat":"39.179631","lng":"141.114176"},{"town":"水沢上姉体一丁目","koaza":"","lat":"39.114188","lng":"141.166057"},{"town":"水沢上姉体二丁目","koaza":"","lat":"39.115831","lng":"141.163764"},{"town":"水沢上姉体三丁目","koaza":"","lat":"39.115389","lng":"141.161656"},{"town":"水沢黒石町","koaza":"","lat":"39.092004","lng":"141.215956"},{"town":"水沢佐倉河","koaza":"","lat":"39.162848","lng":"141.129565"},{"town":"水沢真城","koaza":"","lat":"39.112092","lng":"141.149900"},{"town":"水沢真城が丘一丁目","koaza":"","lat":"39.113942","lng":"141.140138"},{"town":"水沢真城が丘二丁目","koaza":"","lat":"39.112437","lng":"141.139611"},{"town":"水沢真城が丘三丁目","koaza":"","lat":"39.110981","lng":"141.138985"},{"town":"水沢神明町一丁目","koaza":"","lat":"39.139389","lng":"141.159382"},{"town":"水沢神明町二丁目","koaza":"","lat":"39.138098","lng":"141.163309"},{"town":"水沢太日通り一丁目","koaza":"","lat":"39.134884","lng":"141.148145"},{"town":"水沢太日通り二丁目","koaza":"","lat":"39.135370","lng":"141.151339"},{"town":"水沢太日通り三丁目","koaza":"","lat":"39.135825","lng":"141.153901"},{"town":"水沢台町","koaza":"","lat":"39.131595","lng":"141.154577"},{"town":"水沢天文台通り","koaza":"","lat":"39.136384","lng":"141.133756"},{"town":"水沢中上野町","koaza":"","lat":"39.133943","lng":"141.139013"},{"town":"水沢中田町","koaza":"","lat":"39.132654","lng":"141.151421"},{"town":"水沢中町","koaza":"","lat":"39.138874","lng":"141.144578"},{"town":"水沢西上野町","koaza":"","lat":"39.133061","lng":"141.135394"},{"town":"水沢西町","koaza":"","lat":"39.138173","lng":"141.135367"},{"town":"水沢羽田町","koaza":"","lat":"39.131245","lng":"141.184397"},{"town":"水沢羽田町うぐいす平","koaza":"","lat":"39.129209","lng":"141.196080"},{"town":"水沢羽田町駅東一丁目","koaza":"","lat":"39.144109","lng":"141.189993"},{"town":"水沢羽田町駅前一丁目","koaza":"","lat":"39.144551","lng":"141.187765"},{"town":"水沢羽田町駅前二丁目","koaza":"","lat":"39.144627","lng":"141.184878"},{"town":"水沢羽田町駅南一丁目","koaza":"","lat":"39.142104","lng":"141.188523"},{"town":"水沢羽田町久保","koaza":"","lat":"39.142966","lng":"141.182692"},{"town":"水沢羽田町宝生","koaza":"","lat":"39.142123","lng":"141.184969"},{"town":"水沢羽田町宝柳木","koaza":"","lat":"39.147597","lng":"141.183919"},{"town":"水沢羽田町向畑","koaza":"","lat":"39.147891","lng":"141.186914"},{"town":"水沢花園町一丁目","koaza":"","lat":"39.142356","lng":"141.148309"},{"town":"水沢花園町二丁目","koaza":"","lat":"39.140746","lng":"141.154197"},{"town":"水沢東上野町","koaza":"","lat":"39.133432","lng":"141.142125"},{"town":"水沢東大通り一丁目","koaza":"","lat":"39.138982","lng":"141.147936"},{"town":"水沢東大通り二丁目","koaza":"","lat":"39.139265","lng":"141.151209"},{"town":"水沢東大通り三丁目","koaza":"","lat":"39.138789","lng":"141.154462"},{"town":"水沢東中通り一丁目","koaza":"","lat":"39.135875","lng":"141.157060"},{"town":"水沢東中通り二丁目","koaza":"","lat":"39.135821","lng":"141.161614"},{"town":"水沢福吉町","koaza":"","lat":"39.131510","lng":"141.131865"},{"town":"水沢袋町","koaza":"","lat":"39.137226","lng":"141.141734"},{"town":"水沢星ガ丘町","koaza":"","lat":"39.134311","lng":"141.132593"},{"town":"水沢工業団地一丁目","koaza":"","lat":"39.165040","lng":"141.152518"},{"town":"水沢工業団地二丁目","koaza":"","lat":"39.167104","lng":"141.152116"},{"town":"水沢工業団地三丁目","koaza":"","lat":"39.166214","lng":"141.157466"},{"town":"水沢工業団地四丁目","koaza":"","lat":"39.163564","lng":"141.156916"},{"town":"水沢南大鐘一丁目","koaza":"","lat":"39.127964","lng":"141.138442"},{"town":"水沢南町","koaza":"","lat":"39.136426","lng":"141.144537"},{"town":"水沢宮下町","koaza":"","lat":"39.137836","lng":"141.139070"},{"town":"水沢山崎町","koaza":"","lat":"39.133334","lng":"141.144715"},{"town":"前沢","koaza":"安寺沢","lat":"39.059231","lng":"141.078125"},{"town":"前沢","koaza":"六本松","lat":"39.049446","lng":"141.079976"},{"town":"前沢","koaza":"大袋","lat":"39.061657","lng":"141.078908"},{"town":"前沢","koaza":"日除松","lat":"39.063368","lng":"141.086447"},{"town":"前沢","koaza":"駒水","lat":"39.053687","lng":"141.099475"},{"town":"水沢佐倉河","koaza":"西上川原","lat":"39.159073","lng":"141.087399"},{"town":"水沢佐倉河","koaza":"三ツ谷","lat":"39.158018","lng":"141.088019"},{"town":"水沢佐倉河","koaza":"中半入","lat":"39.158965","lng":"141.087007"},{"town":"前沢","koaza":"沼ノ沢","lat":"39.045616","lng":"141.092561"},{"town":"水沢佐倉河","koaza":"明神堂","lat":"39.163177","lng":"141.090406"},{"town":"水沢佐倉河","koaza":"半入","lat":"39.161751","lng":"141.090257"},{"town":"水沢佐倉河","koaza":"曽根田","lat":"39.151726","lng":"141.087733"},{"town":"水沢佐倉河","koaza":"鞘田","lat":"39.149714","lng":"141.089983"},{"town":"胆沢南都田","koaza":"上戸","lat":"39.154571","lng":"141.08801"},{"town":"水沢佐倉河","koaza":"大田","lat":"39.157013","lng":"141.090836"},{"town":"水沢佐倉河","koaza":"明神堂川原","lat":"39.16331","lng":"141.088717"},{"town":"水沢佐倉河","koaza":"柳原","lat":"39.158875","lng":"141.0904"},{"town":"水沢佐倉河","koaza":"石畑","lat":"39.153924","lng":"141.090617"},{"town":"水沢佐倉河","koaza":"五味田","lat":"39.150085","lng":"141.09361"},{"town":"水沢佐倉河","koaza":"玉ノ木","lat":"39.156399","lng":"141.093514"},{"town":"前沢","koaza":"簾森","lat":"39.061398","lng":"141.098849"},{"town":"前沢","koaza":"箕輪","lat":"39.052676","lng":"141.093466"},{"town":"水沢佐倉河","koaza":"鍜治屋川原","lat":"39.166609","lng":"141.093172"},{"town":"水沢佐倉河","koaza":"十日市","lat":"39.162107","lng":"141.092529"},{"town":"水沢佐倉河","koaza":"扇田","lat":"39.155632","lng":"141.098266"},{"town":"水沢佐倉河","koaza":"西鍜治屋","lat":"39.164896","lng":"141.094349"},{"town":"水沢佐倉河","koaza":"崩田","lat":"39.169855","lng":"141.103121"},{"town":"前沢","koaza":"堤田","lat":"39.048634","lng":"141.0944"},{"town":"水沢佐倉河","koaza":"中ノ目","lat":"39.160932","lng":"141.096685"},{"town":"水沢佐倉河","koaza":"竈ノ口","lat":"39.153577","lng":"141.098093"},{"town":"水沢佐倉河","koaza":"兵法田","lat":"39.164242","lng":"141.098249"},{"town":"水沢佐倉河","koaza":"西田中","lat":"39.163597","lng":"141.09914"},{"town":"水沢佐倉河","koaza":"戸田","lat":"39.158773","lng":"141.098571"},{"town":"水沢","koaza":"見分森","lat":"39.119907","lng":"141.105196"},{"town":"胆沢小山","koaza":"川北","lat":"39.118344","lng":"141.102154"},{"town":"前沢","koaza":"干場","lat":"39.047942","lng":"141.101005"},{"town":"水沢佐倉河","koaza":"石切","lat":"39.165728","lng":"141.099949"},{"town":"前沢","koaza":"徳沢","lat":"39.029288","lng":"141.107611"},{"town":"胆沢南都田","koaza":"森下","lat":"39.120169","lng":"141.097907"},{"town":"水沢佐倉河","koaza":"寺田","lat":"39.15864","lng":"141.099149"},{"town":"水沢佐倉河","koaza":"白川田","lat":"39.16103","lng":"141.100646"},{"town":"水沢佐倉河","koaza":"権現堂","lat":"39.162628","lng":"141.102628"},{"town":"水沢","koaza":"五輪","lat":"39.155706","lng":"141.09967"},{"town":"前沢","koaza":"養ケ森","lat":"39.063022","lng":"141.10359"},{"town":"水沢","koaza":"高谷宿","lat":"39.154347","lng":"141.103191"},{"town":"水沢佐倉河","koaza":"大足路","lat":"39.167715","lng":"141.101665"},{"town":"前沢","koaza":"裏新田","lat":"39.068215","lng":"141.109683"},{"town":"水沢佐倉河","koaza":"山森","lat":"39.167565","lng":"141.103352"},{"town":"水沢佐倉河","koaza":"荒谷","lat":"39.165438","lng":"141.101848"},{"town":"前沢","koaza":"合ノ沢","lat":"39.043528","lng":"141.105291"},{"town":"胆沢南都田","koaza":"堰田","lat":"39.152791","lng":"141.104922"},{"town":"水沢佐倉河","koaza":"雲南","lat":"39.164849","lng":"141.103635"},{"town":"水沢佐倉河","koaza":"下玉ノ木","lat":"39.159439","lng":"141.105209"},{"town":"前沢","koaza":"永沢","lat":"39.039527","lng":"141.104463"},{"town":"前沢古城","koaza":"板子沢","lat":"39.073208","lng":"141.111723"},{"town":"水沢","koaza":"谷地中","lat":"39.150195","lng":"141.103805"},{"town":"水沢佐倉河","koaza":"水ノ口","lat":"39.168636","lng":"141.103407"},{"town":"水沢","koaza":"水神","lat":"39.156959","lng":"141.104005"},{"town":"水沢佐倉河","koaza":"舟塚","lat":"39.166122","lng":"141.105351"},{"town":"水沢佐倉河","koaza":"大泉","lat":"39.162628","lng":"141.103946"},{"town":"江刺稲瀬","koaza":"水先","lat":"39.225781","lng":"141.124694"},{"town":"前沢古城","koaza":"松ノ木沢","lat":"39.093463","lng":"141.110802"},{"town":"前沢","koaza":"清水","lat":"39.039103","lng":"141.112737"},{"town":"水沢佐倉河","koaza":"道田","lat":"39.162895","lng":"141.105998"},{"town":"水沢","koaza":"向田","lat":"39.15919","lng":"141.108921"},{"town":"前沢","koaza":"櫓前","lat":"39.041995","lng":"141.106739"},{"town":"胆沢南都田","koaza":"堰根","lat":"39.150511","lng":"141.106448"},{"town":"胆沢南都田","koaza":"片子沢","lat":"39.121863","lng":"141.105427"},{"town":"前沢古城","koaza":"横道前","lat":"39.075956","lng":"141.10769"},{"town":"水沢","koaza":"踊子","lat":"39.154046","lng":"141.106366"},{"town":"水沢","koaza":"雀田","lat":"39.156161","lng":"141.106421"},{"town":"水沢佐倉河","koaza":"善海","lat":"39.171312","lng":"141.106721"},{"town":"水沢佐倉河","koaza":"田子谷","lat":"39.169172","lng":"141.106975"},{"town":"前沢","koaza":"長根","lat":"39.033841","lng":"141.112667"},{"town":"前沢","koaza":"泊ケ崎","lat":"39.044565","lng":"141.116872"},{"town":"前沢古城","koaza":"横道後","lat":"39.075954","lng":"141.113097"},{"town":"胆沢小山","koaza":"森","lat":"39.116733","lng":"141.114333"},{"town":"水沢","koaza":"大上","lat":"39.151025","lng":"141.109245"},{"town":"水沢佐倉河","koaza":"千刈田","lat":"39.163372","lng":"141.110031"},{"town":"水沢佐倉河","koaza":"下大泉","lat":"39.16215","lng":"141.107922"},{"town":"胆沢小山","koaza":"森下","lat":"39.11953","lng":"141.11066"},{"town":"前沢古城","koaza":"外ケ沢","lat":"39.091788","lng":"141.114096"},{"town":"前沢","koaza":"両手沢","lat":"39.037681","lng":"141.11574"},{"town":"水沢","koaza":"橇町","lat":"39.153742","lng":"141.108967"},{"town":"水沢","koaza":"北半郷","lat":"39.155104","lng":"141.109"},{"town":"胆沢南都田","koaza":"千刈田","lat":"39.150566","lng":"141.109386"},{"town":"水沢佐倉河","koaza":"西小深田","lat":"39.171627","lng":"141.11097"},{"town":"前沢","koaza":"陣場","lat":"39.054558","lng":"141.1135"},{"town":"水沢佐倉河","koaza":"合ノ町","lat":"39.168348","lng":"141.109627"},{"town":"水沢佐倉河","koaza":"崩","lat":"39.160683","lng":"141.109502"},{"town":"水沢佐倉河","koaza":"酒元","lat":"39.166969","lng":"141.110089"},{"town":"前沢","koaza":"狐石","lat":"39.061598","lng":"141.116284"},{"town":"水沢","koaza":"西光田","lat":"39.143478","lng":"141.112514"},{"town":"胆沢小山","koaza":"後四ツ屋","lat":"39.091329","lng":"141.110801"},{"town":"前沢","koaza":"赤坂","lat":"39.056826","lng":"141.113475"},{"town":"胆沢南都田","koaza":"板谷","lat":"39.141265","lng":"141.110481"},{"town":"前沢","koaza":"中屋敷","lat":"39.040342","lng":"141.111489"},{"town":"胆沢南都田","koaza":"午房谷地","lat":"39.144169","lng":"141.110815"},{"town":"水沢","koaza":"鶴淵","lat":"39.125913","lng":"141.11215"},{"town":"水沢佐倉河","koaza":"橋元","lat":"39.17003","lng":"141.110995"},{"town":"水沢","koaza":"笹森谷地","lat":"39.122773","lng":"141.115871"},{"town":"水沢佐倉河","koaza":"喜性坊","lat":"39.17583","lng":"141.112091"},{"town":"水沢佐倉河","koaza":"西高山","lat":"39.158284","lng":"141.112249"},{"town":"水沢佐倉河","koaza":"盛河","lat":"39.160518","lng":"141.113039"},{"town":"前沢古城","koaza":"上北上野","lat":"39.095092","lng":"141.111712"},{"town":"水沢佐倉河","koaza":"一本木","lat":"39.16252","lng":"141.11231"},{"town":"胆沢南都田","koaza":"濁川","lat":"39.130092","lng":"141.111263"},{"town":"水沢","koaza":"前郷","lat":"39.151134","lng":"141.11215"},{"town":"水沢佐倉河","koaza":"西八反町","lat":"39.164576","lng":"141.111928"},{"town":"水沢佐倉河","koaza":"古屋敷","lat":"39.167356","lng":"141.113601"},{"town":"水沢","koaza":"森下","lat":"39.125164","lng":"141.116357"},{"town":"前沢","koaza":"太郎ケ沢","lat":"39.048501","lng":"141.114887"},{"town":"水沢","koaza":"大明神","lat":"39.141075","lng":"141.116755"},{"town":"水沢","koaza":"前谷地","lat":"39.130983","lng":"141.115826"},{"town":"胆沢南都田","koaza":"鶴田","lat":"39.138184","lng":"141.116526"},{"town":"前沢古城","koaza":"高日向","lat":"39.083801","lng":"141.114781"},{"town":"胆沢小山","koaza":"北笹森","lat":"39.117969","lng":"141.117668"},{"town":"水沢佐倉河","koaza":"今泉","lat":"39.177538","lng":"141.116475"},{"town":"水沢佐倉河","koaza":"東田中","lat":"39.165608","lng":"141.114838"},{"town":"水沢","koaza":"高山","lat":"39.155006","lng":"141.114491"},{"town":"前沢","koaza":"日向","lat":"39.039007","lng":"141.115226"},{"town":"水沢佐倉河","koaza":"久保","lat":"39.168","lng":"141.115215"},{"town":"前沢","koaza":"新城","lat":"39.031555","lng":"141.117187"},{"town":"水沢","koaza":"造道","lat":"39.151717","lng":"141.114326"},{"town":"水沢","koaza":"東半郷","lat":"39.153964","lng":"141.115967"},{"town":"前沢","koaza":"照井舘","lat":"39.023354","lng":"141.120462"},{"town":"水沢佐倉河","koaza":"宿","lat":"39.173694","lng":"141.11704"},{"town":"水沢佐倉河","koaza":"橇町","lat":"39.171894","lng":"141.114647"},{"town":"水沢","koaza":"桜川","lat":"39.142974","lng":"141.115469"},{"town":"前沢古城","koaza":"志人沢","lat":"39.088502","lng":"141.118257"},{"town":"水沢","koaza":"寺領","lat":"39.145606","lng":"141.118559"},{"town":"水沢","koaza":"足袋針","lat":"39.1417","lng":"141.115443"},{"town":"水沢","koaza":"西田","lat":"39.13224","lng":"141.117758"},{"town":"水沢佐倉河","koaza":"西大畑","lat":"39.158689","lng":"141.116284"},{"town":"水沢佐倉河","koaza":"道場","lat":"39.170104","lng":"141.119258"},{"town":"胆沢南都田","koaza":"田中","lat":"39.14669","lng":"141.114863"},{"town":"前沢","koaza":"下小路","lat":"39.047634","lng":"141.12149"},{"town":"水沢","koaza":"袖谷地","lat":"39.127844","lng":"141.117913"},{"town":"前沢古城","koaza":"小林","lat":"39.079744","lng":"141.119135"},{"town":"前沢古城","koaza":"鳥子沢","lat":"39.083728","lng":"141.120358"},{"town":"江刺稲瀬","koaza":"山下","lat":"39.226545","lng":"141.1319"},{"town":"水沢","koaza":"極楽","lat":"39.149514","lng":"141.11818"},{"town":"水沢","koaza":"小中","lat":"39.155707","lng":"141.119155"},{"town":"水沢","koaza":"渋田","lat":"39.157116","lng":"141.117772"},{"town":"江刺稲瀬","koaza":"谷地","lat":"39.223026","lng":"141.129425"},{"town":"水沢佐倉河","koaza":"西広町","lat":"39.160732","lng":"141.118155"},{"town":"前沢","koaza":"山下","lat":"39.057996","lng":"141.12293"},{"town":"前沢","koaza":"南陣場","lat":"39.028175","lng":"141.120833"},{"town":"水沢佐倉河","koaza":"丑子","lat":"39.169051","lng":"141.116691"},{"town":"水沢佐倉河","koaza":"上谷地","lat":"39.168035","lng":"141.116702"},{"town":"前沢","koaza":"南塔ケ崎","lat":"39.038737","lng":"141.118146"},{"town":"水沢佐倉河","koaza":"下谷地","lat":"39.16585","lng":"141.11798"},{"town":"水沢","koaza":"南矢中","lat":"39.134953","lng":"141.118554"},{"town":"水沢真城","koaza":"宮沢","lat":"39.099095","lng":"141.12688"},{"town":"水沢佐倉河","koaza":"玉貫","lat":"39.183233","lng":"141.121961"},{"town":"水沢真城","koaza":"中崎","lat":"39.096438","lng":"141.125914"},{"town":"水沢","koaza":"後田","lat":"39.143934","lng":"141.120359"},{"town":"前沢","koaza":"沖田","lat":"39.03672","lng":"141.12062"},{"town":"水沢佐倉河","koaza":"染屋","lat":"39.161806","lng":"141.119802"},{"town":"水沢佐倉河","koaza":"熊野堂","lat":"39.16325","lng":"141.119699"},{"town":"前沢","koaza":"五十人町","lat":"39.043876","lng":"141.120658"},{"town":"前沢","koaza":"小沢口","lat":"39.022304","lng":"141.12144"},{"town":"水沢","koaza":"樋渡","lat":"39.147689","lng":"141.119601"},{"town":"胆沢小山","koaza":"笹森","lat":"39.115296","lng":"141.121058"},{"town":"水沢","koaza":"黒子","lat":"39.149963","lng":"141.120901"},{"town":"水沢","koaza":"桑畑","lat":"39.153908","lng":"141.119934"},{"town":"水沢","koaza":"平沢","lat":"39.154806","lng":"141.121579"},{"town":"前沢古城","koaza":"寺領上野","lat":"39.075598","lng":"141.12628"},{"town":"前沢","koaza":"前野","lat":"39.031679","lng":"141.121495"},{"town":"水沢佐倉河","koaza":"向川原","lat":"39.183997","lng":"141.118583"},{"town":"水沢佐倉河","koaza":"面塚","lat":"39.16439","lng":"141.122333"},{"town":"胆沢小山","koaza":"附野","lat":"39.118286","lng":"141.122616"},{"town":"水沢佐倉河","koaza":"膳性","lat":"39.17866","lng":"141.120687"},{"town":"水沢真城","koaza":"西舘","lat":"39.105512","lng":"141.121002"},{"town":"水沢","koaza":"桜屋敷西","lat":"39.123008","lng":"141.122934"},{"town":"前沢","koaza":"塔ケ崎","lat":"39.040342","lng":"141.122558"},{"town":"水沢佐倉河","koaza":"西舘","lat":"39.158754","lng":"141.121412"},{"town":"前沢古城","koaza":"丑沢上野","lat":"39.074758","lng":"141.121285"},{"town":"水沢真城","koaza":"北舘","lat":"39.107885","lng":"141.120599"},{"town":"胆沢小山","koaza":"赤斎美","lat":"39.103036","lng":"141.120219"},{"town":"水沢真城","koaza":"堤ヶ沢","lat":"39.102002","lng":"141.129242"},{"town":"水沢佐倉河","koaza":"富田","lat":"39.172855","lng":"141.121821"},{"town":"前沢古城","koaza":"坂ノ上","lat":"39.07747","lng":"141.126496"},{"town":"前沢古城","koaza":"志戸ケ沢","lat":"39.092292","lng":"141.127031"},{"town":"水沢","koaza":"外谷地","lat":"39.127339","lng":"141.12426"},{"town":"水沢","koaza":"水山","lat":"39.144714","lng":"141.125444"},{"town":"水沢","koaza":"水ノ口","lat":"39.152598","lng":"141.121532"},{"town":"水沢","koaza":"矢中","lat":"39.136394","lng":"141.120449"},{"town":"水沢","koaza":"釜田","lat":"39.140422","lng":"141.121825"},{"town":"水沢佐倉河","koaza":"東高山","lat":"39.162674","lng":"141.125203"},{"town":"水沢","koaza":"八反田","lat":"39.136","lng":"141.122012"},{"town":"水沢","koaza":"前田袋","lat":"39.146451","lng":"141.124524"},{"town":"前沢古城","koaza":"寺ノ上","lat":"39.07984","lng":"141.124586"},{"town":"前沢","koaza":"平小路","lat":"39.044601","lng":"141.122925"},{"town":"前沢古城","koaza":"比良","lat":"39.068577","lng":"141.125965"},{"town":"水沢佐倉河","koaza":"水沼","lat":"39.167399","lng":"141.124015"},{"town":"前沢","koaza":"谷記","lat":"39.027736","lng":"141.125024"},{"town":"水沢","koaza":"町裏","lat":"39.130169","lng":"141.126991"},{"town":"水沢真城","koaza":"西大深沢","lat":"39.110053","lng":"141.125947"},{"town":"前沢古城","koaza":"川原前","lat":"39.083231","lng":"141.135035"},{"town":"水沢","koaza":"築舘","lat":"39.158444","lng":"141.122286"},{"town":"水沢","koaza":"福原","lat":"39.131137","lng":"141.125061"},{"town":"前沢","koaza":"三日町","lat":"39.048391","lng":"141.123061"},{"town":"前沢","koaza":"七日町","lat":"39.051335","lng":"141.122183"},{"town":"水沢","koaza":"二反田","lat":"39.149088","lng":"141.12428"},{"town":"水沢佐倉河","koaza":"塚ノ腰","lat":"39.16092","lng":"141.12512"},{"town":"前沢","koaza":"新町","lat":"39.053763","lng":"141.123094"},{"town":"水沢佐倉河","koaza":"高田","lat":"39.18052","lng":"141.126506"},{"town":"前沢古城","koaza":"南上野","lat":"39.081265","lng":"141.125912"},{"town":"前沢","koaza":"漆野","lat":"39.020875","lng":"141.129602"},{"town":"前沢","koaza":"里","lat":"39.033923","lng":"141.124197"},{"town":"前沢","koaza":"二十人町","lat":"39.056995","lng":"141.124018"},{"town":"前沢","koaza":"平前","lat":"39.04412","lng":"141.123789"},{"town":"前沢古城","koaza":"丑沢","lat":"39.072993","lng":"141.126858"},{"town":"江刺稲瀬","koaza":"正源寺台","lat":"39.233089","lng":"141.132067"},{"town":"前沢古城","koaza":"下北上野","lat":"39.094345","lng":"141.129027"},{"town":"水沢佐倉河","koaza":"神子田","lat":"39.169836","lng":"141.125152"},{"town":"胆沢小山","koaza":"南笹森","lat":"39.112433","lng":"141.129954"},{"town":"水沢真城","koaza":"折居舘","lat":"39.104378","lng":"141.129266"},{"town":"水沢","koaza":"地蔵田","lat":"39.150972","lng":"141.124159"},{"town":"水沢","koaza":"五千刈","lat":"39.154364","lng":"141.124226"},{"town":"水沢","koaza":"稲荷田","lat":"39.156704","lng":"141.124386"},{"town":"水沢","koaza":"内匠田","lat":"39.142946","lng":"141.125426"},{"town":"前沢","koaza":"七日町裏","lat":"39.051477","lng":"141.124409"},{"town":"水沢佐倉河","koaza":"観音堂","lat":"39.159907","lng":"141.12608"},{"town":"前沢","koaza":"赤面","lat":"39.035377","lng":"141.124746"},{"town":"前沢","koaza":"三日町新裏","lat":"39.047736","lng":"141.124613"},{"town":"水沢","koaza":"蓬田","lat":"39.139789","lng":"141.124597"},{"town":"水沢佐倉河","koaza":"北宮田","lat":"39.165396","lng":"141.12452"},{"town":"水沢","koaza":"北田","lat":"39.133858","lng":"141.127075"},{"town":"前沢","koaza":"新町裏","lat":"39.053839","lng":"141.123795"},{"town":"胆沢小山","koaza":"二枚橋","lat":"39.115102","lng":"141.129435"},{"town":"水沢","koaza":"高屋敷","lat":"39.136851","lng":"141.128437"},{"town":"水沢佐倉河","koaza":"植田","lat":"39.182426","lng":"141.124737"},{"town":"水沢佐倉河","koaza":"彼岸田","lat":"39.177984","lng":"141.12708"},{"town":"水沢真城","koaza":"馬籠舘","lat":"39.107504","lng":"141.129793"},{"town":"水沢佐倉河","koaza":"新張","lat":"39.177142","lng":"141.130439"},{"town":"胆沢小山","koaza":"下笹森","lat":"39.118804","lng":"141.128904"},{"town":"水沢佐倉河","koaza":"獅子鼻","lat":"39.172866","lng":"141.125696"},{"town":"前沢","koaza":"二十人町裏","lat":"39.056877","lng":"141.124415"},{"town":"水沢佐倉河","koaza":"松堂","lat":"39.162281","lng":"141.127369"},{"town":"前沢","koaza":"屋敷","lat":"39.038239","lng":"141.12632"},{"town":"前沢","koaza":"衣関","lat":"39.023502","lng":"141.126466"},{"town":"前沢古城","koaza":"明後沢","lat":"39.083691","lng":"141.132567"},{"town":"前沢","koaza":"田畠","lat":"39.061669","lng":"141.125519"},{"town":"前沢","koaza":"中田","lat":"39.062149","lng":"141.125663"},{"town":"前沢古城","koaza":"馬口沢","lat":"39.078677","lng":"141.131025"},{"town":"水沢","koaza":"土器田","lat":"39.143834","lng":"141.12783"},{"town":"前沢古城","koaza":"栗生沢","lat":"39.093148","lng":"141.130368"},{"town":"水沢","koaza":"一本柳","lat":"39.154804","lng":"141.128818"},{"town":"水沢","koaza":"桜屋敷","lat":"39.124032","lng":"141.129641"},{"town":"水沢","koaza":"幅下","lat":"39.158223","lng":"141.128961"},{"town":"水沢佐倉河","koaza":"栗ノ木町","lat":"39.15972","lng":"141.128759"},{"town":"水沢佐倉河","koaza":"光大寺","lat":"39.173203","lng":"141.129603"},{"town":"水沢","koaza":"日高西","lat":"39.142737","lng":"141.129057"},{"town":"水沢佐倉河","koaza":"荒屋敷","lat":"39.172136","lng":"141.129528"},{"town":"前沢","koaza":"鵜ノ木","lat":"39.022952","lng":"141.130164"},{"town":"水沢","koaza":"斉の神","lat":"39.141241","lng":"141.129242"},{"town":"水沢","koaza":"谷地明円","lat":"39.139645","lng":"141.130589"},{"town":"水沢佐倉河","koaza":"八ツ口","lat":"39.18419","lng":"141.128509"},{"town":"水沢","koaza":"堰合","lat":"39.12779","lng":"141.128968"},{"town":"前沢","koaza":"一本杉","lat":"39.03909","lng":"141.127585"},{"town":"水沢佐倉河","koaza":"竈神","lat":"39.167155","lng":"141.130485"},{"town":"水沢佐倉河","koaza":"曽根","lat":"39.165265","lng":"141.128193"},{"town":"前沢","koaza":"高畑","lat":"39.044092","lng":"141.133294"},{"town":"前沢古城","koaza":"姥沢","lat":"39.086178","lng":"141.131851"},{"town":"前沢","koaza":"田中","lat":"39.042279","lng":"141.127963"},{"town":"前沢古城","koaza":"千刈田","lat":"39.065117","lng":"141.129512"},{"town":"水沢","koaza":"長町","lat":"39.150695","lng":"141.130621"},{"town":"水沢","koaza":"大橋","lat":"39.129316","lng":"141.129627"},{"town":"前沢","koaza":"河畑","lat":"39.061976","lng":"141.133256"},{"town":"水沢","koaza":"名残","lat":"39.152452","lng":"141.130687"},{"town":"水沢佐倉河","koaza":"多聞坊","lat":"39.182111","lng":"141.129117"},{"town":"水沢","koaza":"高網","lat":"39.153617","lng":"141.128777"},{"town":"水沢","koaza":"斉勝田","lat":"39.155588","lng":"141.12882"},{"town":"水沢佐倉河","koaza":"大曽根","lat":"39.169883","lng":"141.129387"},{"town":"前沢古城","koaza":"高代寺","lat":"39.086894","lng":"141.132822"},{"town":"水沢佐倉河","koaza":"宝蔵","lat":"39.17103","lng":"141.129455"},{"town":"前沢古城","koaza":"高大寺","lat":"39.066942","lng":"141.130017"},{"town":"前沢古城","koaza":"幅","lat":"39.090711","lng":"141.13269"},{"town":"前沢古城","koaza":"内ノ目","lat":"39.069778","lng":"141.12931"},{"town":"前沢","koaza":"大林寺下","lat":"39.057953","lng":"141.128991"},{"town":"前沢","koaza":"南前沢","lat":"39.042181","lng":"141.130857"},{"town":"水沢佐倉河","koaza":"十月","lat":"39.180163","lng":"141.128917"},{"town":"水沢","koaza":"聖天","lat":"39.148312","lng":"141.130999"},{"town":"水沢佐倉河","koaza":"竹林田","lat":"39.171078","lng":"141.130712"},{"town":"水沢","koaza":"久田","lat":"39.145622","lng":"141.131589"},{"town":"前沢","koaza":"立石","lat":"39.056199","lng":"141.134964"},{"town":"前沢古城","koaza":"丑沢南谷地","lat":"39.071402","lng":"141.129893"},{"town":"江刺愛宕","koaza":"土手外","lat":"39.199764","lng":"141.133709"},{"town":"水沢佐倉河","koaza":"西沖ノ目","lat":"39.16496","lng":"141.131162"},{"town":"江刺稲瀬","koaza":"土手外","lat":"39.203312","lng":"141.132074"},{"town":"前沢古城","koaza":"北高大寺","lat":"39.067917","lng":"141.130406"},{"town":"前沢古城","koaza":"松ノ木","lat":"39.064246","lng":"141.131447"},{"town":"前沢古城","koaza":"丑沢北谷地","lat":"39.074682","lng":"141.132388"},{"town":"水沢","koaza":"川端","lat":"39.127754","lng":"141.132904"},{"town":"水沢真城","koaza":"東大深沢","lat":"39.109422","lng":"141.133466"},{"town":"江刺稲瀬","koaza":"瀬谷子","lat":"39.231534","lng":"141.139333"},{"town":"水沢佐倉河","koaza":"西関田","lat":"39.16304","lng":"141.131872"},{"town":"前沢","koaza":"本杉","lat":"39.047143","lng":"141.132283"},{"town":"水沢","koaza":"小石田","lat":"39.149596","lng":"141.134578"},{"town":"水沢佐倉河","koaza":"西幅","lat":"39.159665","lng":"141.132637"},{"town":"水沢佐倉河","koaza":"東八反町","lat":"39.172996","lng":"141.130758"},{"town":"水沢","koaza":"八反町","lat":"39.153554","lng":"141.134257"},{"town":"水沢","koaza":"里鎗","lat":"39.156076","lng":"141.131662"},{"town":"水沢佐倉河","koaza":"南松堂","lat":"39.160626","lng":"141.132398"},{"town":"水沢","koaza":"欠ノ下","lat":"39.156839","lng":"141.134569"},{"town":"江刺稲瀬","koaza":"沼尻","lat":"39.208602","lng":"141.136777"},{"town":"水沢佐倉河","koaza":"細田","lat":"39.171261","lng":"141.132701"},{"town":"水沢佐倉河","koaza":"鍜治屋敷","lat":"39.175044","lng":"141.133239"},{"town":"江刺稲瀬","koaza":"中島","lat":"39.216253","lng":"141.131886"},{"town":"水沢佐倉河","koaza":"九蔵田","lat":"39.176483","lng":"141.133865"},{"town":"水沢佐倉河","koaza":"四月","lat":"39.178348","lng":"141.133011"},{"town":"水沢佐倉河","koaza":"北桜沢","lat":"39.181668","lng":"141.134269"},{"town":"水沢佐倉河","koaza":"角ノ町","lat":"39.183103","lng":"141.132241"},{"town":"水沢佐倉河","koaza":"北田中","lat":"39.184534","lng":"141.134156"},{"town":"水沢真城","koaza":"中道","lat":"39.114971","lng":"141.135561"},{"town":"水沢佐倉河","koaza":"東大畑","lat":"39.167113","lng":"141.133594"},{"town":"前沢","koaza":"株樹","lat":"39.06012","lng":"141.13479"},{"town":"前沢","koaza":"竹沢","lat":"39.054119","lng":"141.13415"},{"town":"水沢佐倉河","koaza":"梨ノ木町","lat":"39.165054","lng":"141.133842"},{"town":"江刺稲瀬","koaza":"地蔵堂","lat":"39.216846","lng":"141.133546"},{"town":"水沢佐倉河","koaza":"座須","lat":"39.170029","lng":"141.132873"},{"town":"水沢","koaza":"中城","lat":"39.15502","lng":"141.134639"},{"town":"胆沢小山","koaza":"岩ケ馬場","lat":"39.120425","lng":"141.138222"},{"town":"前沢","koaza":"五合田","lat":"39.051732","lng":"141.13308"},{"town":"水沢","koaza":"日高小路","lat":"39.142344","lng":"141.135272"},{"town":"水沢","koaza":"堀ノ内","lat":"39.147332","lng":"141.135156"},{"town":"水沢真城","koaza":"上野","lat":"39.110235","lng":"141.139022"},{"town":"水沢佐倉河","koaza":"関田","lat":"39.163188","lng":"141.136157"},{"town":"前沢古城","koaza":"亀田","lat":"39.070351","lng":"141.136006"},{"town":"前沢古城","koaza":"田中","lat":"39.065837","lng":"141.134603"},{"town":"水沢真城","koaza":"折居町","lat":"39.100685","lng":"141.134934"},{"town":"前沢古城","koaza":"上ノ台","lat":"39.063286","lng":"141.135964"},{"town":"前沢古城","koaza":"北町","lat":"39.094503","lng":"141.135413"},{"town":"水沢","koaza":"虚空蔵小路","lat":"39.144491","lng":"141.134131"},{"town":"水沢","koaza":"北栗林","lat":"39.150729","lng":"141.136996"},{"town":"前沢","koaza":"長檀","lat":"39.04489","lng":"141.13679"},{"town":"水沢","koaza":"龍ヶ馬場","lat":"39.123285","lng":"141.136496"},{"town":"水沢佐倉河","koaza":"外和田","lat":"39.174553","lng":"141.137548"},{"town":"水沢","koaza":"田小路","lat":"39.140903","lng":"141.134852"},{"town":"前沢","koaza":"白鳥舘","lat":"39.024929","lng":"141.134651"},{"town":"水沢佐倉河","koaza":"渋田","lat":"39.180353","lng":"141.134917"},{"town":"水沢真城","koaza":"要害","lat":"39.095927","lng":"141.139596"},{"town":"前沢","koaza":"島","lat":"39.039535","lng":"141.138604"},{"town":"江刺愛宕","koaza":"三日町","lat":"39.199945","lng":"141.136937"},{"town":"前沢古城","koaza":"寺領沖","lat":"39.075812","lng":"141.135416"},{"town":"水沢佐倉河","koaza":"東幅","lat":"39.159352","lng":"141.135008"},{"town":"水沢","koaza":"新小路","lat":"39.142431","lng":"141.136912"},{"town":"水沢真城","koaza":"中林","lat":"39.103457","lng":"141.135288"},{"town":"水沢","koaza":"吉小路","lat":"39.143797","lng":"141.137584"},{"town":"前沢古城","koaza":"田中前","lat":"39.074833","lng":"141.135738"},{"town":"水沢佐倉河","koaza":"腰廻","lat":"39.16069","lng":"141.134961"},{"town":"水沢真城","koaza":"町下","lat":"39.100066","lng":"141.13503"},{"town":"江刺稲瀬","koaza":"鶴羽衣台","lat":"39.219196","lng":"141.140464"},{"town":"胆沢小山","koaza":"龍ケ馬場","lat":"39.121779","lng":"141.137603"},{"town":"前沢古城","koaza":"北舘","lat":"39.092656","lng":"141.136814"},{"town":"水沢","koaza":"上町","lat":"39.146434","lng":"141.136237"},{"town":"前沢古城","koaza":"要害","lat":"39.069747","lng":"141.136668"},{"town":"水沢佐倉河","koaza":"堂西","lat":"39.1723","lng":"141.135123"},{"town":"水沢真城","koaza":"塚","lat":"39.117189","lng":"141.138212"},{"town":"前沢古城","koaza":"谷地","lat":"39.069027","lng":"141.135987"},{"town":"前沢古城","koaza":"幅下","lat":"39.090008","lng":"141.137181"},{"town":"水沢","koaza":"大畑小路","lat":"39.139805","lng":"141.137818"},{"town":"水沢","koaza":"南大鐘","lat":"39.126412","lng":"141.137483"},{"town":"前沢","koaza":"久田","lat":"39.057715","lng":"141.137711"},{"town":"水沢","koaza":"北丑沢","lat":"39.154093","lng":"141.138645"},{"town":"江刺稲瀬","koaza":"三丁","lat":"39.20728","lng":"141.140064"},{"town":"水沢佐倉河","koaza":"宮ノ内","lat":"39.184461","lng":"141.138032"},{"town":"水沢","koaza":"南丑沢","lat":"39.152113","lng":"141.138657"},{"town":"前沢古城","koaza":"野田","lat":"39.063118","lng":"141.1395"},{"town":"前沢古城","koaza":"東見寺下","lat":"39.079445","lng":"141.137559"},{"town":"前沢古城","koaza":"荒屋敷沖","lat":"39.077863","lng":"141.136931"},{"town":"水沢佐倉河","koaza":"道本","lat":"39.160062","lng":"141.136587"},{"town":"水沢","koaza":"搦手丁","lat":"39.146297","lng":"141.136782"},{"town":"水沢真城","koaza":"土手根","lat":"39.102736","lng":"141.136474"},{"town":"水沢佐倉河","koaza":"薬師堂","lat":"39.173656","lng":"141.139255"},{"town":"水沢佐倉河","koaza":"杉本","lat":"39.170604","lng":"141.139753"},{"town":"前沢古城","koaza":"上ノ台下","lat":"39.063515","lng":"141.138466"},{"town":"水沢真城","koaza":"浜田","lat":"39.109638","lng":"141.138076"},{"town":"水沢佐倉河","koaza":"南久田","lat":"39.156752","lng":"141.138274"},{"town":"水沢佐倉河","koaza":"三ヶ町","lat":"39.177133","lng":"141.137977"},{"town":"前沢古城","koaza":"川原下","lat":"39.082896","lng":"141.136537"},{"town":"水沢佐倉河","koaza":"二月","lat":"39.180443","lng":"141.137435"},{"town":"前沢古城","koaza":"下町","lat":"39.083338","lng":"141.139257"},{"town":"水沢佐倉河","koaza":"久田","lat":"39.159201","lng":"141.138424"},{"town":"前沢古城","koaza":"舘合下","lat":"39.085545","lng":"141.138949"},{"town":"江刺稲瀬","koaza":"沼舘","lat":"39.201644","lng":"141.142494"},{"town":"水沢佐倉河","koaza":"竈堂","lat":"39.167887","lng":"141.140761"},{"town":"水沢佐倉河","koaza":"竈","lat":"39.164571","lng":"141.137432"},{"town":"水沢佐倉河","koaza":"北舘","lat":"39.181563","lng":"141.138436"},{"town":"水沢佐倉河","koaza":"沼ノ町","lat":"39.182854","lng":"141.137488"},{"town":"胆沢小山","koaza":"尼沼","lat":"39.118905","lng":"141.139318"},{"town":"前沢古城","koaza":"内ノ町西","lat":"39.075196","lng":"141.138169"},{"town":"水沢佐倉河","koaza":"三千刈","lat":"39.16139","lng":"141.139907"},{"town":"水沢","koaza":"勝手町","lat":"39.14862","lng":"141.138832"},{"town":"前沢古城","koaza":"十文字","lat":"39.071984","lng":"141.138782"},{"town":"水沢佐倉河","koaza":"中田","lat":"39.165853","lng":"141.140065"},{"town":"水沢","koaza":"川原小路","lat":"39.146093","lng":"141.141037"},{"town":"水沢真城","koaza":"中林下","lat":"39.105259","lng":"141.14022"},{"town":"水沢佐倉河","koaza":"北幅","lat":"39.175758","lng":"141.139645"},{"town":"前沢古城","koaza":"野中","lat":"39.066919","lng":"141.143429"},{"town":"前沢古城","koaza":"境田","lat":"39.072588","lng":"141.139876"},{"town":"水沢","koaza":"横町","lat":"39.140223","lng":"141.139945"},{"town":"前沢","koaza":"道場","lat":"39.045649","lng":"141.142369"},{"town":"水沢","koaza":"赤土田","lat":"39.152004","lng":"141.140258"},{"town":"水沢真城","koaza":"雷神","lat":"39.113731","lng":"141.139664"},{"town":"前沢","koaza":"八幡","lat":"39.041799","lng":"141.141461"},{"town":"前沢古城","koaza":"砂子田","lat":"39.088258","lng":"141.14102"},{"town":"水沢真城","koaza":"谷地","lat":"39.098005","lng":"141.140742"},{"town":"水沢佐倉河","koaza":"祇園","lat":"39.179038","lng":"141.140499"},{"town":"水沢佐倉河","koaza":"中ノ町","lat":"39.164155","lng":"141.142683"},{"town":"水沢","koaza":"立町","lat":"39.147359","lng":"141.141696"},{"town":"前沢生母","koaza":"柳沢","lat":"39.020214","lng":"141.142678"},{"town":"江刺愛宕","koaza":"皀角","lat":"39.196025","lng":"141.142943"},{"town":"水沢真城","koaza":"川尻前","lat":"39.10275","lng":"141.14241"},{"town":"前沢古城","koaza":"野田前","lat":"39.061447","lng":"141.141014"},{"town":"前沢生母","koaza":"吉田","lat":"39.025726","lng":"141.143214"},{"town":"水沢","koaza":"川口町","lat":"39.148503","lng":"141.141296"},{"town":"前沢","koaza":"阿部舘","lat":"39.057119","lng":"141.141494"},{"town":"江刺稲瀬","koaza":"鶴羽衣","lat":"39.215998","lng":"141.144031"},{"town":"水沢真城","koaza":"上林下","lat":"39.107145","lng":"141.141619"},{"town":"前沢古城","koaza":"野中前","lat":"39.064978","lng":"141.143244"},{"town":"前沢古城","koaza":"北舘東","lat":"39.092111","lng":"141.141561"},{"town":"水沢佐倉河","koaza":"地蔵田","lat":"39.17609","lng":"141.140992"},{"town":"水沢佐倉河","koaza":"竈石","lat":"39.156064","lng":"141.141878"},{"town":"水沢","koaza":"東町","lat":"39.139672","lng":"141.142203"},{"town":"前沢古城","koaza":"安久沢東","lat":"39.061497","lng":"141.142502"},{"town":"水沢","koaza":"大町","lat":"39.142892","lng":"141.142594"},{"town":"水沢真城","koaza":"大檀","lat":"39.116994","lng":"141.144077"},{"town":"水沢佐倉河","koaza":"三反町","lat":"39.16065","lng":"141.143353"},{"town":"水沢佐倉河","koaza":"十文字","lat":"39.166824","lng":"141.142033"},{"town":"水沢","koaza":"不断町","lat":"39.150964","lng":"141.141644"},{"town":"前沢古城","koaza":"水神野","lat":"39.06353","lng":"141.143037"},{"town":"前沢古城","koaza":"前沖","lat":"39.083645","lng":"141.142045"},{"town":"水沢真城","koaza":"北上野","lat":"39.12804","lng":"141.142779"},{"town":"水沢佐倉河","koaza":"藤古","lat":"39.170543","lng":"141.14225"},{"town":"前沢","koaza":"宿","lat":"39.044729","lng":"141.144239"},{"town":"前沢古城","koaza":"内ノ町","lat":"39.081782","lng":"141.143198"},{"town":"前沢古城","koaza":"五味田","lat":"39.072909","lng":"141.142008"},{"town":"水沢真城","koaza":"片子沢","lat":"39.130788","lng":"141.144001"},{"town":"前沢古城","koaza":"沖屋敷","lat":"39.086608","lng":"141.143285"},{"town":"江刺愛宕","koaza":"沼ノ上","lat":"39.199613","lng":"141.144338"},{"town":"前沢古城","koaza":"高殿","lat":"39.072503","lng":"141.145233"},{"town":"水沢","koaza":"寺小路","lat":"39.142186","lng":"141.144822"},{"town":"前沢","koaza":"北久保","lat":"39.050896","lng":"141.145115"},{"town":"水沢佐倉河","koaza":"浅屋敷","lat":"39.163395","lng":"141.143815"},{"town":"前沢古城","koaza":"姥屋敷","lat":"39.069277","lng":"141.144326"},{"town":"前沢古城","koaza":"水尻","lat":"39.077954","lng":"141.142811"},{"town":"江刺愛宕","koaza":"天間沖","lat":"39.187159","lng":"141.148028"},{"town":"水沢佐倉河","koaza":"元宿","lat":"39.157362","lng":"141.142682"},{"town":"水沢真城","koaza":"中上野","lat":"39.122962","lng":"141.143387"},{"town":"水沢佐倉河","koaza":"白井坂","lat":"39.168039","lng":"141.144237"},{"town":"水沢真城","koaza":"南上野","lat":"39.119295","lng":"141.143557"},{"town":"前沢生母","koaza":"笹森","lat":"39.023597","lng":"141.145108"},{"town":"水沢真城","koaza":"堤尻下","lat":"39.110854","lng":"141.143063"},{"town":"水沢","koaza":"柳町","lat":"39.146404","lng":"141.144855"},{"town":"水沢","koaza":"多賀","lat":"39.151773","lng":"141.144622"},{"town":"水沢真城","koaza":"八反町","lat":"39.094665","lng":"141.145034"},{"town":"前沢古城","koaza":"水上西","lat":"39.079485","lng":"141.144184"},{"town":"前沢","koaza":"中久保","lat":"39.049","lng":"141.144518"},{"town":"江刺稲瀬","koaza":"大文字","lat":"39.211086","lng":"141.148485"},{"town":"前沢生母","koaza":"上水","lat":"39.026572","lng":"141.143709"},{"town":"前沢古城","koaza":"姥屋敷後","lat":"39.070358","lng":"141.143338"},{"town":"水沢佐倉河","koaza":"関谷","lat":"39.156734","lng":"141.144396"},{"town":"水沢真城","koaza":"谷地舘","lat":"39.099774","lng":"141.145687"},{"town":"水沢佐倉河","koaza":"吹張","lat":"39.166858","lng":"141.146206"},{"town":"水沢佐倉河","koaza":"寺西","lat":"39.165001","lng":"141.145339"},{"town":"水沢佐倉河","koaza":"沼田","lat":"39.162737","lng":"141.145199"},{"town":"水沢","koaza":"三本木","lat":"39.143954","lng":"141.145029"},{"town":"前沢生母","koaza":"箱根","lat":"39.02256","lng":"141.148322"},{"town":"水沢佐倉河","koaza":"車堂","lat":"39.158882","lng":"141.145952"},{"town":"前沢白山","koaza":"彼岸田","lat":"39.063441","lng":"141.146154"},{"town":"前沢古城","koaza":"草井川","lat":"39.083246","lng":"141.145788"},{"town":"水沢佐倉河","koaza":"上舘","lat":"39.170737","lng":"141.144635"},{"town":"前沢古城","koaza":"南八反町","lat":"39.078908","lng":"141.146193"},{"town":"水沢真城","koaza":"高田","lat":"39.113858","lng":"141.145574"},{"town":"水沢真城","koaza":"川尻","lat":"39.103623","lng":"141.145457"},{"town":"前沢古城","koaza":"四反田","lat":"39.074377","lng":"141.147314"},{"town":"工業団地二丁目","koaza":"","lat":"39.168141","lng":"141.15002"},{"town":"水沢佐倉河","koaza":"嶋舘","lat":"39.15515","lng":"141.149105"},{"town":"前沢白山","koaza":"迎畑","lat":"39.061505","lng":"141.149253"},{"town":"江刺愛宕","koaza":"北天間","lat":"39.191138","lng":"141.147482"},{"town":"前沢生母","koaza":"田谷","lat":"39.031828","lng":"141.149149"},{"town":"前沢","koaza":"中村","lat":"39.048266","lng":"141.146404"},{"town":"水沢真城","koaza":"柿ノ木下","lat":"39.115051","lng":"141.145774"},{"town":"水沢佐倉河","koaza":"車","lat":"39.15957","lng":"141.146493"},{"town":"水沢佐倉河","koaza":"道下","lat":"39.15635","lng":"141.149185"},{"town":"水沢","koaza":"寺脇","lat":"39.138976","lng":"141.14608"},{"town":"水沢真城","koaza":"幅下","lat":"39.125054","lng":"141.145975"},{"town":"水沢真城","koaza":"杉山下","lat":"39.12801","lng":"141.147997"},{"town":"水沢佐倉河","koaza":"天井町","lat":"39.161856","lng":"141.147847"},{"town":"水沢佐倉河","koaza":"鐙田","lat":"39.150797","lng":"141.148562"},{"town":"前沢白山","koaza":"籠林","lat":"39.065704","lng":"141.148121"},{"town":"前沢生母","koaza":"青木","lat":"39.025008","lng":"141.152037"},{"town":"前沢白山","koaza":"田高","lat":"39.068661","lng":"141.147647"},{"town":"水沢佐倉河","koaza":"東舘","lat":"39.164449","lng":"141.148508"},{"town":"水沢真城","koaza":"搦手","lat":"39.131597","lng":"141.146477"},{"town":"水沢佐倉河","koaza":"前田","lat":"39.147389","lng":"141.14896"},{"town":"水沢真城","koaza":"落合","lat":"39.103712","lng":"141.148781"},{"town":"水沢真城","koaza":"二ツ渕","lat":"39.099872","lng":"141.148304"},{"town":"江刺稲瀬","koaza":"下台","lat":"39.219473","lng":"141.154787"},{"town":"江刺稲瀬","koaza":"天竺老婆","lat":"39.202658","lng":"141.151674"},{"town":"水沢佐倉河","koaza":"川原田","lat":"39.144755","lng":"141.149173"},{"town":"江刺稲瀬","koaza":"二丁目","lat":"39.208574","lng":"141.150017"},{"town":"水沢真城","koaza":"北塩加羅","lat":"39.131591","lng":"141.149258"},{"town":"水沢佐倉河","koaza":"慶徳","lat":"39.143771","lng":"141.150832"},{"town":"水沢佐倉河","koaza":"佐野原","lat":"39.15858","lng":"141.14851"},{"town":"前沢古城","koaza":"宿ノ前","lat":"39.075558","lng":"141.151293"},{"town":"前沢生母","koaza":"畑","lat":"39.029028","lng":"141.147046"},{"town":"水沢真城","koaza":"金田","lat":"39.110654","lng":"141.14924"},{"town":"江刺愛宕","koaza":"三治川原","lat":"39.179116","lng":"141.148634"},{"town":"水沢佐倉河","koaza":"舘下","lat":"39.16709","lng":"141.147301"},{"town":"江刺愛宕","koaza":"別当","lat":"39.199315","lng":"141.150653"},{"town":"水沢真城","koaza":"志田見沢","lat":"39.119211","lng":"141.149352"},{"town":"水沢真城","koaza":"土手","lat":"39.101699","lng":"141.15074"},{"town":"前沢古城","koaza":"舘八反町","lat":"39.079182","lng":"141.147741"},{"town":"前沢白山","koaza":"石持","lat":"39.070862","lng":"141.148368"},{"town":"江刺稲瀬","koaza":"十文字台","lat":"39.229341","lng":"141.153329"},{"town":"水沢佐倉河","koaza":"五反町","lat":"39.153653","lng":"141.149373"},{"town":"江刺愛宕","koaza":"林","lat":"39.182503","lng":"141.149913"},{"town":"水沢佐倉河","koaza":"瓦ヶ田","lat":"39.161706","lng":"141.149766"},{"town":"前沢生母","koaza":"吉ケ沢","lat":"39.026113","lng":"141.153592"},{"town":"水沢真城","koaza":"南塩加羅","lat":"39.12845","lng":"141.15111"},{"town":"水沢真城","koaza":"刈又","lat":"39.129676","lng":"141.151478"},{"town":"前沢古城","koaza":"林後","lat":"39.086215","lng":"141.15118"},{"town":"水沢真城","koaza":"堂林前","lat":"39.12321","lng":"141.149847"},{"town":"水沢佐倉河","koaza":"後田","lat":"39.148727","lng":"141.148823"},{"town":"水沢真城","koaza":"谷地堰","lat":"39.121836","lng":"141.148885"},{"town":"江刺愛宕","koaza":"駒籠","lat":"39.195087","lng":"141.1514"},{"town":"前沢古城","koaza":"中田前","lat":"39.085706","lng":"141.14914"},{"town":"水沢真城","koaza":"杉ノ下","lat":"39.113766","lng":"141.150683"},{"town":"前沢白山","koaza":"八幡","lat":"39.065062","lng":"141.151358"},{"town":"水沢真城","koaza":"堂田","lat":"39.089335","lng":"141.153007"},{"town":"水沢真城","koaza":"砂川","lat":"39.094122","lng":"141.151243"},{"town":"前沢古城","koaza":"林前","lat":"39.083794","lng":"141.150676"},{"town":"江刺稲瀬","koaza":"柏原","lat":"39.240408","lng":"141.156437"},{"town":"前沢白山","koaza":"鍵取","lat":"39.068288","lng":"141.149093"},{"town":"前沢生母","koaza":"荒谷","lat":"39.036441","lng":"141.151572"},{"town":"工業団地一丁目","koaza":"","lat":"39.165243","lng":"141.152247"},{"town":"前沢生母","koaza":"新地","lat":"39.03074","lng":"141.154963"},{"town":"水沢佐倉河","koaza":"根岸","lat":"39.162021","lng":"141.151269"},{"town":"前沢古城","koaza":"北八反町","lat":"39.079702","lng":"141.150274"},{"town":"前沢古城","koaza":"新山前","lat":"39.08273","lng":"141.151532"},{"town":"江刺稲瀬","koaza":"払田","lat":"39.254343","lng":"141.154237"},{"town":"前沢白山","koaza":"鶴田","lat":"39.07145","lng":"141.151057"},{"town":"前沢古城","koaza":"向田","lat":"39.081163","lng":"141.150855"},{"town":"前沢白山","koaza":"莇田","lat":"39.061973","lng":"141.15355"},{"town":"水沢佐倉河","koaza":"東柳ノ町","lat":"39.152007","lng":"141.150772"},{"town":"水沢真城","koaza":"舘","lat":"39.108344","lng":"141.151643"},{"town":"水沢佐倉河","koaza":"東沖ノ目","lat":"39.149329","lng":"141.153168"},{"town":"江刺愛宕","koaza":"西下川原","lat":"39.175858","lng":"141.152777"},{"town":"前沢白山","koaza":"宮内","lat":"39.060333","lng":"141.151955"},{"town":"水沢真城","koaza":"東鶴巻","lat":"39.127475","lng":"141.153934"},{"town":"水沢真城","koaza":"北野","lat":"39.112286","lng":"141.154562"},{"town":"水沢真城","koaza":"西鶴巻","lat":"39.124553","lng":"141.154111"},{"town":"水沢真城","koaza":"谷地中","lat":"39.121822","lng":"141.151247"},{"town":"江刺稲瀬","koaza":"宝禄","lat":"39.202215","lng":"141.157218"},{"town":"前沢白山","koaza":"天王谷起","lat":"39.05779","lng":"141.151455"},{"town":"江刺愛宕","koaza":"馬場先","lat":"39.181864","lng":"141.156336"},{"town":"水沢真城","koaza":"田中前","lat":"39.119403","lng":"141.151135"},{"town":"前沢生母","koaza":"長根","lat":"39.032374","lng":"141.156651"},{"town":"水沢佐倉河","koaza":"後樋","lat":"39.151911","lng":"141.152803"},{"town":"水沢佐倉河","koaza":"南桜沢","lat":"39.159901","lng":"141.15259"},{"town":"前沢白山","koaza":"上野","lat":"39.068861","lng":"141.152644"},{"town":"水沢佐倉河","koaza":"東小深田","lat":"39.158586","lng":"141.152584"},{"town":"水沢真城","koaza":"高根","lat":"39.094918","lng":"141.154192"},{"town":"水沢真城","koaza":"畑ヶ田","lat":"39.108646","lng":"141.155152"},{"town":"水沢佐倉河","koaza":"仙人","lat":"39.161698","lng":"141.155693"},{"town":"前沢白山","koaza":"大塚","lat":"39.066624","lng":"141.152972"},{"town":"江刺愛宕","koaza":"宿","lat":"39.177429","lng":"141.154329"},{"town":"水沢真城","koaza":"要害前","lat":"39.119139","lng":"141.153899"},{"town":"前沢生母","koaza":"剱林","lat":"39.041064","lng":"141.15572"},{"town":"水沢佐倉河","koaza":"後野","lat":"39.145285","lng":"141.155626"},{"town":"前沢白山","koaza":"松ケ林","lat":"39.084747","lng":"141.153203"},{"town":"水沢佐倉河","koaza":"石橋","lat":"39.147257","lng":"141.154084"},{"town":"水沢真城","koaza":"迎畑","lat":"39.119752","lng":"141.155088"},{"town":"江刺愛宕","koaza":"樋渡","lat":"39.190211","lng":"141.156729"},{"town":"水沢真城","koaza":"迎野","lat":"39.095614","lng":"141.156288"},{"town":"前沢白山","koaza":"関口","lat":"39.081951","lng":"141.156816"},{"town":"前沢生母","koaza":"竹ノ内","lat":"39.04258","lng":"141.156587"},{"town":"江刺愛宕","koaza":"伊勢堂前","lat":"39.185426","lng":"141.15521"},{"town":"工業団地四丁目","koaza":"","lat":"39.163798","lng":"141.155471"},{"town":"水沢真城","koaza":"中平","lat":"39.106964","lng":"141.157512"},{"town":"前沢生母","koaza":"斎田","lat":"39.03717","lng":"141.15441"},{"town":"江刺稲瀬","koaza":"広岡前","lat":"39.211436","lng":"141.1574"},{"town":"江刺愛宕","koaza":"東下川原","lat":"39.172844","lng":"141.155712"},{"town":"水沢佐倉河","koaza":"羽黒田","lat":"39.146215","lng":"141.156157"},{"town":"前沢白山","koaza":"古舘","lat":"39.087187","lng":"141.154858"},{"town":"水沢真城","koaza":"北下田","lat":"39.116845","lng":"141.155808"},{"town":"水沢佐倉河","koaza":"梨田川","lat":"39.153309","lng":"141.157499"},{"town":"水沢真城","koaza":"宮田","lat":"39.122196","lng":"141.15528"},{"town":"水沢佐倉河","koaza":"高谷","lat":"39.158504","lng":"141.154378"},{"town":"水沢佐倉河","koaza":"東広町","lat":"39.143637","lng":"141.155697"},{"town":"前沢白山","koaza":"水ノ口","lat":"39.088632","lng":"141.156357"},{"town":"工業団地三丁目","koaza":"","lat":"39.165298","lng":"141.159577"},{"town":"水沢真城","koaza":"町南","lat":"39.126825","lng":"141.156663"},{"town":"前沢白山","koaza":"清水畑","lat":"39.068158","lng":"141.15859"},{"town":"前沢白山","koaza":"内舘","lat":"39.06591","lng":"141.157353"},{"town":"前沢白山","koaza":"舘","lat":"39.064714","lng":"141.157626"},{"town":"水沢真城","koaza":"西田","lat":"39.102198","lng":"141.15593"},{"town":"水沢真城","koaza":"下谷地","lat":"39.100974","lng":"141.156186"},{"town":"前沢白山","koaza":"銭神","lat":"39.069467","lng":"141.156108"},{"town":"江刺稲瀬","koaza":"小倉沢","lat":"39.228924","lng":"141.163544"},{"town":"江刺愛宕","koaza":"境畑","lat":"39.173168","lng":"141.159979"},{"town":"水沢佐倉河","koaza":"横枕","lat":"39.151263","lng":"141.157771"},{"town":"水沢真城","koaza":"町屋敷","lat":"39.12615","lng":"141.159922"},{"town":"江刺愛宕","koaza":"桜ノ木","lat":"39.170937","lng":"141.158911"},{"town":"江刺愛宕","koaza":"小畑","lat":"39.178264","lng":"141.157828"},{"town":"前沢白山","koaza":"舘沖","lat":"39.08734","lng":"141.157297"},{"town":"江刺稲瀬","koaza":"広岡","lat":"39.215218","lng":"141.160143"},{"town":"前沢白山","koaza":"胎内","lat":"39.0766","lng":"141.157488"},{"town":"水沢真城","koaza":"荒谷","lat":"39.109444","lng":"141.157086"},{"town":"江刺稲瀬","koaza":"関根","lat":"39.200526","lng":"141.158569"},{"town":"水沢姉体町","koaza":"水ノ口前","lat":"39.114193","lng":"141.15945"},{"town":"水沢佐倉河","koaza":"矢中","lat":"39.15576","lng":"141.159528"},{"town":"江刺岩谷堂","koaza":"百連寺","lat":"39.195168","lng":"141.158846"},{"town":"水沢真城","koaza":"谷地田","lat":"39.103211","lng":"141.159517"},{"town":"水沢佐倉河","koaza":"沢田","lat":"39.160048","lng":"141.158007"},{"town":"前沢白山","koaza":"小林","lat":"39.070831","lng":"141.158037"},{"town":"前沢白山","koaza":"道ノ上","lat":"39.080472","lng":"141.158881"},{"town":"水沢真城","koaza":"東谷地","lat":"39.10749","lng":"141.159099"},{"town":"前沢白山","koaza":"檜葉田","lat":"39.088237","lng":"141.162105"},{"town":"水沢姉体町","koaza":"林前","lat":"39.118102","lng":"141.15895"},{"town":"水沢佐倉河","koaza":"富堂","lat":"39.148414","lng":"141.15948"},{"town":"前沢生母","koaza":"簑輪","lat":"39.040153","lng":"141.16045"},{"town":"水沢真城","koaza":"垣ノ内","lat":"39.124147","lng":"141.16128"},{"town":"前沢白山","koaza":"宇津揆根","lat":"39.082539","lng":"141.15847"},{"town":"水沢姉体町","koaza":"北余目","lat":"39.123083","lng":"141.159725"},{"town":"水沢真城","koaza":"植田","lat":"39.100836","lng":"141.159051"},{"town":"前沢白山","koaza":"合野","lat":"39.074457","lng":"141.159649"},{"town":"水沢佐倉河","koaza":"東鍜治屋","lat":"39.158914","lng":"141.15877"},{"town":"水沢佐倉河","koaza":"野田","lat":"39.141755","lng":"141.161533"},{"town":"水沢真城","koaza":"下植田","lat":"39.098476","lng":"141.159534"},{"town":"江刺愛宕","koaza":"八日市","lat":"39.184534","lng":"141.159758"},{"town":"水沢上姉体七丁目","koaza":"","lat":"39.119466","lng":"141.159495"},{"town":"水沢真城","koaza":"南下田","lat":"39.093899","lng":"141.159529"},{"town":"江刺愛宕","koaza":"梁川","lat":"39.179639","lng":"141.162225"},{"town":"水沢上姉体六丁目","koaza":"","lat":"39.116194","lng":"141.159997"},{"town":"江刺愛宕","koaza":"新川","lat":"39.188176","lng":"141.160435"},{"town":"水沢佐倉河","koaza":"前田中","lat":"39.145362","lng":"141.160526"},{"town":"前沢白山","koaza":"上合野","lat":"39.076419","lng":"141.160165"},{"town":"江刺愛宕","koaza":"谷地","lat":"39.175398","lng":"141.15973"},{"town":"江刺愛宕","koaza":"後中野","lat":"39.175343","lng":"141.163866"},{"town":"水沢佐倉河","koaza":"笹町","lat":"39.160522","lng":"141.161027"},{"town":"前沢白山","koaza":"船橋","lat":"39.066585","lng":"141.16172"},{"town":"前沢白山","koaza":"古宿","lat":"39.071634","lng":"141.161869"},{"town":"前沢白山","koaza":"雨田","lat":"39.082108","lng":"141.161306"},{"town":"前沢生母","koaza":"羽場","lat":"39.045253","lng":"141.159571"},{"town":"水沢佐倉河","koaza":"蟹沢","lat":"39.156062","lng":"141.160599"},{"town":"江刺岩谷堂","koaza":"内ノ町","lat":"39.201299","lng":"141.164155"},{"town":"江刺岩谷堂","koaza":"根岸","lat":"39.202878","lng":"141.1656"},{"town":"前沢白山","koaza":"保志場","lat":"39.0859","lng":"141.161765"},{"town":"前沢白山","koaza":"繁長","lat":"39.069046","lng":"141.161667"},{"town":"前沢生母","koaza":"二子","lat":"39.031487","lng":"141.171274"},{"town":"前沢生母","koaza":"日向","lat":"39.04126","lng":"141.164103"},{"town":"前沢白山","koaza":"学堂","lat":"39.077239","lng":"141.163319"},{"town":"江刺岩谷堂","koaza":"二本木","lat":"39.190433","lng":"141.164062"},{"town":"江刺稲瀬","koaza":"沢崎","lat":"39.225877","lng":"141.167206"},{"town":"前沢白山","koaza":"白山前","lat":"39.074108","lng":"141.162006"},{"town":"水沢真城","koaza":"町北浦","lat":"39.128614","lng":"141.161142"},{"town":"水沢上姉体四丁目","koaza":"","lat":"39.118948","lng":"141.162953"},{"town":"江刺岩谷堂","koaza":"小境","lat":"39.191456","lng":"141.16589"},{"town":"水沢佐倉河","koaza":"東袖ノ目","lat":"39.150688","lng":"141.162915"},{"town":"前沢白山","koaza":"朴ノ木田","lat":"39.081609","lng":"141.164129"},{"town":"前沢白山","koaza":"大曲","lat":"39.067229","lng":"141.162343"},{"town":"水沢上姉体五丁目","koaza":"","lat":"39.121137","lng":"141.163069"},{"town":"江刺稲瀬","koaza":"佐野","lat":"39.214921","lng":"141.167328"},{"town":"江刺稲瀬","koaza":"川添","lat":"39.216258","lng":"141.162086"},{"town":"江刺稲瀬","koaza":"伊加里","lat":"39.220988","lng":"141.164782"},{"town":"水沢佐倉河","koaza":"惣前町","lat":"39.152214","lng":"141.163176"},{"town":"水沢佐倉河","koaza":"小美濃口","lat":"39.14792","lng":"141.162549"},{"town":"江刺稲瀬","koaza":"上六堂","lat":"39.242418","lng":"141.16839"},{"town":"江刺愛宕","koaza":"前中野","lat":"39.170288","lng":"141.166583"},{"town":"水沢真城","koaza":"島田","lat":"39.103928","lng":"141.1657"},{"town":"水沢佐倉河","koaza":"桜ノ目","lat":"39.141968","lng":"141.166672"},{"town":"水沢姉体町","koaza":"原ノ西","lat":"39.123266","lng":"141.162857"},{"town":"前沢白山","koaza":"合子屋敷","lat":"39.082958","lng":"141.163668"},{"town":"水沢佐倉河","koaza":"杉ヶ崎","lat":"39.15227","lng":"141.165138"},{"town":"水沢真城","koaza":"寺後","lat":"39.127752","lng":"141.163259"},{"town":"前沢生母","koaza":"新田","lat":"39.043608","lng":"141.17199"},{"town":"水沢姉体町","koaza":"漆林","lat":"39.09343","lng":"141.167557"},{"town":"水沢真城","koaza":"堤根","lat":"39.130314","lng":"141.163303"},{"town":"水沢姉体町","koaza":"西田","lat":"39.091017","lng":"141.16415"},{"town":"前沢白山","koaza":"川岸場","lat":"39.072876","lng":"141.164224"},{"town":"水沢佐倉河","koaza":"北田","lat":"39.144815","lng":"141.165642"},{"town":"水沢真城","koaza":"大学","lat":"39.129231","lng":"141.163796"},{"town":"江刺岩谷堂","koaza":"北八日市","lat":"39.186301","lng":"141.165818"},{"town":"水沢佐倉河","koaza":"宝龍田","lat":"39.140823","lng":"141.164413"},{"town":"水沢真城","koaza":"熊ノ堂","lat":"39.133884","lng":"141.164785"},{"town":"江刺愛宕","koaza":"観音堂沖","lat":"39.18082","lng":"141.168736"},{"town":"水沢姉体町","koaza":"石名坂","lat":"39.123174","lng":"141.164749"},{"town":"前沢白山","koaza":"内屋敷","lat":"39.076904","lng":"141.166418"},{"town":"水沢姉体町","koaza":"余目下","lat":"39.112878","lng":"141.166119"},{"town":"前沢生母","koaza":"南羽毛","lat":"39.046673","lng":"141.168299"},{"town":"水沢姉体町","koaza":"境田","lat":"39.099422","lng":"141.166107"},{"town":"水沢佐倉河","koaza":"久根妻","lat":"39.148016","lng":"141.166338"},{"town":"水沢真城","koaza":"沼尻","lat":"39.131456","lng":"141.166553"},{"town":"江刺岩谷堂","koaza":"御所橋","lat":"39.197426","lng":"141.167684"},{"town":"水沢姉体町","koaza":"寺ノ西","lat":"39.11712","lng":"141.164958"},{"town":"前沢生母","koaza":"峠","lat":"39.032793","lng":"141.174713"},{"town":"江刺岩谷堂","koaza":"高畑","lat":"39.21343","lng":"141.169713"},{"town":"前沢白山","koaza":"松葉","lat":"39.087328","lng":"141.165201"},{"town":"江刺岩谷堂","koaza":"南八日市","lat":"39.184037","lng":"141.167561"},{"town":"江刺愛宕","koaza":"池向","lat":"39.176702","lng":"141.167144"},{"town":"水沢姉体町","koaza":"京原","lat":"39.109762","lng":"141.166675"},{"town":"水沢姉体町","koaza":"桧田","lat":"39.088929","lng":"141.164807"},{"town":"水沢佐倉河","koaza":"杉ノ堂","lat":"39.137209","lng":"141.166207"},{"town":"水沢黒石町","koaza":"鶴城","lat":"39.092143","lng":"141.1915"},{"town":"水沢姉体町","koaza":"原ノ下","lat":"39.120118","lng":"141.165236"},{"town":"水沢姉体町","koaza":"阿久戸","lat":"39.129331","lng":"141.167325"},{"town":"前沢生母","koaza":"南在","lat":"39.050856","lng":"141.172537"},{"town":"前沢白山","koaza":"綾織","lat":"39.090789","lng":"141.167226"},{"town":"江刺愛宕","koaza":"中谷木","lat":"39.162537","lng":"141.168875"},{"town":"水沢佐倉河","koaza":"瀬ノ上","lat":"39.139638","lng":"141.166926"},{"town":"水沢姉体町","koaza":"内城","lat":"39.088539","lng":"141.169392"},{"town":"水沢佐倉河","koaza":"下谷起","lat":"39.133744","lng":"141.166615"},{"town":"水沢姉体町","koaza":"大内田前","lat":"39.116871","lng":"141.167716"},{"town":"前沢白山","koaza":"反畑","lat":"39.083318","lng":"141.166969"},{"town":"水沢姉体町","koaza":"沢田","lat":"39.121093","lng":"141.167111"},{"town":"江刺愛宕","koaza":"海老島","lat":"39.168384","lng":"141.169885"},{"town":"水沢姉体町","koaza":"野中","lat":"39.084091","lng":"141.168051"},{"town":"水沢姉体町","koaza":"若草","lat":"39.126737","lng":"141.171796"},{"town":"江刺愛宕","koaza":"三百刈田","lat":"39.173306","lng":"141.170909"},{"town":"水沢姉体町","koaza":"山居","lat":"39.100158","lng":"141.168077"},{"town":"前沢白山","koaza":"西谷起","lat":"39.061445","lng":"141.168526"},{"town":"水沢姉体町","koaza":"五輪","lat":"39.081473","lng":"141.169023"},{"town":"前沢白山","koaza":"堂ノ木","lat":"39.078629","lng":"141.168549"},{"town":"水沢姉体町","koaza":"稗田下","lat":"39.114053","lng":"141.167774"},{"town":"水沢姉体町","koaza":"上野起","lat":"39.121404","lng":"141.170857"},{"town":"江刺岩谷堂","koaza":"川原崎","lat":"39.198893","lng":"141.169531"},{"town":"水沢姉体町","koaza":"車堂","lat":"39.11537","lng":"141.168827"},{"town":"水沢姉体町","koaza":"長面東","lat":"39.112587","lng":"141.167958"},{"town":"江刺岩谷堂","koaza":"歌読","lat":"39.22857","lng":"141.176184"},{"town":"水沢姉体町","koaza":"元天神前","lat":"39.112308","lng":"141.170306"},{"town":"水沢姉体町","koaza":"北白山","lat":"39.111027","lng":"141.170984"},{"town":"江刺岩谷堂","koaza":"一本松","lat":"39.194216","lng":"141.169621"},{"town":"水沢真城","koaza":"明神堂","lat":"39.132194","lng":"141.169874"},{"town":"水沢姉体町","koaza":"本宿","lat":"39.093142","lng":"141.171958"},{"town":"水沢姉体町","koaza":"根蕪","lat":"39.107861","lng":"141.170031"},{"town":"前沢生母","koaza":"大街道","lat":"39.064902","lng":"141.170361"},{"town":"水沢姉体町","koaza":"目細","lat":"39.106762","lng":"141.16957"},{"town":"水沢姉体町","koaza":"深町","lat":"39.090224","lng":"141.170716"},{"town":"水沢姉体町","koaza":"八軒野起西口","lat":"39.128101","lng":"141.170175"},{"town":"江刺岩谷堂","koaza":"耳取","lat":"39.201653","lng":"141.170312"},{"town":"水沢姉体町","koaza":"田畑","lat":"39.104887","lng":"141.170624"},{"town":"水沢姉体町","koaza":"鞘戸","lat":"39.08414","lng":"141.171315"},{"town":"水沢姉体町","koaza":"上野","lat":"39.099701","lng":"141.172518"},{"town":"水沢姉体町","koaza":"内構","lat":"39.094662","lng":"141.17705"},{"town":"江刺愛宕","koaza":"大畑","lat":"39.157544","lng":"141.174048"},{"town":"江刺岩谷堂","koaza":"松長根","lat":"39.208458","lng":"141.181406"},{"town":"水沢姉体町","koaza":"山居前","lat":"39.095802","lng":"141.172216"},{"town":"水沢姉体町","koaza":"吹張","lat":"39.087271","lng":"141.173104"},{"town":"水沢姉体町","koaza":"上島","lat":"39.111896","lng":"141.173632"},{"town":"水沢姉体町","koaza":"鍜治屋敷","lat":"39.091784","lng":"141.172323"},{"town":"江刺愛宕","koaza":"酉丸","lat":"39.167402","lng":"141.175163"},{"town":"水沢姉体町","koaza":"南白山","lat":"39.10805","lng":"141.174237"},{"town":"江刺愛宕","koaza":"橋本","lat":"39.176681","lng":"141.173891"},{"town":"水沢姉体町","koaza":"占切","lat":"39.11952","lng":"141.172271"},{"town":"水沢姉体町","koaza":"五百刈田","lat":"39.100779","lng":"141.174814"},{"town":"前沢生母","koaza":"前川原","lat":"39.054516","lng":"141.172358"},{"town":"水沢姉体町","koaza":"殿野起","lat":"39.11591","lng":"141.173747"},{"town":"水沢姉体町","koaza":"沖","lat":"39.1059","lng":"141.172165"},{"town":"前沢生母","koaza":"中道","lat":"39.059147","lng":"141.17288"},{"town":"江刺稲瀬","koaza":"新田","lat":"39.236483","lng":"141.180728"},{"town":"江刺愛宕","koaza":"土花","lat":"39.14972","lng":"141.175034"},{"town":"前沢生母","koaza":"西舘","lat":"39.054555","lng":"141.174975"},{"town":"水沢姉体町","koaza":"迎畑","lat":"39.092667","lng":"141.174461"},{"town":"江刺岩谷堂","koaza":"袖山","lat":"39.222474","lng":"141.178458"},{"town":"前沢生母","koaza":"前野","lat":"39.046591","lng":"141.176799"},{"town":"江刺愛宕","koaza":"朴ノ木","lat":"39.179436","lng":"141.177098"},{"town":"水沢姉体町","koaza":"天神林","lat":"39.095806","lng":"141.176278"},{"town":"前沢生母","koaza":"町","lat":"39.057613","lng":"141.175412"},{"town":"水沢姉体町","koaza":"南新田下","lat":"39.104409","lng":"141.176903"},{"town":"水沢姉体町","koaza":"樋ノ口","lat":"39.103395","lng":"141.174965"},{"town":"水沢姉体町","koaza":"庚申塚","lat":"39.088442","lng":"141.17499"},{"town":"江刺愛宕","koaza":"滑","lat":"39.180855","lng":"141.175489"},{"town":"水沢姉体町","koaza":"宿","lat":"39.096905","lng":"141.177099"},{"town":"江刺愛宕","koaza":"落合","lat":"39.173764","lng":"141.179583"},{"town":"水沢羽田町","koaza":"谷木","lat":"39.123168","lng":"141.175473"},{"town":"水沢羽田町","koaza":"草井沼","lat":"39.125214","lng":"141.175661"},{"town":"前沢生母","koaza":"北羽毛","lat":"39.059117","lng":"141.179728"},{"town":"水沢姉体町","koaza":"小庄","lat":"39.100879","lng":"141.175959"},{"town":"江刺愛宕","koaza":"荒谷","lat":"39.155357","lng":"141.176718"},{"town":"水沢姉体町","koaza":"橋本","lat":"39.092365","lng":"141.178173"},{"town":"水沢羽田町","koaza":"中袋","lat":"39.13681","lng":"141.178235"},{"town":"水沢羽田町","koaza":"下沼","lat":"39.122393","lng":"141.176738"},{"town":"前沢生母","koaza":"伏畔","lat":"39.055841","lng":"141.178607"},{"town":"江刺岩谷堂","koaza":"舘下","lat":"39.198696","lng":"141.179337"},{"town":"江刺愛宕","koaza":"力石","lat":"39.163702","lng":"141.181468"},{"town":"水沢羽田町","koaza":"上小谷木","lat":"39.136223","lng":"141.177583"},{"town":"水沢羽田町","koaza":"粟ノ瀬","lat":"39.140983","lng":"141.179268"},{"town":"前沢生母","koaza":"谷地前","lat":"39.05107","lng":"141.180508"},{"town":"前沢生母","koaza":"市ノ渡","lat":"39.041981","lng":"141.184729"},{"town":"江刺愛宕","koaza":"金谷","lat":"39.158342","lng":"141.180798"},{"town":"水沢黒石町","koaza":"二渡","lat":"39.073347","lng":"141.179796"},{"town":"江刺岩谷堂","koaza":"五道ヶ辻","lat":"39.2034","lng":"141.182119"},{"town":"水沢姉体町","koaza":"小槻","lat":"39.098148","lng":"141.179604"},{"town":"江刺愛宕","koaza":"稗田","lat":"39.170447","lng":"141.180761"},{"town":"水沢姉体町","koaza":"八幡","lat":"39.095073","lng":"141.179816"},{"town":"水沢羽田町","koaza":"明正","lat":"39.138549","lng":"141.184003"},{"town":"水沢羽田町","koaza":"荒川","lat":"39.143826","lng":"141.18118"},{"town":"水沢羽田町","koaza":"室ノ木","lat":"39.140816","lng":"141.180837"},{"town":"前沢生母","koaza":"上谷起","lat":"39.066945","lng":"141.180641"},{"town":"水沢羽田町","koaza":"下小谷木","lat":"39.133334","lng":"141.181683"},{"town":"江刺岩谷堂","koaza":"寺田","lat":"39.17731","lng":"141.180625"},{"town":"前沢生母","koaza":"壇ノ腰","lat":"39.061709","lng":"141.183783"},{"town":"水沢羽田町","koaza":"森","lat":"39.148042","lng":"141.18239"},{"town":"前沢生母","koaza":"上木山","lat":"39.034558","lng":"141.189481"},{"town":"水沢姉体町","koaza":"石川原","lat":"39.094469","lng":"141.180798"},{"town":"水沢羽田町","koaza":"並柳","lat":"39.138702","lng":"141.18136"},{"town":"水沢羽田町","koaza":"向森","lat":"39.153436","lng":"141.181592"},{"town":"水沢羽田町","koaza":"上川端","lat":"39.154248","lng":"141.182288"},{"town":"江刺岩谷堂","koaza":"菖蒲沢","lat":"39.227953","lng":"141.182003"},{"town":"前沢生母","koaza":"中ノ沢","lat":"39.054287","lng":"141.185742"},{"town":"水沢羽田町","koaza":"寺前","lat":"39.139695","lng":"141.182225"},{"town":"前沢生母","koaza":"小島谷起","lat":"39.068468","lng":"141.182974"},{"town":"江刺田原","koaza":"川崎","lat":"39.155985","lng":"141.187378"},{"town":"江刺岩谷堂","koaza":"新地野堰上","lat":"39.203375","lng":"141.18423"},{"town":"水沢羽田町","koaza":"堀ノ内","lat":"39.139783","lng":"141.184674"},{"town":"水沢羽田町","koaza":"上新田","lat":"39.150799","lng":"141.185458"},{"town":"前沢生母","koaza":"金揚","lat":"39.044607","lng":"141.18757"},{"town":"水沢羽田町","koaza":"小屋敷","lat":"39.137203","lng":"141.185509"},{"town":"前沢生母","koaza":"滝ノ沢","lat":"39.057223","lng":"141.186491"},{"town":"前沢生母","koaza":"天王","lat":"39.066566","lng":"141.186157"},{"town":"水沢羽田町","koaza":"沼尻","lat":"39.134053","lng":"141.187817"},{"town":"前沢生母","koaza":"下沢田","lat":"39.065205","lng":"141.186181"},{"town":"前沢生母","koaza":"地蔵壇","lat":"39.048184","lng":"141.201767"},{"town":"江刺愛宕","koaza":"前広田","lat":"39.159751","lng":"141.186414"},{"town":"水沢黒石町","koaza":"白石沢","lat":"39.072171","lng":"141.189655"},{"town":"水沢黒石町","koaza":"鵜ノ木","lat":"39.124254","lng":"141.186518"},{"town":"江刺岩谷堂","koaza":"向山","lat":"39.189592","lng":"141.19105"},{"town":"江刺岩谷堂","koaza":"田中","lat":"39.175041","lng":"141.187795"},{"town":"江刺岩谷堂","koaza":"反町","lat":"39.182161","lng":"141.186292"},{"town":"江刺岩谷堂","koaza":"新地野道下","lat":"39.205262","lng":"141.189704"},{"town":"水沢黒石町","koaza":"内堀谷記","lat":"39.107123","lng":"141.193703"},{"town":"水沢黒石町","koaza":"鵜ノ木新田","lat":"39.118662","lng":"141.189895"},{"town":"前沢生母","koaza":"三沢","lat":"39.051226","lng":"141.192369"},{"town":"水沢羽田町","koaza":"北鵜ノ木","lat":"39.130266","lng":"141.187964"},{"town":"水沢羽田町","koaza":"下屋敷","lat":"39.140511","lng":"141.187502"},{"town":"水沢姉体町","koaza":"大明神下","lat":"39.100492","lng":"141.187959"},{"town":"江刺岩谷堂","koaza":"新地野道上","lat":"39.213476","lng":"141.190217"},{"town":"江刺岩谷堂","koaza":"中堰","lat":"39.181031","lng":"141.189413"},{"town":"水沢黒石町","koaza":"内堀","lat":"39.113199","lng":"141.19142"},{"town":"江刺田原","koaza":"西前田","lat":"39.161969","lng":"141.188124"},{"town":"江刺岩谷堂","koaza":"前田","lat":"39.202596","lng":"141.188255"},{"town":"江刺岩谷堂","koaza":"小名丸","lat":"39.196386","lng":"141.190902"},{"town":"水沢黒石町","koaza":"下谷記","lat":"39.078689","lng":"141.189057"},{"town":"水沢黒石町","koaza":"小島","lat":"39.098739","lng":"141.190182"},{"town":"前沢生母","koaza":"虚空蔵","lat":"39.058674","lng":"141.20003"},{"town":"水沢羽田町","koaza":"籠","lat":"39.127029","lng":"141.191945"},{"town":"江刺田原","koaza":"蟹沢","lat":"39.151736","lng":"141.193448"},{"town":"江刺岩谷堂","koaza":"下苗代沢","lat":"39.181849","lng":"141.194351"},{"town":"江刺田原","koaza":"後田","lat":"39.169058","lng":"141.191156"},{"town":"水沢黒石町","koaza":"下柳","lat":"39.081905","lng":"141.194492"},{"town":"江刺岩谷堂","koaza":"上堰","lat":"39.203135","lng":"141.191615"},{"town":"水沢羽田町","koaza":"御山下","lat":"39.146039","lng":"141.190585"},{"town":"水沢羽田町","koaza":"化石","lat":"39.131146","lng":"141.191736"},{"town":"江刺岩谷堂","koaza":"橋本","lat":"39.175938","lng":"141.191153"},{"town":"水沢黒石町","koaza":"柳沢","lat":"39.074688","lng":"141.200845"},{"town":"水沢羽田町","koaza":"洗田","lat":"39.136083","lng":"141.195617"},{"town":"江刺岩谷堂","koaza":"白欠","lat":"39.200783","lng":"141.193167"},{"town":"水沢羽田町","koaza":"赤羽根","lat":"39.128411","lng":"141.190828"},{"town":"江刺岩谷堂","koaza":"中野","lat":"39.206679","lng":"141.192665"},{"town":"江刺岩谷堂","koaza":"中野前","lat":"39.20571","lng":"141.194871"},{"town":"前沢生母","koaza":"赤坂","lat":"39.064722","lng":"141.196082"},{"town":"江刺岩谷堂","koaza":"五位塚","lat":"39.174886","lng":"141.194647"},{"town":"水沢羽田町","koaza":"窪田","lat":"39.141318","lng":"141.192197"},{"town":"江刺田原","koaza":"松川下","lat":"39.159455","lng":"141.192295"},{"town":"江刺岩谷堂","koaza":"小名丸沢","lat":"39.196149","lng":"141.195264"},{"town":"水沢羽田町","koaza":"芦ヶ沢","lat":"39.147282","lng":"141.204989"},{"town":"水沢黒石町","koaza":"箕輪","lat":"39.105339","lng":"141.196571"},{"town":"水沢黒石町","koaza":"長根","lat":"39.087895","lng":"141.202044"},{"town":"水沢羽田町","koaza":"和田","lat":"39.139438","lng":"141.193942"},{"town":"前沢生母","koaza":"雪落","lat":"39.062495","lng":"141.19493"},{"town":"江刺田原","koaza":"前田","lat":"39.164437","lng":"141.193944"},{"town":"水沢羽田町","koaza":"八木沢","lat":"39.140606","lng":"141.200323"},{"town":"水沢黒石町","koaza":"内熊ヶ沢","lat":"39.111328","lng":"141.20106"},{"town":"江刺岩谷堂","koaza":"北田","lat":"39.197982","lng":"141.200882"},{"town":"江刺田原","koaza":"戸崎","lat":"39.168424","lng":"141.195173"},{"town":"江刺田原","koaza":"馬形","lat":"39.15519","lng":"141.197948"},{"town":"江刺田原","koaza":"御免","lat":"39.162821","lng":"141.195705"},{"town":"江刺岩谷堂","koaza":"目割沢","lat":"39.189984","lng":"141.196572"},{"town":"江刺岩谷堂","koaza":"金打","lat":"39.208329","lng":"141.19566"},{"town":"江刺田原","koaza":"大日前","lat":"39.158778","lng":"141.198236"},{"town":"江刺岩谷堂","koaza":"雲南田","lat":"39.21029","lng":"141.200449"},{"town":"水沢羽田町","koaza":"水無沢","lat":"39.133673","lng":"141.198771"},{"town":"江刺岩谷堂","koaza":"上苗代沢","lat":"39.190153","lng":"141.20592"},{"town":"水沢黒石町","koaza":"大久保","lat":"39.095379","lng":"141.203302"},{"town":"江刺田原","koaza":"大日","lat":"39.163153","lng":"141.203295"},{"town":"江刺岩谷堂","koaza":"丸田","lat":"39.205034","lng":"141.210404"},{"town":"江刺田原","koaza":"宿","lat":"39.172764","lng":"141.204166"},{"town":"江刺田原","koaza":"駒場","lat":"39.154481","lng":"141.208131"},{"town":"水沢黒石町","koaza":"谷地","lat":"39.101573","lng":"141.206479"},{"town":"水沢黒石町","koaza":"山内","lat":"39.0828","lng":"141.208431"},{"town":"水沢羽田町","koaza":"西田","lat":"39.124182","lng":"141.202722"},{"town":"前沢生母","koaza":"上滝","lat":"39.068981","lng":"141.204317"},{"town":"江刺田原","koaza":"中田","lat":"39.158655","lng":"141.207195"},{"town":"前沢生母","koaza":"中岩","lat":"39.057357","lng":"141.204925"},{"town":"江刺田原","koaza":"虚空蔵","lat":"39.179826","lng":"141.20706"},{"town":"江刺田原","koaza":"山居","lat":"39.175665","lng":"141.206953"},{"town":"水沢羽田町","koaza":"向田","lat":"39.12349","lng":"141.203486"},{"town":"水沢羽田町","koaza":"門下","lat":"39.128563","lng":"141.206678"},{"town":"水沢黒石町","koaza":"外熊ヶ沢","lat":"39.111422","lng":"141.208585"},{"town":"水沢黒石町","koaza":"正法寺","lat":"39.068807","lng":"141.216698"},{"town":"水沢黒石町","koaza":"小田","lat":"39.093832","lng":"141.213656"},{"town":"水沢黒石町","koaza":"長田","lat":"39.108401","lng":"141.211591"},{"town":"江刺田原","koaza":"高野前","lat":"39.171827","lng":"141.208278"},{"town":"江刺岩谷堂","koaza":"牧沢","lat":"39.210452","lng":"141.208214"},{"town":"江刺田原","koaza":"谷地田","lat":"39.172946","lng":"141.209855"},{"town":"水沢黒石町","koaza":"沢田","lat":"39.100795","lng":"141.217045"},{"town":"江刺田原","koaza":"蔵内","lat":"39.183478","lng":"141.216175"},{"town":"江刺岩谷堂","koaza":"大沢田","lat":"39.195364","lng":"141.209372"},{"town":"江刺田原","koaza":"下醍醐","lat":"39.167225","lng":"141.212293"},{"town":"江刺田原","koaza":"稲荷","lat":"39.171612","lng":"141.214894"},{"town":"江刺田原","koaza":"土公","lat":"39.175395","lng":"141.212707"},{"town":"江刺玉里","koaza":"朝日野","lat":"39.207978","lng":"141.216649"},{"town":"水沢黒石町","koaza":"下ノ在家","lat":"39.09877","lng":"141.220562"},{"town":"水沢黒石町","koaza":"袖ノ沢","lat":"39.094677","lng":"141.224625"},{"town":"江刺田原","koaza":"山舘","lat":"39.17762","lng":"141.21599"},{"town":"江刺藤里","koaza":"境田","lat":"39.189026","lng":"141.216957"},{"town":"水沢姉体町","koaza":"島田","lat":"39.103151","lng":"141.168461"},{"town":"江刺田原","koaza":"大久保","lat":"39.161109","lng":"141.221995"},{"town":"胆沢南都田","koaza":"銭倉","lat":"39.148598","lng":"141.089307"},{"town":"水沢佐倉河","koaza":"百目木","lat":"39.157685","lng":"141.162358"},{"town":"水沢羽田町","koaza":"窪","lat":"39.126375","lng":"141.187221"},{"town":"水沢羽田町","koaza":"下川端","lat":"39.141101","lng":"141.190205"}]