[{"town":"字七見","koaza":"","lat":37.267687,"lng":137.084303},{"town":"字上","koaza":"","lat":37.35102,"lng":137.209436},{"town":"字上町","koaza":"","lat":37.343954,"lng":137.114258},{"town":"字上長尾","koaza":"","lat":37.396403,"lng":137.120917},{"town":"字不動寺","koaza":"","lat":37.339069,"lng":137.211936},{"town":"字中斉","koaza":"","lat":37.335859,"lng":137.048238},{"town":"字久田","koaza":"","lat":37.364631,"lng":137.13255},{"town":"字九里川尻","koaza":"","lat":37.337162,"lng":137.248179},{"town":"字五十里","koaza":"","lat":37.37225,"lng":137.052513},{"town":"字五郎左エ門分","koaza":"","lat":37.339955,"lng":137.083035},{"town":"字内浦長尾","koaza":"","lat":37.320932,"lng":137.247331},{"town":"字北河内","koaza":"","lat":37.381892,"lng":137.009868},{"town":"字十郎原","koaza":"","lat":37.354454,"lng":137.06031},{"town":"字合鹿","koaza":"","lat":37.346217,"lng":137.140809},{"town":"字四方山","koaza":"","lat":37.335694,"lng":137.263789},{"town":"字国光","koaza":"","lat":37.380475,"lng":137.09586},{"town":"字国重","koaza":"","lat":37.339369,"lng":137.164914},{"town":"字大箱","koaza":"","lat":37.371731,"lng":136.996741},{"town":"字天坂","koaza":"","lat":37.347848,"lng":137.097367},{"town":"字太田原","koaza":"","lat":37.321022,"lng":136.983188},{"town":"字姫","koaza":"","lat":37.299764,"lng":137.21296},{"town":"字宇出津","koaza":"","lat":37.310223,"lng":137.16352},{"town":"字宇出津山分","koaza":"","lat":37.318069,"lng":137.144917},{"town":"字宇出津新","koaza":"","lat":37.307774,"lng":137.148892},{"town":"字宇加塚","koaza":"","lat":37.309714,"lng":137.102197},{"town":"字宮地","koaza":"","lat":37.310931,"lng":137.028827},{"town":"字宮犬","koaza":"","lat":37.341627,"lng":137.228259},{"town":"字寺分","koaza":"","lat":37.349162,"lng":137.083794},{"town":"字小垣","koaza":"","lat":37.262538,"lng":137.069982},{"town":"字小木","koaza":"","lat":37.300629,"lng":137.223272},{"town":"字小浦","koaza":"","lat":37.307729,"lng":137.188803},{"town":"字小間生","koaza":"","lat":37.382375,"lng":137.122629},{"town":"字山中","koaza":"","lat":37.321267,"lng":137.191317},{"town":"字山田","koaza":"","lat":37.288063,"lng":137.032519},{"town":"字市之瀬","koaza":"","lat":37.311934,"lng":137.223793},{"town":"字布浦","koaza":"","lat":37.348755,"lng":137.254},{"town":"字当目","koaza":"","lat":37.346233,"lng":137.001675},{"town":"字恋路","koaza":"","lat":37.368468,"lng":137.237803},{"town":"字新保","koaza":"","lat":37.313892,"lng":137.243347},{"town":"字明生","koaza":"","lat":37.355753,"lng":137.218089},{"town":"字明野","koaza":"","lat":37.320556,"lng":137.21401},{"town":"字時長","koaza":"","lat":37.332136,"lng":137.182423},{"town":"字曽又","koaza":"","lat":37.321796,"lng":137.057043},{"town":"字本木","koaza":"","lat":37.279609,"lng":137.010957},{"town":"字松波","koaza":"","lat":37.356358,"lng":137.234029},{"town":"字柏木","koaza":"","lat":37.303688,"lng":136.976695},{"town":"字柳田","koaza":"","lat":37.373306,"lng":137.080105},{"town":"字柿生","koaza":"","lat":37.270941,"lng":137.057618},{"town":"字桐畑","koaza":"","lat":37.37821,"lng":137.139875},{"town":"字武連","koaza":"","lat":37.257556,"lng":137.03077},{"town":"字河ケ谷","koaza":"","lat":37.321873,"lng":137.230767},{"town":"字泉","koaza":"","lat":37.348664,"lng":137.176107},{"town":"字波並","koaza":"","lat":37.293555,"lng":137.109929},{"town":"字清真","koaza":"","lat":37.340153,"lng":137.237366},{"town":"字満泉寺","koaza":"","lat":37.321462,"lng":137.197518},{"town":"字滝之坊","koaza":"","lat":37.347522,"lng":137.195075},{"town":"字爼倉","koaza":"","lat":37.299909,"lng":137.05321},{"town":"字猪平","koaza":"","lat":37.29357,"lng":137.073378},{"town":"字瑞穂","koaza":"","lat":37.279662,"lng":137.048158},{"town":"字田代","koaza":"","lat":37.355582,"lng":137.17892},{"town":"字白丸","koaza":"","lat":37.328926,"lng":137.251146},{"town":"字真脇","koaza":"","lat":37.305911,"lng":137.205134},{"town":"字矢波","koaza":"","lat":37.284186,"lng":137.087533},{"town":"字石井","koaza":"","lat":37.370712,"lng":137.101327},{"town":"字神和住","koaza":"","lat":37.346554,"lng":137.064659},{"town":"字福光","koaza":"","lat":37.357395,"lng":137.192819},{"town":"字秋吉","koaza":"","lat":37.33241,"lng":137.23205},{"town":"字立壁","koaza":"","lat":37.336504,"lng":137.256976},{"town":"字笹川","koaza":"","lat":37.361774,"lng":137.095175},{"town":"字羽根","koaza":"","lat":37.307931,"lng":137.17294},{"town":"字羽生","koaza":"","lat":37.317357,"lng":137.202255},{"town":"字藤ノ瀬","koaza":"","lat":37.327489,"lng":137.097997},{"town":"字藤波","koaza":"","lat":37.302034,"lng":137.132357},{"town":"字行延","koaza":"","lat":37.332693,"lng":137.210808},{"town":"字越坂","koaza":"","lat":37.311178,"lng":137.237831},{"town":"字鈴ケ嶺","koaza":"","lat":37.374336,"lng":137.115896},{"town":"字駒渡","koaza":"","lat":37.351383,"lng":137.160192},{"town":"字鮭尾","koaza":"","lat":37.31057,"lng":137.000912},{"town":"字鴨川","koaza":"","lat":37.379677,"lng":137.103338},{"town":"字鵜川","koaza":"","lat":37.256831,"lng":137.08023},{"town":"字鶴町","koaza":"","lat":37.313743,"lng":137.078657},{"town":"字黒川","koaza":"","lat":37.361922,"lng":137.03946},{"town":"字姫一丁目","koaza":"","lat":37.298123,"lng":137.209364},{"town":"字宇出津新港一丁目","koaza":"","lat":37.299494,"lng":137.146119},{"town":"字小木一丁目","koaza":"","lat":37.303449,"lng":137.223922},{"town":"字崎山一丁目","koaza":"","lat":37.303235,"lng":137.149162},{"town":"字姫二丁目","koaza":"","lat":37.298783,"lng":137.212008},{"town":"字宇出津新港二丁目","koaza":"","lat":37.297876,"lng":137.146282},{"town":"字小木二丁目","koaza":"","lat":37.302355,"lng":137.228507},{"town":"字崎山二丁目","koaza":"","lat":37.303614,"lng":137.14715},{"town":"字姫三丁目","koaza":"","lat":37.298302,"lng":137.213417},{"town":"字宇出津新港三丁目","koaza":"","lat":37.296955,"lng":137.148848},{"town":"字小木三丁目","koaza":"","lat":37.30279,"lng":137.230803},{"town":"字崎山三丁目","koaza":"","lat":37.301241,"lng":137.147137},{"town":"字崎山四丁目","koaza":"","lat":37.300975,"lng":137.150132}]