[{"town":"大字狄塚","lat":"40.281907","lng":"141.406712"},{"town":"大字上舘","lat":"40.328742","lng":"141.522893"},{"town":"大字軽米","lat":"40.320314","lng":"141.448952"},{"town":"大字高家","lat":"40.348971","lng":"141.422649"},{"town":"大字小軽米","lat":"40.273405","lng":"141.548447"},{"town":"大字山内","lat":"40.298811","lng":"141.398170"},{"town":"大字長倉","lat":"40.357343","lng":"141.482523"},{"town":"大字晴山","lat":"40.339081","lng":"141.399936"},{"town":"大字蛇口","lat":"40.249790","lng":"141.501383"},{"town":"大字円子","lat":"40.261240","lng":"141.469754"}]