[{"town":"大字間野々","lat":"39.593781","lng":"141.170698"},{"town":"大字赤林","lat":"39.638578","lng":"141.135222"},{"town":"大字岩清水","lat":"39.587325","lng":"141.105990"},{"town":"大字太田","lat":"39.581059","lng":"141.132814"},{"town":"大字上矢次","lat":"39.621106","lng":"141.134661"},{"town":"大字北郡山","lat":"39.590542","lng":"141.156496"},{"town":"大字北伝法寺","lat":"39.599491","lng":"141.125614"},{"town":"大字北矢幅","lat":"39.618427","lng":"141.150585"},{"town":"大字煙山","lat":"39.611933","lng":"141.120124"},{"town":"大字高水寺","lat":"39.581497","lng":"141.172536"},{"town":"大字下矢次","lat":"39.624292","lng":"141.151951"},{"town":"大字白沢","lat":"39.595644","lng":"141.144635"},{"town":"大字高田","lat":"39.625325","lng":"141.169970"},{"town":"大字土橋","lat":"39.590088","lng":"141.183445"},{"town":"大字西徳田","lat":"39.609309","lng":"141.180612"},{"town":"大字東徳田","lat":"39.604106","lng":"141.174870"},{"town":"大字広宮沢","lat":"39.629500","lng":"141.110528"},{"town":"大字藤沢","lat":"39.616542","lng":"141.172393"},{"town":"大字又兵エ新田","lat":"39.614170","lng":"141.147723"},{"town":"大字南矢幅","lat":"39.607995","lng":"141.145823"},{"town":"大字室岡","lat":"39.594740","lng":"141.120550"},{"town":"大字和味","lat":"39.603667","lng":"141.095244"},{"town":"流通センター南一丁目","lat":"39.639322","lng":"141.112166"},{"town":"流通センター南二丁目","lat":"39.638797","lng":"141.119287"},{"town":"流通センター南三丁目","lat":"39.635448","lng":"141.112851"},{"town":"流通センター南四丁目","lat":"39.635839","lng":"141.107514"},{"town":"医大通一丁目","lat":"39.610893","lng":"141.162928"},{"town":"医大通二丁目","lat":"39.616018","lng":"141.162966"},{"town":"駅東一丁目","lat":"39.612480","lng":"141.149998"}]