[{"town":"阿木","lat":"35.401929","lng":"137.516414"},{"town":"飯沼","lat":"35.422660","lng":"137.472622"},{"town":"上野","lat":"35.600572","lng":"137.482670"},{"town":"えびす町","lat":"35.495787","lng":"137.505988"},{"town":"太田町一丁目","lat":"35.500783","lng":"137.506323"},{"town":"太田町二丁目","lat":"35.499761","lng":"137.503849"},{"town":"太田町三丁目","lat":"35.497792","lng":"137.502796"},{"town":"小川町","lat":"35.500961","lng":"137.501102"},{"town":"落合","lat":"35.497236","lng":"137.550542"},{"town":"加子母","lat":"35.733716","lng":"137.401406"},{"town":"かやの木町","lat":"35.486456","lng":"137.500888"},{"town":"川上","lat":"35.636974","lng":"137.508192"},{"town":"北野町","lat":"35.504147","lng":"137.501243"},{"town":"駒場","lat":"35.494965","lng":"137.478459"},{"town":"駒場町","lat":"35.491468","lng":"137.496712"},{"town":"栄町","lat":"35.502482","lng":"137.504549"},{"town":"坂下","lat":"35.574018","lng":"137.512804"},{"town":"下野","lat":"35.586539","lng":"137.467015"},{"town":"昭和町","lat":"35.492111","lng":"137.504849"},{"town":"新町","lat":"35.497194","lng":"137.505093"},{"town":"瀬戸","lat":"35.527499","lng":"137.520558"},{"town":"千旦林","lat":"35.476103","lng":"137.467980"},{"town":"高山","lat":"35.534692","lng":"137.431558"},{"town":"田瀬","lat":"35.629438","lng":"137.473364"},{"town":"付知町","lat":"35.664541","lng":"137.439574"},{"town":"津島町","lat":"35.493449","lng":"137.494278"},{"town":"手賀野","lat":"35.463705","lng":"137.501971"},{"town":"苗木","lat":"35.531772","lng":"137.472815"},{"town":"中一色町","lat":"35.491373","lng":"137.510108"},{"town":"中川町","lat":"35.505808","lng":"137.504065"},{"town":"中津川","lat":"35.455883","lng":"137.544713"},{"town":"茄子川","lat":"35.465086","lng":"137.456551"},{"town":"西宮町","lat":"35.493472","lng":"137.503109"},{"town":"八幡町","lat":"35.490441","lng":"137.502528"},{"town":"花戸町","lat":"35.494246","lng":"137.507100"},{"town":"東町","lat":"35.498421","lng":"137.509427"},{"town":"東宮町","lat":"35.496164","lng":"137.509702"},{"town":"日の出町","lat":"35.492951","lng":"137.511342"},{"town":"蛭川","lat":"35.523642","lng":"137.383010"},{"town":"福岡","lat":"35.578346","lng":"137.427377"},{"town":"本町一丁目","lat":"35.496632","lng":"137.501905"},{"town":"本町二丁目","lat":"35.494919","lng":"137.502542"},{"town":"本町三丁目","lat":"35.495221","lng":"137.499876"},{"town":"本町四丁目","lat":"35.492306","lng":"137.500370"},{"town":"馬籠","lat":"35.528394","lng":"137.565270"},{"town":"神坂","lat":"35.489982","lng":"137.596985"},{"town":"宮前町","lat":"35.505091","lng":"137.506531"},{"town":"桃山町","lat":"35.498738","lng":"137.499577"},{"town":"柳町","lat":"35.493845","lng":"137.497382"},{"town":"山口","lat":"35.560180","lng":"137.552868"},{"town":"淀川町","lat":"35.498236","lng":"137.507512"}]