[{"town":"伊岐津志","lat":"35.463249","lng":"137.126773"},{"town":"上飯田","lat":"35.481848","lng":"137.091486"},{"town":"上牧野","lat":"35.454625","lng":"137.080697"},{"town":"上吉田","lat":"35.531957","lng":"137.151455"},{"town":"久田見","lat":"35.519462","lng":"137.184854"},{"town":"潮見","lat":"35.489361","lng":"137.251054"},{"town":"錦織","lat":"35.464914","lng":"137.152219"},{"town":"野上","lat":"35.486841","lng":"137.117898"},{"town":"福地","lat":"35.523232","lng":"137.242226"},{"town":"南戸","lat":"35.486783","lng":"137.217219"},{"town":"八百津","lat":"35.494083","lng":"137.148248"},{"town":"和知","lat":"35.477980","lng":"137.100269"}]