[{"town":"大字相羽","lat":"35.458007","lng":"136.639668"},{"town":"大字麻生","lat":"35.464107","lng":"136.623515"},{"town":"大字稲富","lat":"35.495652","lng":"136.653512"},{"town":"大字稲畑","lat":"35.476529","lng":"136.640476"},{"town":"大字牛洞","lat":"35.485901","lng":"136.603012"},{"town":"大字大衣斐","lat":"35.457948","lng":"136.619350"},{"town":"大字大野","lat":"35.477996","lng":"136.637021"},{"town":"大字加納","lat":"35.440568","lng":"136.615280"},{"town":"大字上磯","lat":"35.440186","lng":"136.628290"},{"town":"大字上秋","lat":"35.475642","lng":"136.647450"},{"town":"大字郡家","lat":"35.445707","lng":"136.632073"},{"town":"大字公郷","lat":"35.453133","lng":"136.605048"},{"town":"大字黒野","lat":"35.467455","lng":"136.633972"},{"town":"大字小衣斐","lat":"35.458871","lng":"136.624898"},{"town":"大字五之里","lat":"35.446956","lng":"136.621650"},{"town":"大字桜大門","lat":"35.477913","lng":"136.633340"},{"town":"大字寺内","lat":"35.493411","lng":"136.635732"},{"town":"大字下磯","lat":"35.432137","lng":"136.627984"},{"town":"大字下方","lat":"35.451465","lng":"136.635348"},{"town":"大字下座倉","lat":"35.415557","lng":"136.631481"},{"town":"大字瀬古","lat":"35.471199","lng":"136.612869"},{"town":"大字中之元","lat":"35.465178","lng":"136.612979"},{"town":"大字西方","lat":"35.476478","lng":"136.624200"},{"town":"大字野","lat":"35.488274","lng":"136.623503"},{"town":"大字古川","lat":"35.491978","lng":"136.642474"},{"town":"大字本庄","lat":"35.430660","lng":"136.618330"},{"town":"大字松山","lat":"35.477774","lng":"136.603171"},{"town":"大字南方","lat":"35.452105","lng":"136.622899"},{"town":"大字領家","lat":"35.455860","lng":"136.615650"},{"town":"大字六里","lat":"35.459127","lng":"136.631490"}]