[{"town":"伊深町","lat":"35.513452","lng":"137.010952"},{"town":"太田町","lat":"35.445106","lng":"137.016171"},{"town":"太田本町一丁目","lat":"35.438086","lng":"137.018941"},{"town":"太田本町二丁目","lat":"35.437987","lng":"137.015828"},{"town":"太田本町三丁目","lat":"35.437853","lng":"137.013445"},{"town":"太田本町四丁目","lat":"35.437630","lng":"137.011225"},{"town":"太田本町五丁目","lat":"35.436894","lng":"137.009158"},{"town":"大手町一丁目","lat":"35.446569","lng":"137.019030"},{"town":"大手町二丁目","lat":"35.448115","lng":"137.019542"},{"town":"加茂川町一丁目","lat":"35.442270","lng":"137.009164"},{"town":"加茂川町二丁目","lat":"35.440113","lng":"137.008720"},{"town":"加茂川町三丁目","lat":"35.440306","lng":"137.005801"},{"town":"加茂野町市橋","lat":"35.470223","lng":"136.964526"},{"town":"加茂野町稲辺","lat":"35.452811","lng":"136.966350"},{"town":"加茂野町今泉","lat":"35.464948","lng":"136.977793"},{"town":"加茂野町加茂野","lat":"35.454089","lng":"136.983446"},{"town":"加茂野町鷹之巣","lat":"35.465191","lng":"136.969620"},{"town":"川合町一丁目","lat":"35.443453","lng":"137.044373"},{"town":"川合町二丁目","lat":"35.448026","lng":"137.046201"},{"town":"川合町三丁目","lat":"35.446194","lng":"137.048895"},{"town":"川合町四丁目","lat":"35.449316","lng":"137.050473"},{"town":"草笛町一丁目","lat":"35.444949","lng":"137.010309"},{"town":"草笛町二丁目","lat":"35.444373","lng":"137.006782"},{"town":"草笛町三丁目","lat":"35.443076","lng":"137.004143"},{"town":"草笛町四丁目","lat":"35.440370","lng":"137.003119"},{"town":"古井町下古井","lat":"35.440930","lng":"137.023764"},{"town":"島町一丁目","lat":"35.441489","lng":"137.027905"},{"town":"島町二丁目","lat":"35.438322","lng":"137.027162"},{"town":"清水町一丁目","lat":"35.445259","lng":"137.031902"},{"town":"清水町二丁目","lat":"35.442665","lng":"137.031283"},{"town":"下米田町今","lat":"35.458207","lng":"137.064021"},{"town":"下米田町小山","lat":"35.452459","lng":"137.056008"},{"town":"下米田町為岡","lat":"35.473022","lng":"137.071341"},{"town":"下米田町西脇","lat":"35.466424","lng":"137.059153"},{"town":"下米田町信友","lat":"35.465800","lng":"137.079070"},{"town":"下米田町則光","lat":"35.463687","lng":"137.068284"},{"town":"下米田町東栃井","lat":"35.475752","lng":"137.066655"},{"town":"下米田町山本","lat":"35.473176","lng":"137.078551"},{"town":"新池町一丁目","lat":"35.452096","lng":"137.023515"},{"town":"新池町二丁目","lat":"35.453396","lng":"137.027205"},{"town":"新池町三丁目","lat":"35.453923","lng":"137.030119"},{"town":"田島町一丁目","lat":"35.446620","lng":"137.022658"},{"town":"田島町二丁目","lat":"35.449184","lng":"137.023078"},{"town":"田島町三丁目","lat":"35.449756","lng":"137.026749"},{"town":"田島町四丁目","lat":"35.447729","lng":"137.027564"},{"town":"中部台一丁目","lat":"35.456233","lng":"137.019389"},{"town":"中部台二丁目","lat":"35.459613","lng":"137.019753"},{"town":"中部台三丁目","lat":"35.461048","lng":"137.019926"},{"town":"中部台四丁目","lat":"35.460636","lng":"137.022404"},{"town":"中部台五丁目","lat":"35.462453","lng":"137.019283"},{"town":"中部台六丁目","lat":"35.463759","lng":"137.016603"},{"town":"中部台七丁目","lat":"35.464540","lng":"137.019665"},{"town":"中部台八丁目","lat":"35.463345","lng":"137.022403"},{"town":"中部台九丁目","lat":"35.466486","lng":"137.019016"},{"town":"中富町一丁目","lat":"35.443442","lng":"137.025280"},{"town":"中富町二丁目","lat":"35.445851","lng":"137.028130"},{"town":"中富町三丁目","lat":"35.442839","lng":"137.028030"},{"town":"西町一丁目","lat":"35.446515","lng":"137.004517"},{"town":"西町二丁目","lat":"35.445274","lng":"137.001568"},{"town":"西町三丁目","lat":"35.443457","lng":"137.000234"},{"town":"西町四丁目","lat":"35.443204","lng":"136.995248"},{"town":"西町五丁目","lat":"35.447420","lng":"136.997146"},{"town":"西町六丁目","lat":"35.449911","lng":"136.995167"},{"town":"西町七丁目","lat":"35.452406","lng":"136.997592"},{"town":"西町八丁目","lat":"35.448597","lng":"137.002153"},{"town":"野笹町一丁目","lat":"35.443974","lng":"137.034596"},{"town":"野笹町二丁目","lat":"35.443671","lng":"137.037906"},{"town":"蜂屋台一丁目","lat":"35.468393","lng":"137.016535"},{"town":"蜂屋台二丁目","lat":"35.469342","lng":"137.012532"},{"town":"蜂屋町上蜂屋","lat":"35.478175","lng":"137.019444"},{"town":"蜂屋町下蜂屋","lat":"35.475900","lng":"136.992214"},{"town":"蜂屋町矢田","lat":"35.455942","lng":"137.010497"},{"town":"深田町一丁目","lat":"35.435305","lng":"137.007425"},{"town":"深田町二丁目","lat":"35.432865","lng":"137.005247"},{"town":"深田町三丁目","lat":"35.435729","lng":"137.004371"},{"town":"本郷町一丁目","lat":"35.447980","lng":"137.038717"},{"town":"本郷町二丁目","lat":"35.449057","lng":"137.035853"},{"town":"本郷町三丁目","lat":"35.449735","lng":"137.032043"},{"town":"本郷町四丁目","lat":"35.455677","lng":"137.031966"},{"town":"本郷町五丁目","lat":"35.455802","lng":"137.035013"},{"town":"本郷町六丁目","lat":"35.456455","lng":"137.038303"},{"town":"本郷町七丁目","lat":"35.458168","lng":"137.041919"},{"town":"本郷町八丁目","lat":"35.453570","lng":"137.045841"},{"town":"本郷町九丁目","lat":"35.450942","lng":"137.042866"},{"town":"前平町一丁目","lat":"35.450989","lng":"137.008411"},{"town":"前平町二丁目","lat":"35.450585","lng":"137.004320"},{"town":"牧野","lat":"35.447827","lng":"137.066102"},{"town":"御門町一丁目","lat":"35.439181","lng":"137.030736"},{"town":"御門町二丁目","lat":"35.439793","lng":"137.036783"},{"town":"三和町川浦","lat":"35.528043","lng":"137.051121"},{"town":"三和町廿屋","lat":"35.534098","lng":"137.026606"},{"town":"森山町一丁目","lat":"35.455007","lng":"137.048854"},{"town":"森山町二丁目","lat":"35.458147","lng":"137.045971"},{"town":"森山町三丁目","lat":"35.460631","lng":"137.050522"},{"town":"森山町四丁目","lat":"35.456183","lng":"137.051904"},{"town":"森山町五丁目","lat":"35.462273","lng":"137.045763"},{"town":"森山町六丁目","lat":"35.464112","lng":"137.048863"},{"town":"山手町一丁目","lat":"35.451419","lng":"137.019033"},{"town":"山手町二丁目","lat":"35.451484","lng":"137.015193"},{"town":"山手町三丁目","lat":"35.451638","lng":"137.011903"},{"town":"山之上町","lat":"35.483766","lng":"137.036726"},{"town":"蜂屋町中蜂屋","lat":"35.474686","lng":"137.004290"},{"town":"加茂野町木野","lat":"35.459291","lng":"136.990300"},{"town":"蜂屋町伊瀬","lat":"35.465631","lng":"136.990026"},{"town":"あじさいヶ丘二丁目","lat":"35.461623","lng":"137.006589"},{"town":"山崎町","lat":"35.462007","lng":"137.003132"},{"town":"前平町三丁目","lat":"35.453186","lng":"137.003889"},{"town":"あじさいヶ丘三丁目","lat":"35.458631","lng":"137.006860"},{"town":"あじさいヶ丘一丁目","lat":"35.459458","lng":"137.005206"}]