[{"town":"西新丁","lat":"38.247690","lng":"140.899379"},{"town":"東新丁","lat":"38.247741","lng":"140.902081"},{"town":"南石切町","lat":"38.242269","lng":"140.890104"},{"town":"八軒小路","lat":"38.242619","lng":"140.891491"},{"town":"土樋一丁目","lat":"38.246992","lng":"140.880740"},{"town":"穀町","lat":"38.245218","lng":"140.889143"},{"town":"東九番丁","lat":"38.250481","lng":"140.886288"},{"town":"新弓ノ町","lat":"38.241105","lng":"140.891019"},{"town":"石垣町","lat":"38.247150","lng":"140.885592"},{"town":"裏柴田町","lat":"38.249623","lng":"140.894993"},{"town":"東八番丁","lat":"38.250622","lng":"140.884226"},{"town":"清水小路","lat":"38.251285","lng":"140.881828"},{"town":"椌木通","lat":"38.248072","lng":"140.898188"},{"town":"畳屋丁","lat":"38.244893","lng":"140.891253"},{"town":"東七番丁","lat":"38.251101","lng":"140.883205"},{"town":"弓ノ町","lat":"38.246782","lng":"140.887424"},{"town":"表柴田町","lat":"38.248403","lng":"140.894913"},{"town":"舟丁","lat":"38.242883","lng":"140.887540"},{"town":"木ノ下五丁目","lat":"38.248464","lng":"140.904156"},{"town":"六十人町","lat":"38.244324","lng":"140.896114"},{"town":"沖野四丁目","lat":"38.223316","lng":"140.908908"},{"town":"沖野五丁目","lat":"38.223283","lng":"140.911581"},{"town":"南材木町","lat":"38.242435","lng":"140.888782"},{"town":"南染師町","lat":"38.243780","lng":"140.891559"},{"town":"五橋三丁目","lat":"38.253585","lng":"140.882961"},{"town":"新寺二丁目","lat":"38.256513","lng":"140.888348"},{"town":"木ノ下四丁目","lat":"38.249132","lng":"140.899778"},{"town":"新寺五丁目","lat":"38.255900","lng":"140.893902"},{"town":"元茶畑","lat":"38.249862","lng":"140.892212"},{"town":"新寺四丁目","lat":"38.254423","lng":"140.892777"},{"town":"五十人町","lat":"38.245585","lng":"140.894165"},{"town":"三百人町","lat":"38.246561","lng":"140.894423"},{"town":"古城一丁目","lat":"38.237911","lng":"140.896496"},{"town":"南鍛冶町","lat":"38.248063","lng":"140.888553"},{"town":"新寺一丁目","lat":"38.255267","lng":"140.884090"},{"town":"二軒茶屋","lat":"38.253388","lng":"140.895960"},{"town":"成田町","lat":"38.247697","lng":"140.893823"},{"town":"石名坂","lat":"38.244608","lng":"140.886905"},{"town":"若林六丁目","lat":"38.228292","lng":"140.906255"},{"town":"連坊小路","lat":"38.251111","lng":"140.889197"},{"town":"大和町三丁目","lat":"38.247333","lng":"140.918289"},{"town":"連坊一丁目","lat":"38.252891","lng":"140.887665"},{"town":"荒浜新一丁目","lat":"38.220341","lng":"140.978182"},{"town":"連坊二丁目","lat":"38.252443","lng":"140.891878"},{"town":"志波町","lat":"38.250439","lng":"140.912390"},{"town":"木ノ下二丁目","lat":"38.251648","lng":"140.901085"},{"town":"南小泉一丁目","lat":"38.242290","lng":"140.901068"},{"town":"新寺三丁目","lat":"38.254903","lng":"140.888010"},{"town":"保春院前丁","lat":"38.245579","lng":"140.900355"},{"town":"上飯田","lat":"38.219296","lng":"140.922770"},{"town":"荒浜新二丁目","lat":"38.216258","lng":"140.974996"},{"town":"南小泉二丁目","lat":"38.241426","lng":"140.905569"},{"town":"荒町","lat":"38.248718","lng":"140.884893"},{"town":"若林二丁目","lat":"38.231972","lng":"140.896311"},{"town":"若林四丁目","lat":"38.229311","lng":"140.900785"},{"town":"河原町一丁目","lat":"38.238786","lng":"140.889368"},{"town":"遠見塚東","lat":"38.237215","lng":"140.915503"},{"town":"若林五丁目","lat":"38.230755","lng":"140.904277"},{"town":"中倉三丁目","lat":"38.246062","lng":"140.921370"},{"town":"木ノ下三丁目","lat":"38.251591","lng":"140.904214"},{"town":"南小泉四丁目","lat":"38.238558","lng":"140.904819"},{"town":"木ノ下一丁目","lat":"38.251694","lng":"140.898031"},{"town":"六丁の目東町","lat":"38.249669","lng":"140.951191"},{"town":"中倉二丁目","lat":"38.244547","lng":"140.917060"},{"town":"南小泉三丁目","lat":"38.239308","lng":"140.899767"},{"town":"土樋","lat":"38.246177","lng":"140.883368"},{"town":"卸町一丁目","lat":"38.254185","lng":"140.919372"},{"town":"白萩町","lat":"38.251045","lng":"140.908232"},{"town":"六郷","lat":"38.214808","lng":"140.934163"},{"town":"遠見塚三丁目","lat":"38.242175","lng":"140.917676"},{"town":"中倉一丁目","lat":"38.244569","lng":"140.911654"},{"town":"飯田","lat":"38.216770","lng":"140.943454"},{"town":"河原町二丁目","lat":"38.237432","lng":"140.892425"},{"town":"沖野一丁目","lat":"38.232770","lng":"140.912068"},{"town":"上飯田四丁目","lat":"38.216937","lng":"140.927423"},{"town":"大和町一丁目","lat":"38.247846","lng":"140.906958"},{"town":"文化町","lat":"38.241598","lng":"140.896197"},{"town":"大和町二丁目","lat":"38.247517","lng":"140.913072"},{"town":"若林一丁目","lat":"38.234606","lng":"140.895197"},{"town":"卸町東四丁目","lat":"38.255499","lng":"140.949502"},{"town":"卸町東一丁目","lat":"38.258492","lng":"140.939954"},{"town":"卸町東三丁目","lat":"38.255439","lng":"140.942627"},{"town":"古城二丁目","lat":"38.236950","lng":"140.900482"},{"town":"鶴代町","lat":"38.258369","lng":"140.953875"},{"town":"今泉一丁目","lat":"38.214330","lng":"140.928821"},{"town":"大和町四丁目","lat":"38.250273","lng":"140.917418"},{"town":"今泉二丁目","lat":"38.211105","lng":"140.927583"},{"town":"上飯田一丁目","lat":"38.220981","lng":"140.916321"},{"town":"六丁の目南町","lat":"38.249811","lng":"140.940004"},{"town":"若林三丁目","lat":"38.233140","lng":"140.900651"},{"town":"若林七丁目","lat":"38.225434","lng":"140.904766"},{"town":"霞目二丁目","lat":"38.234691","lng":"140.928316"},{"town":"卸町東二丁目","lat":"38.258490","lng":"140.946378"},{"town":"六丁の目元町","lat":"38.249201","lng":"140.929690"},{"town":"かすみ町","lat":"38.241257","lng":"140.922104"},{"town":"六丁の目北町","lat":"38.252189","lng":"140.949143"},{"town":"大和町五丁目","lat":"38.248883","lng":"140.923404"},{"town":"遠見塚一丁目","lat":"38.237770","lng":"140.911121"},{"town":"一本杉町","lat":"38.244938","lng":"140.905522"},{"town":"堰場","lat":"38.234333","lng":"140.890930"},{"town":"沖野三丁目","lat":"38.226559","lng":"140.912170"},{"town":"古城三丁目","lat":"38.234267","lng":"140.906988"},{"town":"上飯田三丁目","lat":"38.214847","lng":"140.922636"},{"town":"卸町三丁目","lat":"38.259046","lng":"140.923593"},{"town":"卸町五丁目","lat":"38.254058","lng":"140.929605"},{"town":"沖野七丁目","lat":"38.227477","lng":"140.919582"},{"town":"沖野二丁目","lat":"38.230617","lng":"140.912183"},{"town":"沖野六丁目","lat":"38.223579","lng":"140.917629"},{"town":"六丁の目西町","lat":"38.253918","lng":"140.934452"},{"town":"遠見塚二丁目","lat":"38.240711","lng":"140.912359"},{"town":"六丁の目中町","lat":"38.252368","lng":"140.941012"},{"town":"上飯田二丁目","lat":"38.217715","lng":"140.916262"},{"town":"卸町二丁目","lat":"38.254058","lng":"140.923774"},{"town":"卸町東五丁目","lat":"38.253589","lng":"140.955475"},{"town":"伊在一丁目","lat":"38.247606","lng":"140.933909"},{"town":"四郎丸","lat":"38.200191","lng":"140.927107"},{"town":"卸町四丁目","lat":"38.259116","lng":"140.932115"},{"town":"六丁目","lat":"38.247594","lng":"140.948772"},{"town":"蒲町","lat":"38.244871","lng":"140.927374"},{"town":"霞目","lat":"38.232366","lng":"140.934602"},{"town":"沖野","lat":"38.224684","lng":"140.926656"},{"town":"霞目一丁目","lat":"38.234756","lng":"140.920070"},{"town":"藤塚","lat":"38.185602","lng":"140.954343"},{"town":"二木","lat":"38.201623","lng":"140.952327"},{"town":"今泉","lat":"38.204253","lng":"140.931453"},{"town":"日辺","lat":"38.208605","lng":"140.916173"},{"town":"下飯田","lat":"38.217199","lng":"140.935726"},{"town":"三本塚","lat":"38.212401","lng":"140.961551"},{"town":"種次","lat":"38.193540","lng":"140.947803"},{"town":"井土","lat":"38.193152","lng":"140.965386"},{"town":"荒浜","lat":"38.222128","lng":"140.970116"},{"town":"荒井三丁目","lat":"38.241022","lng":"140.942240"},{"town":"長喜城","lat":"38.237436","lng":"140.937611"},{"town":"荒井","lat":"38.233649","lng":"140.955872"},{"town":"荒井南","lat":"38.237146","lng":"140.942451"},{"town":"なないろの里一丁目","lat":"38.240751","lng":"140.927999"},{"town":"なないろの里二丁目","lat":"38.240431","lng":"140.932382"},{"town":"なないろの里三丁目","lat":"38.238343","lng":"140.931819"},{"town":"荒井一丁目","lat":"38.242344","lng":"140.936235"},{"town":"荒井二丁目","lat":"38.244707","lng":"140.937753"},{"town":"荒井四丁目","lat":"38.244298","lng":"140.942635"},{"town":"荒井五丁目","lat":"38.247189","lng":"140.945341"},{"town":"荒井六丁目","lat":"38.243429","lng":"140.946621"},{"town":"荒井七丁目","lat":"38.239046","lng":"140.947866"},{"town":"荒井八丁目","lat":"38.236206","lng":"140.947061"},{"town":"荒井東一丁目","lat":"38.241803","lng":"140.949711"},{"town":"荒井東二丁目","lat":"38.235196","lng":"140.951365"},{"town":"蒲町東","lat":"38.245498","lng":"140.932557"},{"town":"伊在二丁目","lat":"38.247260","lng":"140.937692"},{"town":"伊在三丁目","lat":"38.247272","lng":"140.941517"},{"town":"南小泉八軒小路","lat":"38.240815","lng":"140.892401"}]