[{"town":"古川宮袋","lat":"38.586634","lng":"140.949843"},{"town":"古川蓑口沼","lat":"38.564835","lng":"140.969953"},{"town":"古川中里","lat":"38.564601","lng":"140.969000"},{"town":"古川川端","lat":"38.574752","lng":"140.957890"},{"town":"古川駅前大通四丁目","lat":"38.575447","lng":"140.965973"},{"town":"古川三日町一丁目","lat":"38.574622","lng":"140.955783"},{"town":"古川駅前大通五丁目","lat":"38.576994","lng":"140.966463"},{"town":"古川荒川小金町","lat":"38.572926","lng":"140.958754"},{"town":"古川浦町","lat":"38.577380","lng":"140.959153"},{"town":"古川駅前大通三丁目","lat":"38.573836","lng":"140.966829"},{"town":"古川東町","lat":"38.575878","lng":"140.963338"},{"town":"古川江合寿町二丁目","lat":"38.587691","lng":"140.965228"},{"town":"古川駅前大通六丁目","lat":"38.579020","lng":"140.967092"},{"town":"古川西館一丁目","lat":"38.574620","lng":"140.953738"},{"town":"古川江合錦町三丁目","lat":"38.584909","lng":"140.971230"},{"town":"古川旭六丁目","lat":"38.566214","lng":"140.978826"},{"town":"古川駅南二丁目","lat":"38.567730","lng":"140.968981"},{"town":"古川駅南一丁目","lat":"38.569313","lng":"140.969521"},{"town":"古川十日町","lat":"38.575640","lng":"140.960509"},{"town":"古川大宮五丁目","lat":"38.582739","lng":"140.959676"},{"town":"古川駅前大通二丁目","lat":"38.572777","lng":"140.966078"},{"town":"古川三日町二丁目","lat":"38.573000","lng":"140.955473"},{"town":"古川南町二丁目","lat":"38.570650","lng":"140.956863"},{"town":"古川駅東四丁目","lat":"38.570450","lng":"140.978644"},{"town":"古川幸町二丁目","lat":"38.578898","lng":"140.969207"},{"town":"古川駅南三丁目","lat":"38.566183","lng":"140.968650"},{"town":"古川江合寿町三丁目","lat":"38.586649","lng":"140.967337"},{"town":"古川福浦二丁目","lat":"38.590417","lng":"140.963488"},{"town":"古川城西二丁目","lat":"38.578378","lng":"140.947340"},{"town":"古川台町","lat":"38.574418","lng":"140.962926"},{"town":"古川北町二丁目","lat":"38.579167","lng":"140.963575"},{"town":"古川南町一丁目","lat":"38.571924","lng":"140.955932"},{"town":"古川江合錦町二丁目","lat":"38.585899","lng":"140.969667"},{"town":"古川旭三丁目","lat":"38.568635","lng":"140.975776"},{"town":"古川幸町一丁目","lat":"38.575872","lng":"140.968348"},{"town":"古川若葉町一丁目","lat":"38.588491","lng":"140.951293"},{"town":"古川江合錦町一丁目","lat":"38.583191","lng":"140.969470"},{"town":"古川西館二丁目","lat":"38.574147","lng":"140.951946"},{"town":"古川七日町","lat":"38.576291","lng":"140.957063"},{"town":"古川大宮七丁目","lat":"38.586838","lng":"140.958553"},{"town":"古川大宮四丁目","lat":"38.584667","lng":"140.957871"},{"town":"古川旭五丁目","lat":"38.567699","lng":"140.978160"},{"town":"古川稲葉二丁目","lat":"38.556072","lng":"140.952012"},{"town":"古川李埣三丁目","lat":"38.572918","lng":"140.980156"},{"town":"古川諏訪三丁目","lat":"38.584340","lng":"140.950050"},{"town":"古川稲葉三丁目","lat":"38.557088","lng":"140.954162"},{"town":"古川北町三丁目","lat":"38.581342","lng":"140.964065"},{"town":"古川千手寺町二丁目","lat":"38.579925","lng":"140.956839"},{"town":"古川北町一丁目","lat":"38.577646","lng":"140.962734"},{"town":"古川千手寺町一丁目","lat":"38.579778","lng":"140.954254"},{"town":"古川江合寿町一丁目","lat":"38.585515","lng":"140.965187"},{"town":"古川南新町","lat":"38.567576","lng":"140.957459"},{"town":"古川南町四丁目","lat":"38.571027","lng":"140.950261"},{"town":"古川旭一丁目","lat":"38.568996","lng":"140.972563"},{"town":"古川前田町","lat":"38.579627","lng":"140.959885"},{"town":"古川李埣二丁目","lat":"38.575183","lng":"140.976290"},{"town":"古川旭二丁目","lat":"38.566129","lng":"140.972097"},{"town":"古川大宮一丁目","lat":"38.582798","lng":"140.956647"},{"town":"古川駅前大通一丁目","lat":"38.571710","lng":"140.965664"},{"town":"古川大宮二丁目","lat":"38.584699","lng":"140.953125"},{"town":"古川駅東三丁目","lat":"38.572903","lng":"140.976269"},{"town":"古川金五輪二丁目","lat":"38.558107","lng":"140.960036"},{"town":"古川大宮八丁目","lat":"38.588431","lng":"140.956544"},{"town":"古川穂波一丁目","lat":"38.570959","lng":"140.944503"},{"town":"古川大宮六丁目","lat":"38.585608","lng":"140.961467"},{"town":"古川江合本町一丁目","lat":"38.588807","lng":"140.968175"},{"town":"古川大宮三丁目","lat":"38.587039","lng":"140.953863"},{"town":"古川中里一丁目","lat":"38.572865","lng":"140.961469"},{"town":"古川穂波八丁目","lat":"38.570849","lng":"140.940056"},{"town":"古川諏訪一丁目","lat":"38.580313","lng":"140.951486"},{"town":"古川城西一丁目","lat":"38.576211","lng":"140.948184"},{"town":"古川穂波七丁目","lat":"38.568034","lng":"140.940479"},{"town":"古川北稲葉二丁目","lat":"38.561692","lng":"140.953783"},{"town":"古川若葉町二丁目","lat":"38.590754","lng":"140.953963"},{"town":"古川稲葉一丁目","lat":"38.558548","lng":"140.951244"},{"town":"古川中里二丁目","lat":"38.569192","lng":"140.960658"},{"town":"古川北町四丁目","lat":"38.582852","lng":"140.962713"},{"town":"古川北稲葉一丁目","lat":"38.564533","lng":"140.953701"},{"town":"古川南町三丁目","lat":"38.568215","lng":"140.954955"},{"town":"古川北町五丁目","lat":"38.581876","lng":"140.967634"},{"town":"古川西館三丁目","lat":"38.573207","lng":"140.948910"},{"town":"古川中里三丁目","lat":"38.565354","lng":"140.961004"},{"town":"古川穂波五丁目","lat":"38.561838","lng":"140.939808"},{"town":"古川小稲葉町","lat":"38.568349","lng":"140.952173"},{"town":"古川二ノ構","lat":"38.577311","lng":"140.952192"},{"town":"古川旭四丁目","lat":"38.565058","lng":"140.974129"},{"town":"古川李埣一丁目","lat":"38.577567","lng":"140.971402"},{"town":"古川中島町","lat":"38.563366","lng":"140.957445"},{"town":"古川穂波二丁目","lat":"38.568335","lng":"140.944978"},{"town":"古川金五輪一丁目","lat":"38.560133","lng":"140.958423"},{"town":"三本木新町二丁目","lat":"38.516083","lng":"140.933888"},{"town":"古川駅東一丁目","lat":"38.571524","lng":"140.972008"},{"town":"古川栄町","lat":"38.567838","lng":"140.949096"},{"town":"三本木新町一丁目","lat":"38.519336","lng":"140.933092"},{"town":"古川駅東二丁目","lat":"38.573626","lng":"140.971668"},{"town":"古川福浦一丁目","lat":"38.588736","lng":"140.962045"},{"town":"古川穂波四丁目","lat":"38.559428","lng":"140.942476"},{"town":"古川中里四丁目","lat":"38.561118","lng":"140.961520"},{"town":"古川福浦三丁目","lat":"38.592456","lng":"140.965956"},{"town":"古川稲葉四丁目","lat":"38.554625","lng":"140.955955"},{"town":"古川福沼三丁目","lat":"38.577869","lng":"140.975113"},{"town":"古川北稲葉三丁目","lat":"38.562808","lng":"140.949933"},{"town":"古川穂波六丁目","lat":"38.565199","lng":"140.940567"},{"town":"古川中里六丁目","lat":"38.568560","lng":"140.964835"},{"town":"田尻北高城","lat":"38.592487","lng":"141.044581"},{"town":"古川諏訪二丁目","lat":"38.581656","lng":"140.949430"},{"town":"古川中里五丁目","lat":"38.563473","lng":"140.963902"},{"town":"古川穂波三丁目","lat":"38.563948","lng":"140.945767"},{"town":"古川福沼二丁目","lat":"38.578765","lng":"140.979119"},{"town":"古川米倉","lat":"38.567980","lng":"140.936954"},{"town":"田尻桜田高野","lat":"38.592085","lng":"141.051775"},{"town":"古川稲葉","lat":"38.554193","lng":"140.950212"},{"town":"古川福浦","lat":"38.592944","lng":"140.958594"},{"town":"古川李埣","lat":"38.571798","lng":"140.983874"},{"town":"古川上中目","lat":"38.572428","lng":"140.901855"},{"town":"古川境野宮","lat":"38.552634","lng":"140.959533"},{"town":"古川米袋","lat":"38.547105","lng":"140.952598"},{"town":"田尻諏訪峠","lat":"38.617180","lng":"140.995096"},{"town":"古川下谷地","lat":"38.571916","lng":"141.009839"},{"town":"古川大幡","lat":"38.560149","lng":"140.969705"},{"town":"古川耳取","lat":"38.582127","lng":"140.879949"},{"town":"古川南沢","lat":"38.598717","lng":"140.886091"},{"town":"古川新堀","lat":"38.577810","lng":"140.892021"},{"town":"田尻沼木","lat":"38.613618","lng":"140.992833"},{"town":"三本木南谷地","lat":"38.532257","lng":"140.938364"},{"town":"古川斎下","lat":"38.598727","lng":"140.892233"},{"town":"田尻北牧目","lat":"38.595634","lng":"141.042153"},{"town":"古川馬櫛","lat":"38.580078","lng":"141.010122"},{"town":"古川長岡","lat":"38.618564","lng":"140.962185"},{"town":"三本木上伊場野","lat":"38.532762","lng":"140.978661"},{"town":"古川宮内","lat":"38.551670","lng":"140.968576"},{"town":"古川荒田目","lat":"38.584950","lng":"140.903386"},{"town":"古川長岡針","lat":"38.593892","lng":"141.005077"},{"town":"古川深沼","lat":"38.560520","lng":"140.993518"},{"town":"古川狐塚","lat":"38.606359","lng":"140.986921"},{"town":"三本木高柳","lat":"38.545548","lng":"140.939845"},{"town":"古川渕尻","lat":"38.585590","lng":"140.981296"},{"town":"古川新沼","lat":"38.548303","lng":"140.924708"},{"town":"古川馬放","lat":"38.601995","lng":"140.997863"},{"town":"田尻通木","lat":"38.605843","lng":"141.027739"},{"town":"古川馬寄","lat":"38.560997","lng":"140.982100"},{"town":"古川小泉","lat":"38.595709","lng":"140.942518"},{"town":"古川楡木","lat":"38.555195","lng":"140.979836"},{"town":"古川休塚","lat":"38.596160","lng":"140.982787"},{"town":"古川上埣","lat":"38.579883","lng":"140.997076"},{"town":"古川","lat":"38.583095","lng":"140.943366"},{"town":"古川鶴ケ埣","lat":"38.572846","lng":"140.991504"},{"town":"古川桑針","lat":"38.552876","lng":"141.010279"},{"town":"古川渋井","lat":"38.580555","lng":"140.915893"},{"town":"古川堤根","lat":"38.538824","lng":"140.903221"},{"town":"田尻中目","lat":"38.604118","lng":"141.010579"},{"town":"古川石森","lat":"38.547644","lng":"140.994492"},{"town":"古川保柳","lat":"38.581790","lng":"140.899057"},{"town":"古川荒谷","lat":"38.612295","lng":"140.977462"},{"town":"古川柏崎","lat":"38.587009","lng":"140.887701"},{"town":"古川富長","lat":"38.590068","lng":"140.993135"},{"town":"古川矢目","lat":"38.556666","lng":"140.909417"},{"town":"田尻八幡","lat":"38.619865","lng":"141.014709"},{"town":"三本木蒜袋","lat":"38.535923","lng":"140.966122"},{"town":"古川引田","lat":"38.541941","lng":"140.899444"},{"town":"古川西荒井","lat":"38.554187","lng":"140.943000"},{"town":"古川中沢","lat":"38.534747","lng":"140.912102"},{"town":"三本木坂本","lat":"38.516660","lng":"140.912636"},{"town":"田尻小松","lat":"38.617727","lng":"141.005909"},{"town":"田尻","lat":"38.595210","lng":"141.024260"},{"town":"三本木斉田","lat":"38.523163","lng":"140.897458"},{"town":"古川川熊","lat":"38.622594","lng":"140.957135"},{"town":"古川沢田","lat":"38.602659","lng":"140.970059"},{"town":"三本木蟻ケ袋","lat":"38.510893","lng":"140.925726"},{"town":"三本木秋田","lat":"38.511972","lng":"140.975561"},{"town":"古川小林","lat":"38.611655","lng":"140.937857"},{"town":"古川塚目","lat":"38.578673","lng":"140.933024"},{"town":"鹿島台平渡","lat":"38.481116","lng":"141.095708"},{"town":"松山須摩屋","lat":"38.519461","lng":"141.082808"},{"town":"古川桜ノ目","lat":"38.605697","lng":"140.950790"},{"town":"鹿島台船越","lat":"38.506551","lng":"141.103138"},{"town":"松山金谷","lat":"38.505577","lng":"141.062478"},{"town":"田尻小塩","lat":"38.595929","lng":"141.073673"},{"town":"田尻大嶺","lat":"38.618142","lng":"141.024238"},{"town":"古川師山","lat":"38.540832","lng":"140.979282"},{"town":"古川下中目","lat":"38.541721","lng":"141.008412"},{"town":"田尻北小牛田","lat":"38.563911","lng":"141.068287"},{"town":"三本木音無","lat":"38.504930","lng":"140.906113"},{"town":"松山長尾","lat":"38.505159","lng":"141.082647"},{"town":"古川飯川","lat":"38.562441","lng":"140.919919"},{"town":"三本木新沼","lat":"38.533408","lng":"140.927653"},{"town":"三本木","lat":"38.523744","lng":"140.941885"},{"town":"鹿島台深谷","lat":"38.469234","lng":"141.065455"},{"town":"古川清滝","lat":"38.670625","lng":"140.947591"},{"town":"古川新田","lat":"38.592746","lng":"140.927485"},{"town":"三本木伊賀","lat":"38.496914","lng":"140.929834"},{"town":"古川大崎","lat":"38.603060","lng":"140.904001"},{"town":"古川清水","lat":"38.618708","lng":"140.909583"},{"town":"古川雨生沢","lat":"38.644948","lng":"140.932800"},{"town":"松山次橋","lat":"38.512284","lng":"141.027118"},{"town":"古川宮沢","lat":"38.628963","lng":"140.937802"},{"town":"岩出山下一栗","lat":"38.687700","lng":"140.859595"},{"town":"三本木桑折","lat":"38.513176","lng":"140.952101"},{"town":"松山千石","lat":"38.515075","lng":"141.049508"},{"town":"古川清水沢","lat":"38.651744","lng":"140.977076"},{"town":"古川小野","lat":"38.629370","lng":"140.985080"},{"town":"松山下伊場野","lat":"38.511147","lng":"141.010337"},{"town":"三本木伊場野","lat":"38.516228","lng":"140.991522"},{"town":"田尻大沢","lat":"38.581521","lng":"141.069262"},{"town":"古川北宮沢","lat":"38.658254","lng":"140.933774"},{"town":"田尻沼部","lat":"38.607699","lng":"141.054757"},{"town":"鹿島台木間塚","lat":"38.470874","lng":"141.111612"},{"town":"岩出山上野目","lat":"38.671730","lng":"140.884257"},{"town":"田尻蕪栗","lat":"38.620804","lng":"141.097288"},{"town":"鹿島台広長","lat":"38.473159","lng":"141.080946"},{"town":"田尻大貫","lat":"38.601330","lng":"141.113287"},{"town":"岩出山下野目","lat":"38.639316","lng":"140.899970"},{"town":"鹿島台大迫","lat":"38.472543","lng":"141.036714"},{"town":"岩出山南沢","lat":"38.655425","lng":"140.821658"},{"town":"岩出山池月","lat":"38.712534","lng":"140.838088"},{"town":"岩出山","lat":"38.701878","lng":"140.924155"},{"town":"鳴子温泉鬼首","lat":"38.827177","lng":"140.635762"},{"town":"鳴子温泉","lat":"38.736730","lng":"140.748460"},{"town":"古川江合本町三丁目","lat":"38.591896","lng":"140.970058"},{"town":"古川福沼一丁目","lat":"38.583642","lng":"140.974274"},{"town":"古川江合本町二丁目","lat":"38.588186","lng":"140.971949"},{"town":"古川江合","lat":"38.588210","lng":"140.972944"}]