[{"town":"字関ノ内","lat":"38.061530","lng":"140.724664"},{"town":"字嶋脇","lat":"38.063271","lng":"140.736254"},{"town":"字南関ノ内","lat":"38.058947","lng":"140.717713"},{"town":"字町西","lat":"38.055904","lng":"140.737085"},{"town":"字北嶋脇","lat":"38.067378","lng":"140.738806"},{"town":"字東青川","lat":"38.061515","lng":"140.738687"},{"town":"字荒町","lat":"38.045195","lng":"140.728854"},{"town":"字大竜","lat":"38.034487","lng":"140.734503"},{"town":"字八乙女","lat":"38.062779","lng":"140.724232"},{"town":"字土手崎","lat":"38.062531","lng":"140.741424"},{"town":"字川瀬町","lat":"38.039333","lng":"140.734087"},{"town":"字旭町","lat":"38.050063","lng":"140.743652"},{"town":"字大谷地","lat":"38.066218","lng":"140.739614"},{"town":"字大巻","lat":"38.064675","lng":"140.740997"},{"town":"字大芝","lat":"38.031076","lng":"140.729785"},{"town":"字上の倉","lat":"38.036985","lng":"140.731042"},{"town":"字南海道下","lat":"38.046141","lng":"140.730746"},{"town":"字西町","lat":"38.052442","lng":"140.734968"},{"town":"字海道東","lat":"38.055782","lng":"140.739655"},{"town":"字西浦","lat":"38.047920","lng":"140.732835"},{"town":"字海道西","lat":"38.061615","lng":"140.744552"},{"town":"字千塚前","lat":"38.066322","lng":"140.734683"},{"town":"字下川原","lat":"38.042034","lng":"140.729350"},{"town":"字甲子町","lat":"38.044701","lng":"140.736883"},{"town":"字上川原","lat":"38.045069","lng":"140.730662"},{"town":"字新上谷前","lat":"38.034698","lng":"140.730106"},{"town":"字沼","lat":"38.063848","lng":"140.721366"},{"town":"字袖谷地","lat":"38.061891","lng":"140.722400"},{"town":"字沖端","lat":"38.037045","lng":"140.711815"},{"town":"字新青川","lat":"38.062394","lng":"140.738769"},{"town":"字広瀬町","lat":"38.044700","lng":"140.746340"},{"town":"字中ノ水門","lat":"38.064935","lng":"140.734419"},{"town":"字南","lat":"38.049629","lng":"140.732482"},{"town":"字中島町","lat":"38.045133","lng":"140.740301"},{"town":"字火崎","lat":"38.063635","lng":"140.730111"},{"town":"字新桜町","lat":"38.060529","lng":"140.739776"},{"town":"字住吉町","lat":"38.043161","lng":"140.739746"},{"town":"字南原町","lat":"38.044070","lng":"140.724247"},{"town":"字山崎町","lat":"38.041214","lng":"140.741770"},{"town":"字東原町","lat":"38.044531","lng":"140.727145"},{"town":"字錦町","lat":"38.046211","lng":"140.744720"},{"town":"字幸町","lat":"38.047371","lng":"140.742132"},{"town":"字南桜町","lat":"38.058060","lng":"140.743540"},{"town":"字東","lat":"38.059513","lng":"140.733241"},{"town":"字上舘前","lat":"38.033055","lng":"140.711229"},{"town":"字高砂町","lat":"38.052931","lng":"140.750161"},{"town":"字中川原","lat":"38.043748","lng":"140.732249"},{"town":"字緑町","lat":"38.043688","lng":"140.720308"},{"town":"字南平","lat":"38.041407","lng":"140.719785"},{"town":"字新古川","lat":"38.041335","lng":"140.725992"},{"town":"字西桜町","lat":"38.058877","lng":"140.741133"},{"town":"字橋本","lat":"38.063940","lng":"140.726003"},{"town":"字新川前","lat":"38.037891","lng":"140.720029"},{"town":"字小島","lat":"38.066266","lng":"140.737743"},{"town":"字東桜町","lat":"38.058837","lng":"140.748895"},{"town":"字中の倉","lat":"38.039581","lng":"140.730318"},{"town":"字町","lat":"38.051030","lng":"140.736536"},{"town":"字新東","lat":"38.058404","lng":"140.735474"},{"town":"字西","lat":"38.059543","lng":"140.725278"},{"town":"福田","lat":"38.070135","lng":"140.716303"},{"town":"新寺","lat":"38.065286","lng":"140.699604"},{"town":"小山田","lat":"38.067018","lng":"140.709927"},{"town":"堤","lat":"38.059384","lng":"140.688554"},{"town":"大谷","lat":"38.037645","lng":"140.733782"},{"town":"字新南","lat":"38.050429","lng":"140.729163"},{"town":"字東新町","lat":"38.043745","lng":"140.715645"},{"town":"金ケ瀬","lat":"38.048912","lng":"140.709030"},{"town":"字広表","lat":"38.046449","lng":"140.716068"}]