[{"town":"麻生野","koaza":"","lat":"33.014657","lng":"130.649824"},{"town":"石","koaza":"","lat":"33.025120","lng":"130.676158"},{"town":"泉町","koaza":"","lat":"33.016144","lng":"130.685829"},{"town":"大橋通","koaza":"","lat":"33.012798","lng":"130.684753"},{"town":"小坂","koaza":"","lat":"33.077468","lng":"130.714876"},{"town":"小原","koaza":"","lat":"33.000693","lng":"130.662600"},{"town":"小群","koaza":"","lat":"33.042372","lng":"130.659788"},{"town":"鹿央町合里","koaza":"","lat":"32.971838","lng":"130.667471"},{"town":"鹿央町岩原","koaza":"","lat":"32.989006","lng":"130.676516"},{"town":"鹿央町梅木谷","koaza":"","lat":"32.954355","lng":"130.647021"},{"town":"鹿央町大浦","koaza":"","lat":"32.955582","lng":"130.641967"},{"town":"鹿央町北谷","koaza":"","lat":"32.953369","lng":"130.657797"},{"town":"鹿央町霜野","koaza":"","lat":"32.940376","lng":"130.652463"},{"town":"鹿央町千田","koaza":"","lat":"32.975318","lng":"130.697149"},{"town":"鹿央町中浦","koaza":"","lat":"32.954794","lng":"130.634384"},{"town":"鹿央町仁王堂","koaza":"","lat":"32.947991","lng":"130.658118"},{"town":"鹿央町広","koaza":"","lat":"32.963199","lng":"130.687400"},{"town":"鹿央町持松","koaza":"","lat":"32.983982","lng":"130.692643"},{"town":"鹿校通一丁目","koaza":"","lat":"33.012658","lng":"130.704332"},{"town":"鹿校通二丁目","koaza":"","lat":"33.009446","lng":"130.703496"},{"town":"鹿校通三丁目","koaza":"","lat":"33.011171","lng":"130.708293"},{"town":"鹿校通四丁目","koaza":"","lat":"33.013268","lng":"130.709126"},{"town":"方保田","koaza":"","lat":"33.002666","lng":"130.718446"},{"town":"鹿北町芋生","koaza":"","lat":"33.085705","lng":"130.675233"},{"town":"鹿北町岩野","koaza":"","lat":"33.133436","lng":"130.687289"},{"town":"鹿北町椎持","koaza":"","lat":"33.127013","lng":"130.737669"},{"town":"鹿北町四丁","koaza":"","lat":"33.097528","lng":"130.708554"},{"town":"鹿北町多久","koaza":"","lat":"33.106607","lng":"130.762988"},{"town":"上吉田","koaza":"","lat":"33.044263","lng":"130.708022"},{"town":"蒲生","koaza":"","lat":"33.024280","lng":"130.740161"},{"town":"鹿本町石渕","koaza":"","lat":"32.995776","lng":"130.759921"},{"town":"鹿本町小嶋","koaza":"","lat":"32.994370","lng":"130.745550"},{"town":"鹿本町梶屋","koaza":"","lat":"32.985297","lng":"130.750212"},{"town":"鹿本町来民","koaza":"","lat":"33.004877","lng":"130.744500"},{"town":"鹿本町小柳","koaza":"","lat":"32.989083","lng":"130.710785"},{"town":"鹿本町下高橋","koaza":"","lat":"32.997020","lng":"130.750444"},{"town":"鹿本町下分田","koaza":"","lat":"32.987818","lng":"130.718668"},{"town":"鹿本町庄","koaza":"","lat":"33.012362","lng":"130.766238"},{"town":"鹿本町高橋","koaza":"","lat":"33.006308","lng":"130.754718"},{"town":"鹿本町津袋","koaza":"","lat":"33.015754","lng":"130.756785"},{"town":"鹿本町中川","koaza":"","lat":"32.982051","lng":"130.737598"},{"town":"鹿本町中富","koaza":"","lat":"32.984370","lng":"130.742405"},{"town":"鹿本町中分田","koaza":"","lat":"32.984327","lng":"130.722685"},{"town":"鹿本町分田","koaza":"","lat":"32.982182","lng":"130.729118"},{"town":"鹿本町御宇田","koaza":"","lat":"33.008506","lng":"130.734125"},{"town":"川端町","koaza":"","lat":"33.015832","lng":"130.680061"},{"town":"菊鹿町相良","koaza":"","lat":"33.073718","lng":"130.769202"},{"town":"菊鹿町阿佐古","koaza":"","lat":"33.040990","lng":"130.800354"},{"town":"菊鹿町池永","koaza":"","lat":"33.028729","lng":"130.793481"},{"town":"菊鹿町太田","koaza":"","lat":"33.043950","lng":"130.769569"},{"town":"菊鹿町上内田","koaza":"","lat":"33.068167","lng":"130.796583"},{"town":"菊鹿町上永野","koaza":"","lat":"33.049654","lng":"130.811983"},{"town":"菊鹿町木野","koaza":"","lat":"33.007624","lng":"130.776241"},{"town":"菊鹿町五郎丸","koaza":"","lat":"33.053700","lng":"130.786656"},{"town":"菊鹿町下内田","koaza":"","lat":"33.029213","lng":"130.757364"},{"town":"菊鹿町下永野","koaza":"","lat":"33.028977","lng":"130.774758"},{"town":"菊鹿町長","koaza":"","lat":"33.047385","lng":"130.751276"},{"town":"菊鹿町松尾","koaza":"","lat":"33.017289","lng":"130.793278"},{"town":"菊鹿町宮原","koaza":"","lat":"33.033748","lng":"130.781312"},{"town":"菊鹿町矢谷","koaza":"","lat":"33.088376","lng":"130.805729"},{"town":"菊鹿町山内","koaza":"","lat":"33.070853","lng":"130.749100"},{"town":"菊鹿町米原","koaza":"","lat":"33.005677","lng":"130.789128"},{"town":"久原","koaza":"","lat":"33.038008","lng":"130.723320"},{"town":"熊入町","koaza":"","lat":"33.027765","lng":"130.686895"},{"town":"古閑","koaza":"","lat":"33.009394","lng":"130.713476"},{"town":"坂田","koaza":"","lat":"32.995354","lng":"130.650055"},{"town":"志々岐","koaza":"","lat":"33.006648","lng":"130.677584"},{"town":"下吉田","koaza":"","lat":"33.026730","lng":"130.696168"},{"town":"城","koaza":"","lat":"33.039834","lng":"130.671177"},{"town":"昭和町","koaza":"","lat":"33.013342","lng":"130.686389"},{"town":"新町","koaza":"","lat":"33.018529","lng":"130.682381"},{"town":"杉","koaza":"","lat":"33.036574","lng":"130.684274"},{"town":"中央通","koaza":"","lat":"33.015590","lng":"130.683843"},{"town":"椿井","koaza":"","lat":"33.018914","lng":"130.637797"},{"town":"津留","koaza":"","lat":"33.058019","lng":"130.680811"},{"town":"寺島","koaza":"","lat":"33.051031","lng":"130.695601"},{"town":"中","koaza":"","lat":"33.012596","lng":"130.700369"},{"town":"長坂","koaza":"","lat":"32.992722","lng":"130.704342"},{"town":"名塚","koaza":"","lat":"33.032089","lng":"130.700109"},{"town":"鍋田","koaza":"","lat":"33.022839","lng":"130.655835"},{"town":"西牧","koaza":"","lat":"33.003179","lng":"130.654253"},{"town":"平山","koaza":"","lat":"33.064808","lng":"130.649648"},{"town":"藤井","koaza":"","lat":"32.990484","lng":"130.731027"},{"town":"保多田","koaza":"","lat":"33.012707","lng":"130.659533"},{"town":"南島","koaza":"","lat":"32.999799","lng":"130.695905"},{"town":"宗方","koaza":"","lat":"33.011076","lng":"130.684127"},{"town":"宗方通","koaza":"","lat":"33.012593","lng":"130.681760"},{"town":"山鹿","koaza":"","lat":"33.014351","lng":"130.693863"},{"town":"中","koaza":"伏鍋","lat":"33.019529","lng":"130.702996"},{"town":"方保田","koaza":"堤の下","lat":"33.006527","lng":"130.719814"},{"town":"方保田","koaza":"鳥越","lat":"33.006555","lng":"130.723311"}]