[{"town":"大字上木葉","koaza":"","lat":32.920457,"lng":130.631852},{"town":"大字上白木","koaza":"","lat":32.894752,"lng":130.62672},{"town":"大字二俣","koaza":"","lat":32.908619,"lng":130.636461},{"town":"大字原倉","koaza":"","lat":32.877257,"lng":130.625423},{"town":"大字山口","koaza":"","lat":32.920343,"lng":130.618471},{"town":"大字木葉","koaza":"","lat":32.919067,"lng":130.624138},{"town":"大字浦田","koaza":"","lat":32.932319,"lng":130.632056},{"town":"大字白木","koaza":"","lat":32.903505,"lng":130.62754},{"town":"大字稲佐","koaza":"","lat":32.923766,"lng":130.61142},{"town":"大字西安寺","koaza":"","lat":32.891685,"lng":130.640025}]