[{"town":"大字一勝地","koaza":"","lat":32.228271,"lng":130.618148,"zip":"8696400"},{"town":"大字大瀬","koaza":"","lat":32.279182,"lng":130.626329,"zip":"8696400"},{"town":"大字神瀬","koaza":"","lat":32.329794,"lng":130.651267,"zip":"8696400"},{"town":"大字三ケ浦","koaza":"","lat":32.207049,"lng":130.666658,"zip":"8696400"},{"town":"大字渡","koaza":"","lat":32.270202,"lng":130.680707,"zip":"8696400"}]