[{"town":"大字尾下","koaza":"","lat":"32.858216","lng":"131.236303"},{"town":"大字上色見","koaza":"","lat":"32.866133","lng":"131.156675"},{"town":"大字河原","koaza":"","lat":"32.887084","lng":"131.233409"},{"town":"大字草部","koaza":"","lat":"32.794421","lng":"131.209723"},{"town":"大字色見","koaza":"","lat":"32.857233","lng":"131.121291"},{"town":"大字下切","koaza":"","lat":"32.801995","lng":"131.236545"},{"town":"大字菅山","koaza":"","lat":"32.762174","lng":"131.226685"},{"town":"大字芹口","koaza":"","lat":"32.777102","lng":"131.209758"},{"town":"大字高森","koaza":"","lat":"32.820674","lng":"131.130830"},{"town":"大字津留","koaza":"","lat":"32.847570","lng":"131.289426"},{"town":"大字中","koaza":"","lat":"32.837003","lng":"131.210058"},{"town":"大字永野原","koaza":"","lat":"32.782792","lng":"131.227729"},{"town":"大字野尻","koaza":"","lat":"32.828159","lng":"131.244136"},{"town":"大字矢津田","koaza":"","lat":"32.828346","lng":"131.171672"}]