[{"town":"相生町一丁目","lat":"34.991058","lng":"137.010967"},{"town":"相生町二丁目","lat":"34.993150","lng":"137.010290"},{"town":"相生町三丁目","lat":"34.994420","lng":"137.009886"},{"town":"逢妻町一丁目","lat":"34.997778","lng":"136.985152"},{"town":"逢妻町二丁目","lat":"34.995109","lng":"136.985135"},{"town":"逢妻町三丁目","lat":"34.996143","lng":"136.982818"},{"town":"逢妻町四丁目","lat":"34.992436","lng":"136.985294"},{"town":"逢妻町五丁目","lat":"34.992175","lng":"136.982964"},{"town":"逢妻町六丁目","lat":"34.990199","lng":"136.983636"},{"town":"青山町一丁目","lat":"35.008781","lng":"137.012766"},{"town":"青山町二丁目","lat":"35.010349","lng":"137.009508"},{"town":"朝日町一丁目","lat":"35.001462","lng":"137.010848"},{"town":"朝日町二丁目","lat":"35.001741","lng":"137.014277"},{"town":"荒井町一丁目","lat":"34.956438","lng":"136.995203"},{"town":"荒井町二丁目","lat":"34.958696","lng":"136.995549"},{"town":"井ケ谷町","lat":"35.057212","lng":"137.050513"},{"town":"池田町一丁目","lat":"35.004142","lng":"137.008357"},{"town":"池田町二丁目","lat":"35.005612","lng":"137.007672"},{"town":"池田町三丁目","lat":"35.007391","lng":"137.006360"},{"town":"池田町四丁目","lat":"35.007620","lng":"137.008616"},{"town":"池田町五丁目","lat":"35.008757","lng":"137.008444"},{"town":"池田町六丁目","lat":"35.009360","lng":"137.006355"},{"town":"一色町一丁目","lat":"34.991936","lng":"137.019276"},{"town":"一色町二丁目","lat":"34.993587","lng":"137.018768"},{"town":"一色町三丁目","lat":"34.996635","lng":"137.017922"},{"town":"泉田町","lat":"35.022950","lng":"137.002132"},{"town":"板倉町一丁目","lat":"34.978647","lng":"137.042635"},{"town":"板倉町二丁目","lat":"34.980938","lng":"137.040172"},{"town":"板倉町三丁目","lat":"34.982058","lng":"137.036996"},{"town":"一番町一丁目","lat":"35.017020","lng":"136.998600"},{"town":"一番町二丁目","lat":"35.015708","lng":"136.997098"},{"town":"一番町三丁目","lat":"35.013825","lng":"136.995514"},{"town":"一番町四丁目","lat":"35.012509","lng":"136.993807"},{"town":"一番町五丁目","lat":"35.011087","lng":"136.994800"},{"town":"一番町六丁目","lat":"35.009728","lng":"136.992472"},{"town":"一里山町","lat":"35.024689","lng":"137.040001"},{"town":"稲場町一丁目","lat":"35.004039","lng":"136.998638"},{"town":"稲場町二丁目","lat":"35.003835","lng":"137.001254"},{"town":"稲場町三丁目","lat":"35.005164","lng":"137.001404"},{"town":"稲場町四丁目","lat":"35.005488","lng":"136.998785"},{"town":"稲場町五丁目","lat":"35.007129","lng":"136.998066"},{"town":"稲場町六丁目","lat":"35.007141","lng":"136.999702"},{"town":"今岡町","lat":"35.026070","lng":"137.025734"},{"town":"今川町","lat":"35.032174","lng":"137.014274"},{"town":"今川町一丁目","lat":"35.028808","lng":"137.018060"},{"town":"今川町二丁目","lat":"35.029382","lng":"137.019117"},{"town":"今川町三丁目","lat":"35.031953","lng":"137.016616"},{"town":"今川町四丁目","lat":"35.030366","lng":"137.015627"},{"town":"大手町一丁目","lat":"34.988473","lng":"137.004524"},{"town":"大手町二丁目","lat":"34.987428","lng":"137.002264"},{"town":"大手町三丁目","lat":"34.986302","lng":"137.002254"},{"town":"大手町四丁目","lat":"34.987239","lng":"137.004912"},{"town":"大手町五丁目","lat":"34.986221","lng":"137.004855"},{"town":"小垣江町","lat":"34.962935","lng":"137.000598"},{"town":"沖野町一丁目","lat":"34.972382","lng":"137.037075"},{"town":"小山町一丁目","lat":"35.008559","lng":"137.000612"},{"town":"小山町二丁目","lat":"35.010211","lng":"136.999659"},{"town":"小山町三丁目","lat":"35.010047","lng":"137.003032"},{"town":"小山町四丁目","lat":"35.011581","lng":"137.002707"},{"town":"小山町五丁目","lat":"35.011145","lng":"137.000206"},{"town":"小山町六丁目","lat":"35.010748","lng":"136.997256"},{"town":"小山町七丁目","lat":"35.008955","lng":"136.997484"},{"town":"小山町八丁目","lat":"35.009543","lng":"136.994923"},{"town":"恩田町一丁目","lat":"35.007466","lng":"137.020699"},{"town":"恩田町二丁目","lat":"35.007220","lng":"137.017694"},{"town":"恩田町三丁目","lat":"35.008460","lng":"137.016565"},{"town":"恩田町四丁目","lat":"35.010679","lng":"137.019899"},{"town":"神田町一丁目","lat":"34.988962","lng":"137.012084"},{"town":"神田町二丁目","lat":"34.987292","lng":"137.012419"},{"town":"神田町三丁目","lat":"34.987952","lng":"137.014331"},{"town":"銀座一丁目","lat":"34.988791","lng":"136.993815"},{"town":"銀座二丁目","lat":"34.987909","lng":"136.992613"},{"town":"銀座三丁目","lat":"34.987598","lng":"136.991603"},{"town":"銀座四丁目","lat":"34.987065","lng":"136.989948"},{"town":"銀座五丁目","lat":"34.987483","lng":"136.988480"},{"town":"銀座六丁目","lat":"34.988468","lng":"136.988336"},{"town":"熊野町一丁目","lat":"34.997954","lng":"136.988267"},{"town":"熊野町二丁目","lat":"34.997496","lng":"136.990702"},{"town":"熊野町三丁目","lat":"34.995597","lng":"136.990402"},{"town":"熊野町四丁目","lat":"34.996755","lng":"136.988050"},{"town":"熊野町五丁目","lat":"34.995569","lng":"136.987784"},{"town":"熊野町六丁目","lat":"34.994261","lng":"136.987780"},{"town":"熊野町七丁目","lat":"34.993861","lng":"136.990047"},{"town":"寿町一丁目","lat":"34.987346","lng":"136.998852"},{"town":"寿町二丁目","lat":"34.986123","lng":"136.999773"},{"town":"寿町三丁目","lat":"34.986500","lng":"136.996996"},{"town":"寿町四丁目","lat":"34.985124","lng":"136.999362"},{"town":"寿町五丁目","lat":"34.983709","lng":"136.999218"},{"town":"衣崎町一丁目","lat":"34.970037","lng":"136.985597"},{"town":"衣崎町二丁目","lat":"34.966363","lng":"136.985956"},{"town":"幸町一丁目","lat":"34.990338","lng":"137.015571"},{"town":"幸町二丁目","lat":"34.993086","lng":"137.015864"},{"town":"幸町三丁目","lat":"34.995120","lng":"137.015488"},{"town":"幸町四丁目","lat":"34.995702","lng":"137.014853"},{"town":"桜町一丁目","lat":"34.991774","lng":"137.008543"},{"town":"桜町二丁目","lat":"34.992849","lng":"137.007673"},{"town":"桜町三丁目","lat":"34.993472","lng":"137.007316"},{"town":"桜町四丁目","lat":"34.994189","lng":"137.007219"},{"town":"桜町五丁目","lat":"34.992989","lng":"137.005569"},{"town":"重原本町一丁目","lat":"34.990004","lng":"137.019363"},{"town":"重原本町二丁目","lat":"34.990900","lng":"137.021309"},{"town":"重原本町三丁目","lat":"34.988273","lng":"137.021472"},{"town":"重原本町四丁目","lat":"34.990294","lng":"137.024343"},{"town":"下重原町一丁目","lat":"34.988756","lng":"137.017978"},{"town":"下重原町二丁目","lat":"34.987346","lng":"137.016272"},{"town":"下重原町三丁目","lat":"34.985329","lng":"137.014751"},{"town":"下重原町四丁目","lat":"34.986050","lng":"137.018400"},{"town":"下重原町五丁目","lat":"34.987557","lng":"137.019182"},{"town":"松栄町一丁目","lat":"34.980338","lng":"137.033585"},{"town":"松栄町二丁目","lat":"34.978540","lng":"137.033882"},{"town":"松栄町三丁目","lat":"34.975646","lng":"137.033310"},{"town":"昭和町二丁目","lat":"34.997354","lng":"137.013556"},{"town":"昭和町一丁目","lat":"34.997047","lng":"137.008151"},{"town":"城町一丁目","lat":"34.988256","lng":"136.985689"},{"town":"城町二丁目","lat":"34.988400","lng":"136.982247"},{"town":"新栄町一丁目","lat":"34.989761","lng":"136.998072"},{"town":"新栄町二丁目","lat":"34.988855","lng":"136.998739"},{"town":"新栄町三丁目","lat":"34.988425","lng":"136.997804"},{"town":"新栄町四丁目","lat":"34.989497","lng":"136.996525"},{"town":"新栄町五丁目","lat":"34.989001","lng":"136.995101"},{"town":"新栄町六丁目","lat":"34.987795","lng":"136.996807"},{"town":"新栄町七丁目","lat":"34.987980","lng":"136.994853"},{"town":"新田町一丁目","lat":"35.011212","lng":"137.005503"},{"town":"新田町二丁目","lat":"35.012555","lng":"137.003132"},{"town":"新田町三丁目","lat":"35.014031","lng":"137.002782"},{"town":"新田町四丁目","lat":"35.015416","lng":"137.003875"},{"town":"新田町五丁目","lat":"35.016936","lng":"137.005229"},{"town":"新田町六丁目","lat":"35.012209","lng":"137.005990"},{"town":"新富町一丁目","lat":"35.004607","lng":"137.003318"},{"town":"新富町二丁目","lat":"35.004560","lng":"137.005343"},{"town":"新富町三丁目","lat":"35.007224","lng":"137.004046"},{"town":"新富町四丁目","lat":"35.007302","lng":"137.001668"},{"town":"新富町五丁目","lat":"35.008583","lng":"137.003886"},{"town":"神明町一丁目","lat":"34.993887","lng":"137.003406"},{"town":"神明町二丁目","lat":"34.994536","lng":"137.004633"},{"town":"神明町三丁目","lat":"34.995793","lng":"137.004125"},{"town":"神明町四丁目","lat":"34.994962","lng":"137.001556"},{"town":"神明町五丁目","lat":"34.996851","lng":"137.001780"},{"town":"神明町六丁目","lat":"34.997010","lng":"137.004502"},{"town":"神明町七丁目","lat":"34.998513","lng":"137.004503"},{"town":"神明町八丁目","lat":"34.998312","lng":"137.002756"},{"town":"神明町九丁目","lat":"34.998504","lng":"137.001185"},{"town":"末広町一丁目","lat":"34.974841","lng":"137.045024"},{"town":"末広町二丁目","lat":"34.973466","lng":"137.043770"},{"town":"末広町三丁目","lat":"34.971774","lng":"137.043215"},{"town":"住吉町一丁目","lat":"34.985546","lng":"137.012705"},{"town":"住吉町二丁目","lat":"34.985384","lng":"137.010635"},{"town":"住吉町三丁目","lat":"34.984868","lng":"137.008272"},{"town":"住吉町四丁目","lat":"34.984999","lng":"137.005615"},{"town":"住吉町五丁目","lat":"34.983295","lng":"137.005995"},{"town":"大正町一丁目","lat":"34.985279","lng":"136.995651"},{"town":"大正町二丁目","lat":"34.984285","lng":"136.996939"},{"town":"大正町三丁目","lat":"34.984207","lng":"136.994906"},{"town":"大正町四丁目","lat":"34.982927","lng":"136.994278"},{"town":"大正町五丁目","lat":"34.981699","lng":"136.995708"},{"town":"大正町六丁目","lat":"34.983084","lng":"136.995748"},{"town":"大正町七丁目","lat":"34.982306","lng":"136.998317"},{"town":"高倉町一丁目","lat":"35.000820","lng":"136.997811"},{"town":"高倉町二丁目","lat":"35.002216","lng":"136.998599"},{"town":"高倉町三丁目","lat":"35.002257","lng":"136.995704"},{"town":"高倉町四丁目","lat":"35.001014","lng":"136.995419"},{"town":"高倉町五丁目","lat":"35.001496","lng":"136.992935"},{"town":"高倉町六丁目","lat":"35.003078","lng":"136.993236"},{"town":"高須町","lat":"34.971633","lng":"137.019413"},{"town":"高須町一丁目","lat":"34.975038","lng":"137.014626"},{"town":"高須町二丁目","lat":"34.974100","lng":"137.012261"},{"town":"高津波町一丁目","lat":"34.998753","lng":"136.990170"},{"town":"高津波町二丁目","lat":"34.999822","lng":"136.988363"},{"town":"高津波町三丁目","lat":"35.000308","lng":"136.990578"},{"town":"高津波町四丁目","lat":"35.002115","lng":"136.990634"},{"town":"高津波町五丁目","lat":"35.001841","lng":"136.987851"},{"town":"高津波町六丁目","lat":"35.003739","lng":"136.987873"},{"town":"高津波町七丁目","lat":"35.003472","lng":"136.990753"},{"town":"高松町一丁目","lat":"34.984585","lng":"137.003613"},{"town":"高松町二丁目","lat":"34.984781","lng":"137.002157"},{"town":"高松町三丁目","lat":"34.983075","lng":"137.001380"},{"town":"高松町四丁目","lat":"34.982602","lng":"137.003961"},{"town":"高松町五丁目","lat":"34.981726","lng":"137.002006"},{"town":"宝町一丁目","lat":"34.997059","lng":"136.992630"},{"town":"宝町二丁目","lat":"34.996148","lng":"136.994524"},{"town":"宝町三丁目","lat":"34.995551","lng":"136.992461"},{"town":"宝町四丁目","lat":"34.993927","lng":"136.992244"},{"town":"宝町五丁目","lat":"34.994746","lng":"136.993975"},{"town":"宝町六丁目","lat":"34.993608","lng":"136.994312"},{"town":"宝町七丁目","lat":"34.993042","lng":"136.992302"},{"town":"宝町八丁目","lat":"34.991615","lng":"136.992821"},{"town":"田町一丁目","lat":"34.984180","lng":"137.016045"},{"town":"田町二丁目","lat":"34.983386","lng":"137.011998"},{"town":"田町三丁目","lat":"34.982752","lng":"137.009814"},{"town":"田町四丁目","lat":"34.982184","lng":"137.008461"},{"town":"田町五丁目","lat":"34.981362","lng":"137.006883"},{"town":"田町六丁目","lat":"34.980244","lng":"137.004803"},{"town":"築地町","lat":"35.018895","lng":"137.009580"},{"town":"築地町一丁目","lat":"35.011356","lng":"137.014761"},{"town":"築地町二丁目","lat":"35.014427","lng":"137.017932"},{"town":"築地町三丁目","lat":"35.016590","lng":"137.012470"},{"town":"築地町四丁目","lat":"35.015052","lng":"137.007231"},{"town":"築地町五丁目","lat":"35.013238","lng":"137.010439"},{"town":"司町一丁目","lat":"34.985335","lng":"136.988048"},{"town":"司町二丁目","lat":"34.986452","lng":"136.987184"},{"town":"司町三丁目","lat":"34.987195","lng":"136.986309"},{"town":"司町四丁目","lat":"34.986020","lng":"136.985149"},{"town":"司町五丁目","lat":"34.985036","lng":"136.986319"},{"town":"司町六丁目","lat":"34.984909","lng":"136.984046"},{"town":"司町七丁目","lat":"34.984307","lng":"136.982144"},{"town":"司町八丁目","lat":"34.986322","lng":"136.983041"},{"town":"司町九丁目","lat":"34.985757","lng":"136.980414"},{"town":"寺横町一丁目","lat":"34.990415","lng":"136.994049"},{"town":"寺横町二丁目","lat":"34.989421","lng":"136.992468"},{"town":"寺横町三丁目","lat":"34.990742","lng":"136.992239"},{"town":"寺横町四丁目","lat":"34.989572","lng":"136.989645"},{"town":"寺横町五丁目","lat":"34.988851","lng":"136.990897"},{"town":"天王町一丁目","lat":"34.979817","lng":"136.989979"},{"town":"天王町二丁目","lat":"34.979011","lng":"136.988034"},{"town":"天王町三丁目","lat":"34.977968","lng":"136.988867"},{"town":"天王町四丁目","lat":"34.978339","lng":"136.990371"},{"town":"天王町五丁目","lat":"34.976361","lng":"136.992528"},{"town":"天王町六丁目","lat":"34.976502","lng":"136.990175"},{"town":"天王町七丁目","lat":"34.975215","lng":"136.990986"},{"town":"東新町一丁目","lat":"35.004062","lng":"137.011335"},{"town":"東新町二丁目","lat":"35.005494","lng":"137.011321"},{"town":"東新町三丁目","lat":"35.006865","lng":"137.011838"},{"town":"東新町四丁目","lat":"35.005977","lng":"137.013435"},{"town":"東新町五丁目","lat":"35.004150","lng":"137.013703"},{"town":"東新町六丁目","lat":"35.004443","lng":"137.016280"},{"town":"東陽町一丁目","lat":"34.989027","lng":"137.002572"},{"town":"東陽町二丁目","lat":"34.990436","lng":"137.002447"},{"town":"東陽町三丁目","lat":"34.989587","lng":"137.000298"},{"town":"東陽町四丁目","lat":"34.988198","lng":"137.000842"},{"town":"豊田町一丁目","lat":"34.992399","lng":"137.001393"},{"town":"豊田町二丁目","lat":"34.994237","lng":"136.997237"},{"town":"豊田町三丁目","lat":"34.990961","lng":"136.997211"},{"town":"中川町一丁目","lat":"34.975951","lng":"136.995557"},{"town":"中川町二丁目","lat":"34.974203","lng":"136.992801"},{"town":"中川町三丁目","lat":"34.971284","lng":"136.990050"},{"town":"中川町四丁目","lat":"34.969942","lng":"136.991307"},{"town":"中川町五丁目","lat":"34.972373","lng":"136.994491"},{"town":"中川町六丁目","lat":"34.973701","lng":"136.996669"},{"town":"中島町一丁目","lat":"34.979065","lng":"137.003851"},{"town":"中島町二丁目","lat":"34.978472","lng":"137.001641"},{"town":"中島町三丁目","lat":"34.977888","lng":"137.000117"},{"town":"中島町四丁目","lat":"34.976956","lng":"136.998977"},{"town":"中島町五丁目","lat":"34.975783","lng":"136.998083"},{"town":"中島町六丁目","lat":"34.976487","lng":"137.001604"},{"town":"中島町七丁目","lat":"34.978416","lng":"137.006394"},{"town":"中手町一丁目","lat":"35.004938","lng":"136.991416"},{"town":"中手町二丁目","lat":"35.005000","lng":"136.993285"},{"town":"中手町三丁目","lat":"35.006622","lng":"136.990481"},{"town":"中手町四丁目","lat":"35.005768","lng":"136.989773"},{"town":"中手町五丁目","lat":"35.006001","lng":"136.987917"},{"town":"中手町六丁目","lat":"35.007395","lng":"136.991349"},{"town":"中手町七丁目","lat":"35.008540","lng":"136.988719"},{"town":"中山町一丁目","lat":"34.990311","lng":"137.013054"},{"town":"中山町二丁目","lat":"34.992063","lng":"137.013471"},{"town":"中山町三丁目","lat":"34.993039","lng":"137.012903"},{"town":"中山町四丁目","lat":"34.994018","lng":"137.012754"},{"town":"中山町五丁目","lat":"34.994598","lng":"137.011909"},{"town":"西境町","lat":"35.043707","lng":"137.024532"},{"town":"野田新町一丁目","lat":"34.985231","lng":"137.027343"},{"town":"野田新町二丁目","lat":"34.984379","lng":"137.028777"},{"town":"野田町","lat":"34.972026","lng":"137.030359"},{"town":"半城土北町一丁目","lat":"34.985656","lng":"137.025655"},{"town":"半城土北町二丁目","lat":"34.984401","lng":"137.024621"},{"town":"半城土北町三丁目","lat":"34.983924","lng":"137.024074"},{"town":"半城土町","lat":"34.967283","lng":"137.024728"},{"town":"半城土中町一丁目","lat":"34.980658","lng":"137.020202"},{"town":"半城土中町二丁目","lat":"34.977507","lng":"137.019320"},{"town":"半城土中町三丁目","lat":"34.975629","lng":"137.019167"},{"town":"半城土西町一丁目","lat":"34.979335","lng":"137.015450"},{"town":"半城土西町二丁目","lat":"34.979335","lng":"137.013064"},{"town":"半城土西町三丁目","lat":"34.976934","lng":"137.014604"},{"town":"八軒町一丁目","lat":"34.998453","lng":"137.017215"},{"town":"八軒町二丁目","lat":"35.000404","lng":"137.016800"},{"town":"八軒町三丁目","lat":"35.001342","lng":"137.018222"},{"town":"八軒町四丁目","lat":"35.003373","lng":"137.018090"},{"town":"八軒町五丁目","lat":"35.002554","lng":"137.016419"},{"town":"八幡町一丁目","lat":"34.992839","lng":"136.987996"},{"town":"八幡町二丁目","lat":"34.992707","lng":"136.990056"},{"town":"八幡町三丁目","lat":"34.991576","lng":"136.988361"},{"town":"八幡町四丁目","lat":"34.992077","lng":"136.986874"},{"town":"八幡町五丁目","lat":"34.989951","lng":"136.986937"},{"town":"八幡町六丁目","lat":"34.989763","lng":"136.988391"},{"town":"八幡町七丁目","lat":"34.991022","lng":"136.989667"},{"town":"浜町一丁目","lat":"34.976587","lng":"136.987418"},{"town":"浜町二丁目","lat":"34.976414","lng":"136.984806"},{"town":"浜町三丁目","lat":"34.974162","lng":"136.982264"},{"town":"浜町四丁目","lat":"34.973969","lng":"136.984974"},{"town":"浜町五丁目","lat":"34.974394","lng":"136.988320"},{"town":"浜町六丁目","lat":"34.972113","lng":"136.987972"},{"town":"浜町七丁目","lat":"34.971929","lng":"136.985227"},{"town":"原崎町一丁目","lat":"35.000110","lng":"137.003458"},{"town":"原崎町二丁目","lat":"35.000279","lng":"137.000426"},{"town":"原崎町三丁目","lat":"35.001129","lng":"137.002246"},{"town":"原崎町四丁目","lat":"35.001728","lng":"137.003896"},{"town":"原崎町五丁目","lat":"35.002645","lng":"137.003363"},{"town":"原崎町六丁目","lat":"35.002369","lng":"137.001836"},{"town":"原崎町七丁目","lat":"35.001958","lng":"137.000294"},{"town":"場割町一丁目","lat":"34.967567","lng":"137.035419"},{"town":"場割町二丁目","lat":"34.967814","lng":"137.036455"},{"town":"東刈谷町一丁目","lat":"34.977372","lng":"137.040544"},{"town":"東刈谷町二丁目","lat":"34.975587","lng":"137.039308"},{"town":"東刈谷町三丁目","lat":"34.973750","lng":"137.037734"},{"town":"東境町","lat":"35.039359","lng":"137.038009"},{"town":"日高町一丁目","lat":"35.004049","lng":"136.995814"},{"town":"日高町二丁目","lat":"35.005439","lng":"136.995862"},{"town":"日高町三丁目","lat":"35.007216","lng":"136.996445"},{"town":"日高町四丁目","lat":"35.006524","lng":"136.994335"},{"town":"日高町五丁目","lat":"35.008248","lng":"136.993432"},{"town":"一ツ木町","lat":"35.016664","lng":"137.029172"},{"town":"一ツ木町一丁目","lat":"35.012260","lng":"137.021562"},{"town":"一ツ木町二丁目","lat":"35.008544","lng":"137.024029"},{"town":"一ツ木町三丁目","lat":"35.008268","lng":"137.028689"},{"town":"一ツ木町四丁目","lat":"35.012071","lng":"137.026095"},{"town":"一ツ木町五丁目","lat":"35.013665","lng":"137.027218"},{"town":"一ツ木町六丁目","lat":"35.017773","lng":"137.023898"},{"town":"一ツ木町七丁目","lat":"35.019188","lng":"137.018173"},{"town":"一ツ木町八丁目","lat":"35.016476","lng":"137.020801"},{"town":"広小路一丁目","lat":"34.986811","lng":"136.995180"},{"town":"広小路二丁目","lat":"34.986865","lng":"136.993169"},{"town":"広小路三丁目","lat":"34.985495","lng":"136.993857"},{"town":"広小路四丁目","lat":"34.985094","lng":"136.991697"},{"town":"広小路五丁目","lat":"34.986176","lng":"136.991532"},{"town":"広小路六丁目","lat":"34.985833","lng":"136.989348"},{"town":"広小路七丁目","lat":"34.984714","lng":"136.989536"},{"town":"広見町一丁目","lat":"35.012485","lng":"136.997480"},{"town":"広見町二丁目","lat":"35.014033","lng":"136.999111"},{"town":"広見町三丁目","lat":"35.015883","lng":"137.000894"},{"town":"広見町四丁目","lat":"35.017399","lng":"137.001608"},{"town":"富士見町一丁目","lat":"34.981300","lng":"136.999500"},{"town":"富士見町二丁目","lat":"34.980553","lng":"137.000930"},{"town":"富士見町三丁目","lat":"34.979591","lng":"136.997987"},{"town":"富士見町四丁目","lat":"34.980871","lng":"136.997143"},{"town":"富士見町五丁目","lat":"34.980186","lng":"136.996177"},{"town":"富士見町六丁目","lat":"34.978926","lng":"136.996654"},{"town":"松坂町一丁目","lat":"34.979609","lng":"136.994441"},{"town":"松坂町二丁目","lat":"34.979177","lng":"136.992276"},{"town":"松坂町三丁目","lat":"34.978363","lng":"136.992947"},{"town":"松坂町四丁目","lat":"34.978254","lng":"136.995059"},{"town":"松坂町五丁目","lat":"34.976722","lng":"136.994113"},{"town":"丸田町一丁目","lat":"35.000130","lng":"137.005170"},{"town":"丸田町二丁目","lat":"35.000242","lng":"137.007373"},{"town":"丸田町三丁目","lat":"35.001691","lng":"137.007898"},{"town":"丸田町四丁目","lat":"35.001559","lng":"137.005719"},{"town":"丸田町五丁目","lat":"35.002630","lng":"137.005261"},{"town":"丸田町六丁目","lat":"35.002459","lng":"137.007424"},{"town":"三田町一丁目","lat":"34.999834","lng":"136.985077"},{"town":"三田町二丁目","lat":"35.001606","lng":"136.984872"},{"town":"三田町三丁目","lat":"35.003981","lng":"136.985165"},{"town":"三田町四丁目","lat":"35.002578","lng":"136.982076"},{"town":"港町一丁目","lat":"34.982490","lng":"136.983933"},{"town":"港町二丁目","lat":"34.982083","lng":"136.982009"},{"town":"港町三丁目","lat":"34.982077","lng":"136.979928"},{"town":"港町四丁目","lat":"34.978739","lng":"136.980617"},{"town":"港町五丁目","lat":"34.979724","lng":"136.982961"},{"town":"港町六丁目","lat":"34.980435","lng":"136.985297"},{"town":"港町七丁目","lat":"34.978725","lng":"136.986220"},{"town":"港町八丁目","lat":"34.977887","lng":"136.984287"},{"town":"南沖野町一丁目","lat":"34.970640","lng":"137.037298"},{"town":"南沖野町二丁目","lat":"34.969954","lng":"137.041023"},{"town":"南桜町一丁目","lat":"34.990328","lng":"137.005905"},{"town":"南桜町二丁目","lat":"34.991481","lng":"137.005583"},{"town":"御幸町一丁目","lat":"34.984292","lng":"136.992403"},{"town":"御幸町二丁目","lat":"34.983696","lng":"136.990077"},{"town":"御幸町三丁目","lat":"34.982443","lng":"136.991189"},{"town":"御幸町四丁目","lat":"34.983319","lng":"136.992760"},{"town":"御幸町五丁目","lat":"34.981867","lng":"136.993116"},{"town":"御幸町六丁目","lat":"34.980987","lng":"136.991518"},{"town":"御幸町七丁目","lat":"34.980802","lng":"136.993555"},{"town":"元町一丁目","lat":"34.983316","lng":"136.987822"},{"town":"元町二丁目","lat":"34.983085","lng":"136.985651"},{"town":"元町三丁目","lat":"34.981935","lng":"136.986846"},{"town":"元町四丁目","lat":"34.982348","lng":"136.988925"},{"town":"元町五丁目","lat":"34.981027","lng":"136.989636"},{"town":"元町六丁目","lat":"34.980782","lng":"136.987520"},{"town":"矢場町一丁目","lat":"34.995488","lng":"136.999379"},{"town":"矢場町二丁目","lat":"34.997474","lng":"136.999114"},{"town":"矢場町三丁目","lat":"34.996066","lng":"136.997496"},{"town":"矢場町四丁目","lat":"34.997681","lng":"136.997224"},{"town":"矢場町五丁目","lat":"34.999183","lng":"136.999127"},{"town":"山池町一丁目","lat":"34.997867","lng":"136.995391"},{"town":"山池町二丁目","lat":"34.999721","lng":"136.996901"},{"town":"山池町三丁目","lat":"34.999937","lng":"136.994794"},{"town":"山池町四丁目","lat":"34.998257","lng":"136.993053"},{"town":"山池町五丁目","lat":"35.000136","lng":"136.993032"},{"town":"若松町一丁目","lat":"34.989576","lng":"137.009611"},{"town":"若松町二丁目","lat":"34.989307","lng":"137.007160"},{"town":"若松町三丁目","lat":"34.987646","lng":"137.007716"},{"town":"若松町四丁目","lat":"34.988321","lng":"137.009832"},{"town":"若松町五丁目","lat":"34.987072","lng":"137.009887"},{"town":"若松町六丁目","lat":"34.986673","lng":"137.007615"},{"town":"一色町四丁目","lat":"34.993143","lng":"137.022125"},{"town":"重原本町五丁目","lat":"34.992216","lng":"137.022928"}]