[{"town":"上り戸一丁目","lat":"34.955687","lng":"136.875098"},{"town":"上り戸二丁目","lat":"34.955948","lng":"136.878483"},{"town":"上り戸三丁目","lat":"34.955303","lng":"136.882471"},{"town":"上り戸四丁目","lat":"34.953120","lng":"136.878108"},{"town":"朝倉町","lat":"34.991440","lng":"136.867752"},{"town":"旭一丁目","lat":"34.955721","lng":"136.841700"},{"town":"旭二丁目","lat":"34.955170","lng":"136.846354"},{"town":"旭三丁目","lat":"34.953928","lng":"136.844210"},{"town":"旭四丁目","lat":"34.953866","lng":"136.839666"},{"town":"旭五丁目","lat":"34.952203","lng":"136.838568"},{"town":"旭六丁目","lat":"34.951375","lng":"136.844180"},{"town":"阿原一丁目","lat":"34.984106","lng":"136.880184"},{"town":"阿原二丁目","lat":"34.982424","lng":"136.880553"},{"town":"伊賀坂一丁目","lat":"34.985386","lng":"136.886633"},{"town":"伊賀坂二丁目","lat":"34.987848","lng":"136.889350"},{"town":"伊賀坂三丁目","lat":"34.984343","lng":"136.889938"},{"town":"梅が丘一丁目","lat":"34.972690","lng":"136.875515"},{"town":"梅が丘二丁目","lat":"34.971315","lng":"136.879663"},{"town":"大草","lat":"34.944028","lng":"136.829465"},{"town":"大僧一丁目","lat":"34.944701","lng":"136.864440"},{"town":"大僧二丁目","lat":"34.944504","lng":"136.869992"},{"town":"大僧三丁目","lat":"34.942323","lng":"136.870263"},{"town":"大僧四丁目","lat":"34.942576","lng":"136.865231"},{"town":"岡田","lat":"34.965909","lng":"136.871035"},{"town":"岡田美里町","lat":"34.967803","lng":"136.854063"},{"town":"岡田緑が丘","lat":"34.970896","lng":"136.865642"},{"town":"笠松一丁目","lat":"34.986656","lng":"136.892621"},{"town":"笠松二丁目","lat":"34.986059","lng":"136.895238"},{"town":"笠松三丁目","lat":"34.982451","lng":"136.894035"},{"town":"金沢","lat":"34.948206","lng":"136.843074"},{"town":"鎌が谷一丁目","lat":"34.981169","lng":"136.896182"},{"town":"鎌が谷二丁目","lat":"34.979799","lng":"136.901188"},{"town":"神田一丁目","lat":"34.946117","lng":"136.841909"},{"town":"神田二丁目","lat":"34.943102","lng":"136.846123"},{"town":"神田三丁目","lat":"34.941634","lng":"136.847959"},{"town":"神田四丁目","lat":"34.939909","lng":"136.848128"},{"town":"北浜町","lat":"34.996736","lng":"136.853962"},{"town":"旭桃台","lat":"34.952968","lng":"136.856532"},{"town":"旭南一丁目","lat":"34.948757","lng":"136.835966"},{"town":"旭南二丁目","lat":"34.947509","lng":"136.833870"},{"town":"旭南三丁目","lat":"34.945360","lng":"136.836906"},{"town":"旭南四丁目","lat":"34.942347","lng":"136.836413"},{"town":"旭南五丁目","lat":"34.942413","lng":"136.833477"},{"town":"旭南六丁目","lat":"34.938870","lng":"136.831401"},{"town":"こうの巣一丁目","lat":"34.976964","lng":"136.892064"},{"town":"こうの巣二丁目","lat":"34.973100","lng":"136.895372"},{"town":"三反田一丁目","lat":"34.978689","lng":"136.893157"},{"town":"三反田二丁目","lat":"34.980380","lng":"136.893080"},{"town":"三反田三丁目","lat":"34.976186","lng":"136.897473"},{"town":"清水が丘二丁目","lat":"34.988961","lng":"136.874831"},{"town":"新刀池一丁目","lat":"34.948686","lng":"136.868319"},{"town":"新刀池二丁目","lat":"34.948332","lng":"136.871172"},{"town":"新知","lat":"34.979242","lng":"136.858701"},{"town":"新知台一丁目","lat":"34.986108","lng":"136.863284"},{"town":"新知台二丁目","lat":"34.983039","lng":"136.867198"},{"town":"新知西町","lat":"34.985388","lng":"136.862337"},{"town":"新知東町一丁目","lat":"34.982055","lng":"136.864996"},{"town":"新知東町二丁目","lat":"34.978980","lng":"136.866681"},{"town":"新知東町三丁目","lat":"34.976271","lng":"136.869695"},{"town":"新長根一丁目","lat":"34.955590","lng":"136.864670"},{"town":"新長根二丁目","lat":"34.953714","lng":"136.866906"},{"town":"新長根三丁目","lat":"34.953110","lng":"136.864099"},{"town":"新広見","lat":"34.949891","lng":"136.856354"},{"town":"新舞子","lat":"34.954501","lng":"136.830812"},{"town":"新舞子東町一丁目","lat":"34.954265","lng":"136.835882"},{"town":"新舞子東町二丁目","lat":"34.952110","lng":"136.834212"},{"town":"佐布里","lat":"34.967539","lng":"136.884138"},{"town":"佐布里台一丁目","lat":"34.970098","lng":"136.886737"},{"town":"佐布里台二丁目","lat":"34.969807","lng":"136.890265"},{"town":"佐布里台三丁目","lat":"34.966353","lng":"136.887322"},{"town":"大興寺","lat":"34.944396","lng":"136.857771"},{"town":"巽が丘一丁目","lat":"34.963361","lng":"136.911041"},{"town":"巽が丘二丁目","lat":"34.963713","lng":"136.913739"},{"town":"巽が丘三丁目","lat":"34.963973","lng":"136.916291"},{"town":"巽が丘四丁目","lat":"34.961547","lng":"136.913110"},{"town":"つつじが丘一丁目","lat":"34.987333","lng":"136.870591"},{"town":"つつじが丘二丁目","lat":"34.985722","lng":"136.874422"},{"town":"つつじが丘三丁目","lat":"34.982889","lng":"136.872894"},{"town":"つつじが丘四丁目","lat":"34.985524","lng":"136.867737"},{"town":"寺本新町一丁目","lat":"34.996034","lng":"136.877097"},{"town":"寺本新町二丁目","lat":"35.000586","lng":"136.880794"},{"town":"寺本台一丁目","lat":"34.995542","lng":"136.883704"},{"town":"寺本台二丁目","lat":"34.991970","lng":"136.883512"},{"town":"寺本台三丁目","lat":"34.989297","lng":"136.883637"},{"town":"寺本台四丁目","lat":"34.988174","lng":"136.884987"},{"town":"長浦一丁目","lat":"34.979510","lng":"136.849139"},{"town":"長浦二丁目","lat":"34.975803","lng":"136.850536"},{"town":"長浦三丁目","lat":"34.975978","lng":"136.846662"},{"town":"中原一丁目","lat":"34.949629","lng":"136.860994"},{"town":"中原二丁目","lat":"34.950392","lng":"136.865116"},{"town":"中原三丁目","lat":"34.947238","lng":"136.865057"},{"town":"中原四丁目","lat":"34.947372","lng":"136.859796"},{"town":"西巽が丘一丁目","lat":"34.964019","lng":"136.907180"},{"town":"西巽が丘二丁目","lat":"34.961131","lng":"136.906261"},{"town":"西巽が丘三丁目","lat":"34.959199","lng":"136.906282"},{"town":"にしの台一丁目","lat":"34.981809","lng":"136.877512"},{"town":"にしの台二丁目","lat":"34.976580","lng":"136.875273"},{"town":"にしの台三丁目","lat":"34.974458","lng":"136.872688"},{"town":"にしの台四丁目","lat":"34.979738","lng":"136.871962"},{"town":"原一丁目","lat":"34.976199","lng":"136.908146"},{"town":"原二丁目","lat":"34.973383","lng":"136.909859"},{"town":"東大僧一丁目","lat":"34.950374","lng":"136.876675"},{"town":"東大僧二丁目","lat":"34.947444","lng":"136.878157"},{"town":"東大僧三丁目","lat":"34.943379","lng":"136.875427"},{"town":"日長","lat":"34.964663","lng":"136.842811"},{"town":"日長台","lat":"34.955198","lng":"136.852439"},{"town":"日長東田一丁目","lat":"34.965990","lng":"136.850135"},{"town":"日長東田二丁目","lat":"34.967232","lng":"136.848744"},{"town":"日長東田三丁目","lat":"34.966805","lng":"136.845190"},{"town":"平野一丁目","lat":"34.999078","lng":"136.881214"},{"town":"平野二丁目","lat":"34.998365","lng":"136.882949"},{"town":"平野三丁目","lat":"34.997187","lng":"136.885158"},{"town":"吹込一丁目","lat":"34.959284","lng":"136.867196"},{"town":"吹込二丁目","lat":"34.958564","lng":"136.870208"},{"town":"吹込三丁目","lat":"34.959083","lng":"136.873060"},{"town":"吹込四丁目","lat":"34.956422","lng":"136.871280"},{"town":"吹込五丁目","lat":"34.956637","lng":"136.866606"},{"town":"馬背口一丁目","lat":"34.982567","lng":"136.884995"},{"town":"馬背口二丁目","lat":"34.979834","lng":"136.888563"},{"town":"馬背口三丁目","lat":"34.977758","lng":"136.887623"},{"town":"緑浜町","lat":"34.957678","lng":"136.819000"},{"town":"緑町","lat":"34.997415","lng":"136.865442"},{"town":"南粕谷一丁目","lat":"34.935399","lng":"136.850313"},{"town":"南粕谷二丁目","lat":"34.934233","lng":"136.852526"},{"town":"南粕谷三丁目","lat":"34.939185","lng":"136.851864"},{"town":"南粕谷四丁目","lat":"34.937941","lng":"136.854441"},{"town":"南粕谷新海一丁目","lat":"34.939877","lng":"136.838157"},{"town":"南粕谷新海二丁目","lat":"34.936635","lng":"136.842398"},{"town":"南粕谷新海三丁目","lat":"34.937382","lng":"136.838641"},{"town":"南粕谷新海四丁目","lat":"34.938108","lng":"136.834954"},{"town":"南粕谷東坂一丁目","lat":"34.935848","lng":"136.856538"},{"town":"南粕谷東坂二丁目","lat":"34.938291","lng":"136.859333"},{"town":"南粕谷本町一丁目","lat":"34.940072","lng":"136.842134"},{"town":"南粕谷本町二丁目","lat":"34.939846","lng":"136.845069"},{"town":"南粕谷本町三丁目","lat":"34.937063","lng":"136.848886"},{"town":"南粕谷本町四丁目","lat":"34.936372","lng":"136.846106"},{"town":"南粕谷本町五丁目","lat":"34.933764","lng":"136.846459"},{"town":"南巽が丘一丁目","lat":"34.961524","lng":"136.908993"},{"town":"南巽が丘二丁目","lat":"34.960530","lng":"136.911071"},{"town":"南巽が丘三丁目","lat":"34.959862","lng":"136.908826"},{"town":"南巽が丘四丁目","lat":"34.958749","lng":"136.909472"},{"town":"南谷一丁目","lat":"34.962440","lng":"136.863121"},{"town":"南谷二丁目","lat":"34.963391","lng":"136.860414"},{"town":"南谷三丁目","lat":"34.959582","lng":"136.860903"},{"town":"南谷四丁目","lat":"34.957258","lng":"136.861237"},{"town":"南浜町","lat":"34.973987","lng":"136.835357"},{"town":"社山一丁目","lat":"34.995110","lng":"136.891608"},{"town":"社山二丁目","lat":"34.991798","lng":"136.892176"},{"town":"柳花一丁目","lat":"34.992714","lng":"136.885720"},{"town":"柳花二丁目","lat":"34.996857","lng":"136.887836"},{"town":"柳花三丁目","lat":"34.991302","lng":"136.888769"},{"town":"山屋敷一丁目","lat":"34.953532","lng":"136.868717"},{"town":"山屋敷二丁目","lat":"34.953710","lng":"136.872045"},{"town":"山屋敷三丁目","lat":"34.952724","lng":"136.875469"},{"town":"八幡新町二丁目","lat":"34.991498","lng":"136.872274"},{"town":"八幡新町三丁目","lat":"34.989545","lng":"136.871167"},{"town":"八幡新町一丁目","lat":"34.993897","lng":"136.868448"},{"town":"清水が丘一丁目","lat":"34.991559","lng":"136.876702"},{"town":"八幡","lat":"34.993423","lng":"136.872817"},{"town":"東七曲","lat":"34.971648","lng":"136.901659"}]