[{"town":"字青木ケ丘一丁目","lat":"34.855487","lng":"136.905125"},{"town":"字青木ケ丘二丁目","lat":"34.855989","lng":"136.906880"},{"town":"字上ケ","lat":"34.856451","lng":"136.919988"},{"town":"字旭","lat":"34.834217","lng":"136.926306"},{"town":"字旭ケ丘一丁目","lat":"34.843986","lng":"136.903929"},{"town":"字旭ケ丘二丁目","lat":"34.844521","lng":"136.906108"},{"town":"字旭ケ丘三丁目","lat":"34.845394","lng":"136.907381"},{"town":"字浅水","lat":"34.864402","lng":"136.919853"},{"town":"字池田一丁目","lat":"34.861728","lng":"136.914686"},{"town":"字池田二丁目","lat":"34.860223","lng":"136.915393"},{"town":"字石川","lat":"34.868037","lng":"136.920150"},{"town":"字石田","lat":"34.844048","lng":"136.913082"},{"town":"字一号地","lat":"34.844269","lng":"136.927209"},{"town":"字壱町田","lat":"34.869617","lng":"136.892843"},{"town":"字後田","lat":"34.850601","lng":"136.919240"},{"town":"字後畑","lat":"34.848427","lng":"136.923266"},{"town":"字内かんな","lat":"34.862073","lng":"136.919052"},{"town":"字会下","lat":"34.842187","lng":"136.888943"},{"town":"字ヱケ屋敷","lat":"34.859642","lng":"136.917960"},{"town":"字ヲヲガケ","lat":"34.842827","lng":"136.900847"},{"town":"字大屋敷","lat":"34.845817","lng":"136.919120"},{"town":"字金下","lat":"34.853420","lng":"136.921591"},{"town":"字鹿ノ子田一丁目","lat":"34.870646","lng":"136.902000"},{"town":"字鹿ノ子田二丁目","lat":"34.869249","lng":"136.906766"},{"town":"字上起","lat":"34.842839","lng":"136.905092"},{"town":"字上原","lat":"34.838119","lng":"136.886838"},{"town":"字上山一丁目","lat":"34.855438","lng":"136.892922"},{"town":"字上山二丁目","lat":"34.856382","lng":"136.895795"},{"town":"字上山三丁目","lat":"34.854932","lng":"136.896419"},{"town":"字上山ノ田","lat":"34.860494","lng":"136.891885"},{"town":"字川尻","lat":"34.845848","lng":"136.913108"},{"town":"字川脇","lat":"34.850594","lng":"136.921830"},{"town":"字北曲輪","lat":"34.867930","lng":"136.923935"},{"town":"字北小松谷","lat":"34.847751","lng":"136.893392"},{"town":"字北新田","lat":"34.845158","lng":"136.917548"},{"town":"字北中根一丁目","lat":"34.852741","lng":"136.897889"},{"town":"字北中根二丁目","lat":"34.853002","lng":"136.899378"},{"town":"字北中根三丁目","lat":"34.853331","lng":"136.900637"},{"town":"字北中根四丁目","lat":"34.854285","lng":"136.903629"},{"town":"字北中根五丁目","lat":"34.852521","lng":"136.902228"},{"town":"字北中根六丁目","lat":"34.852273","lng":"136.904349"},{"town":"字北長宗","lat":"34.858523","lng":"136.907679"},{"town":"字九号地","lat":"34.864553","lng":"136.933201"},{"town":"字草口","lat":"34.844638","lng":"136.914949"},{"town":"字楠一丁目","lat":"34.850090","lng":"136.907112"},{"town":"字楠二丁目","lat":"34.848173","lng":"136.908176"},{"town":"字楠三丁目","lat":"34.849417","lng":"136.906107"},{"town":"字楠四丁目","lat":"34.847998","lng":"136.904835"},{"town":"字楠五丁目","lat":"34.847259","lng":"136.907289"},{"town":"字口田","lat":"34.861423","lng":"136.920615"},{"town":"字熊野","lat":"34.847875","lng":"136.919414"},{"town":"字向陽一丁目","lat":"34.848853","lng":"136.910598"},{"town":"字向陽二丁目","lat":"34.848561","lng":"136.912573"},{"town":"字向陽三丁目","lat":"34.847730","lng":"136.912597"},{"town":"字向陽四丁目","lat":"34.847446","lng":"136.909724"},{"town":"字向陽五丁目","lat":"34.846145","lng":"136.908963"},{"town":"字五号地","lat":"34.853656","lng":"136.931554"},{"town":"字小迎","lat":"34.854385","lng":"136.923427"},{"town":"字桜ケ丘一丁目","lat":"34.851155","lng":"136.902761"},{"town":"字桜ケ丘二丁目","lat":"34.850531","lng":"136.905030"},{"town":"字桜ケ丘三丁目","lat":"34.849698","lng":"136.903059"},{"town":"字桜ケ丘四丁目","lat":"34.848977","lng":"136.902161"},{"town":"字里中","lat":"34.845503","lng":"136.922102"},{"town":"字沢田新田","lat":"34.855621","lng":"136.926376"},{"town":"字三号地","lat":"34.838245","lng":"136.930245"},{"town":"字塩田","lat":"34.862840","lng":"136.922465"},{"town":"字下門","lat":"34.858325","lng":"136.918021"},{"town":"字嶋田","lat":"34.839356","lng":"136.897455"},{"town":"字下起","lat":"34.843829","lng":"136.909335"},{"town":"字下田","lat":"34.840297","lng":"136.921928"},{"town":"字下原","lat":"34.842142","lng":"136.892254"},{"town":"字下山ノ田","lat":"34.860837","lng":"136.897543"},{"town":"字砂川一丁目","lat":"34.868173","lng":"136.912378"},{"town":"字砂川二丁目","lat":"34.865408","lng":"136.912500"},{"town":"字砂川三丁目","lat":"34.866022","lng":"136.914797"},{"town":"字瀬木","lat":"34.849344","lng":"136.915480"},{"town":"字大門田","lat":"34.840793","lng":"136.906219"},{"town":"字多賀一丁目","lat":"34.849248","lng":"136.896584"},{"town":"字多賀二丁目","lat":"34.848104","lng":"136.899776"},{"town":"字多賀三丁目","lat":"34.846548","lng":"136.899547"},{"town":"字多賀四丁目","lat":"34.847490","lng":"136.897179"},{"town":"字多賀五丁目","lat":"34.844641","lng":"136.897754"},{"town":"字多賀六丁目","lat":"34.845527","lng":"136.899135"},{"town":"字多賀七丁目","lat":"34.843903","lng":"136.899691"},{"town":"字多賀八丁目","lat":"34.846428","lng":"136.896031"},{"town":"字高野前","lat":"34.855379","lng":"136.918958"},{"town":"字田崎","lat":"34.848824","lng":"136.918133"},{"town":"字谷口","lat":"34.856366","lng":"136.909486"},{"town":"字蛇ケ谷","lat":"34.864976","lng":"136.893281"},{"town":"字忠白田","lat":"34.842792","lng":"136.923040"},{"town":"字中蓮","lat":"34.867268","lng":"136.916907"},{"town":"字甚田","lat":"34.841864","lng":"136.896121"},{"town":"字土穴","lat":"34.847117","lng":"136.917219"},{"town":"字天神前一丁目","lat":"34.862004","lng":"136.912230"},{"town":"字天神前二丁目","lat":"34.860334","lng":"136.912990"},{"town":"字道崎","lat":"34.849914","lng":"136.914766"},{"town":"字道崎田","lat":"34.848228","lng":"136.915213"},{"town":"字道仙田","lat":"34.846976","lng":"136.924785"},{"town":"字長尾山","lat":"34.852687","lng":"136.915143"},{"town":"字中根一丁目","lat":"34.854049","lng":"136.907798"},{"town":"字中根二丁目","lat":"34.852522","lng":"136.908674"},{"town":"字中根三丁目","lat":"34.854675","lng":"136.910433"},{"town":"字中根四丁目","lat":"34.854515","lng":"136.913244"},{"town":"字中根五丁目","lat":"34.852939","lng":"136.912339"},{"town":"字中狭","lat":"34.864808","lng":"136.917528"},{"town":"字長峰","lat":"34.841264","lng":"136.918734"},{"town":"字長宗一丁目","lat":"34.856577","lng":"136.903466"},{"town":"字長宗二丁目","lat":"34.858514","lng":"136.905175"},{"town":"字中山一丁目","lat":"34.856202","lng":"136.898445"},{"town":"字中山二丁目","lat":"34.857881","lng":"136.900977"},{"town":"字中山三丁目","lat":"34.855011","lng":"136.900204"},{"town":"字梨子ノ木","lat":"34.866934","lng":"136.899387"},{"town":"字梨子ノ木一丁目","lat":"34.868707","lng":"136.903773"},{"town":"字梨子ノ木二丁目","lat":"34.866847","lng":"136.904615"},{"town":"字梨子ノ木三丁目","lat":"34.866713","lng":"136.906293"},{"town":"字七号地","lat":"34.862097","lng":"136.926045"},{"town":"字二ケ崎一丁目","lat":"34.864591","lng":"136.914681"},{"town":"字二ケ崎二丁目","lat":"34.863083","lng":"136.913899"},{"town":"字西田崎","lat":"34.848644","lng":"136.916335"},{"town":"字西門","lat":"34.853830","lng":"136.919190"},{"town":"字白山","lat":"34.842683","lng":"136.913154"},{"town":"字廻間","lat":"34.840597","lng":"136.920470"},{"town":"字原田","lat":"34.840365","lng":"136.891328"},{"town":"字原屋敷","lat":"34.838461","lng":"136.889728"},{"town":"字東長宗","lat":"34.858592","lng":"136.910445"},{"town":"字ヒジリ田","lat":"34.857797","lng":"136.922950"},{"town":"字壱畝町","lat":"34.841302","lng":"136.900901"},{"town":"字平井一丁目","lat":"34.863892","lng":"136.909106"},{"town":"字平井二丁目","lat":"34.861894","lng":"136.908243"},{"town":"字平井三丁目","lat":"34.862219","lng":"136.906347"},{"town":"字平井四丁目","lat":"34.861330","lng":"136.904271"},{"town":"字平井五丁目","lat":"34.860515","lng":"136.906359"},{"town":"字平井六丁目","lat":"34.860408","lng":"136.910333"},{"town":"字平井七丁目","lat":"34.861733","lng":"136.910173"},{"town":"字平井田","lat":"34.861116","lng":"136.902646"},{"town":"字平井畑","lat":"34.859489","lng":"136.911874"},{"town":"字二ツ峯","lat":"34.871716","lng":"136.885062"},{"town":"字平海道","lat":"34.848732","lng":"136.921284"},{"town":"字豊成一丁目","lat":"34.868020","lng":"136.914683"},{"town":"字豊成二丁目","lat":"34.870140","lng":"136.908331"},{"town":"字豊成三丁目","lat":"34.871251","lng":"136.903213"},{"town":"字祠峯一丁目","lat":"34.868346","lng":"136.910499"},{"town":"字祠峯二丁目","lat":"34.865463","lng":"136.911034"},{"town":"字祠峯三丁目","lat":"34.866780","lng":"136.908614"},{"town":"字堀割","lat":"34.850904","lng":"136.923824"},{"town":"字前田","lat":"34.859155","lng":"136.921098"},{"town":"字前畑","lat":"34.843187","lng":"136.921452"},{"town":"字緑台一丁目","lat":"34.851330","lng":"136.897000"},{"town":"字緑台二丁目","lat":"34.850693","lng":"136.899877"},{"town":"字緑台三丁目","lat":"34.849648","lng":"136.899715"},{"town":"字緑台四丁目","lat":"34.850201","lng":"136.896804"},{"town":"字緑台五丁目","lat":"34.850847","lng":"136.894460"},{"town":"字緑台六丁目","lat":"34.852832","lng":"136.895090"},{"town":"字南起","lat":"34.842468","lng":"136.908215"},{"town":"字南小松谷","lat":"34.845454","lng":"136.887319"},{"town":"字南中根","lat":"34.850986","lng":"136.909394"},{"town":"字明神戸","lat":"34.850375","lng":"136.924961"},{"town":"字向田","lat":"34.845646","lng":"136.911003"},{"town":"字迎戸","lat":"34.852165","lng":"136.916571"},{"town":"字目堀","lat":"34.846397","lng":"136.915220"},{"town":"字山起","lat":"34.843368","lng":"136.918940"},{"town":"字山ノ神","lat":"34.857344","lng":"136.914178"},{"town":"字四畝","lat":"34.842561","lng":"136.916611"},{"town":"字竜宮","lat":"34.820740","lng":"136.923613"},{"town":"字六貫山一丁目","lat":"34.847378","lng":"136.902398"},{"town":"字六貫山二丁目","lat":"34.846422","lng":"136.905779"},{"town":"字六貫山三丁目","lat":"34.844952","lng":"136.904045"},{"town":"字六貫山四丁目","lat":"34.845803","lng":"136.902572"},{"town":"字六貫山五丁目","lat":"34.844602","lng":"136.902215"},{"town":"字若宮","lat":"34.861882","lng":"136.917403"},{"town":"大字東大高","lat":"34.836686","lng":"136.907671"},{"town":"大字冨貴","lat":"34.823662","lng":"136.901793"}]