[{"town":"足立","lat":"35.048881","lng":"133.400714"},{"town":"井倉","lat":"34.927948","lng":"133.506919"},{"town":"石蟹","lat":"34.954601","lng":"133.473724"},{"town":"大佐大井野","lat":"35.156783","lng":"133.506483"},{"town":"大佐小阪部","lat":"35.088713","lng":"133.548739"},{"town":"大佐上刑部","lat":"35.120144","lng":"133.539735"},{"town":"大佐小南","lat":"35.065332","lng":"133.571015"},{"town":"大佐田治部","lat":"35.026728","lng":"133.547462"},{"town":"大佐永富","lat":"35.081531","lng":"133.578337"},{"town":"大佐布瀬","lat":"35.034323","lng":"133.572743"},{"town":"金谷","lat":"34.969723","lng":"133.457188"},{"town":"上市","lat":"35.022600","lng":"133.414959"},{"town":"上熊谷","lat":"35.017321","lng":"133.516990"},{"town":"唐松","lat":"34.964647","lng":"133.512144"},{"town":"草間","lat":"34.918885","lng":"133.544490"},{"town":"坂本","lat":"35.049065","lng":"133.440896"},{"town":"下熊谷","lat":"35.016326","lng":"133.486555"},{"town":"正田","lat":"34.963614","lng":"133.478285"},{"town":"神郷釜村","lat":"35.084397","lng":"133.390933"},{"town":"神郷下神代","lat":"34.982079","lng":"133.381416"},{"town":"神郷高瀬","lat":"35.085231","lng":"133.325714"},{"town":"神郷油野","lat":"35.034868","lng":"133.338954"},{"town":"菅生","lat":"35.080187","lng":"133.501113"},{"town":"高尾","lat":"35.008351","lng":"133.449770"},{"town":"足見","lat":"34.946260","lng":"133.519638"},{"town":"千屋","lat":"35.085897","lng":"133.430666"},{"town":"千屋井原","lat":"35.156016","lng":"133.455943"},{"town":"千屋実","lat":"35.107975","lng":"133.454288"},{"town":"千屋花見","lat":"35.161877","lng":"133.418088"},{"town":"土橋","lat":"34.967532","lng":"133.550842"},{"town":"哲西町大竹","lat":"34.900969","lng":"133.305621"},{"town":"哲西町大野部","lat":"34.888802","lng":"133.329897"},{"town":"哲西町上神代","lat":"34.975536","lng":"133.336070"},{"town":"哲西町畑木","lat":"34.918587","lng":"133.313148"},{"town":"哲西町八鳥","lat":"34.908157","lng":"133.326942"},{"town":"哲西町矢田","lat":"34.933017","lng":"133.338156"},{"town":"哲多町老栄","lat":"34.910959","lng":"133.425570"},{"town":"哲多町大野","lat":"34.948921","lng":"133.404395"},{"town":"哲多町荻尾","lat":"34.898070","lng":"133.484251"},{"town":"哲多町蚊家","lat":"34.894539","lng":"133.386599"},{"town":"哲多町田淵","lat":"34.928274","lng":"133.382079"},{"town":"哲多町成松","lat":"34.923326","lng":"133.439984"},{"town":"哲多町花木","lat":"34.935826","lng":"133.471525"},{"town":"哲多町本郷","lat":"34.933426","lng":"133.431680"},{"town":"哲多町宮河内","lat":"34.958149","lng":"133.437791"},{"town":"哲多町矢戸","lat":"34.890310","lng":"133.446228"},{"town":"豊永赤馬","lat":"34.989286","lng":"133.578835"},{"town":"豊永宇山","lat":"34.942877","lng":"133.575401"},{"town":"豊永佐伏","lat":"34.967147","lng":"133.604769"},{"town":"長屋","lat":"34.938197","lng":"133.489218"},{"town":"新見","lat":"34.982828","lng":"133.484627"},{"town":"西方","lat":"34.987862","lng":"133.432500"},{"town":"法曽","lat":"34.894715","lng":"133.522036"},{"town":"馬塚","lat":"35.027128","lng":"133.446870"}]