[{"town":"大字筏津","lat":"35.151143","lng":"134.323650"},{"town":"大字大茅","lat":"35.223576","lng":"134.368281"},{"town":"大字影石","lat":"35.187044","lng":"134.322306"},{"town":"大字坂根","lat":"35.203929","lng":"134.331144"},{"town":"大字知社","lat":"35.164577","lng":"134.306051"},{"town":"大字長尾","lat":"35.170950","lng":"134.327257"}]