[{"town":"本宿町一丁目","lat":"35.670488","lng":"139.459220"},{"town":"西府町一丁目","lat":"35.672492","lng":"139.454828"},{"town":"西府町二丁目","lat":"35.674804","lng":"139.455484"},{"town":"本宿町二丁目","lat":"35.672654","lng":"139.460890"},{"town":"是政一丁目","lat":"35.662422","lng":"139.494529"},{"town":"八幡町三丁目","lat":"35.668203","lng":"139.491705"},{"town":"是政三丁目","lat":"35.659099","lng":"139.485528"},{"town":"矢崎町一丁目","lat":"35.662308","lng":"139.478661"},{"town":"日吉町","lat":"35.663460","lng":"139.485540"},{"town":"本町一丁目","lat":"35.666471","lng":"139.477994"},{"town":"若松町一丁目","lat":"35.668805","lng":"139.500292"},{"town":"是政二丁目","lat":"35.660061","lng":"139.494600"},{"town":"清水が丘一丁目","lat":"35.668078","lng":"139.495611"},{"town":"清水が丘二丁目","lat":"35.665408","lng":"139.495674"},{"town":"小柳町五丁目","lat":"35.655152","lng":"139.500861"},{"town":"是政四丁目","lat":"35.655592","lng":"139.493845"},{"town":"白糸台一丁目","lat":"35.668373","lng":"139.507230"},{"town":"白糸台二丁目","lat":"35.667886","lng":"139.511898"},{"town":"朝日町三丁目","lat":"35.671776","lng":"139.522403"},{"town":"朝日町一丁目","lat":"35.671318","lng":"139.516508"},{"town":"新町二丁目","lat":"35.687274","lng":"139.493285"},{"town":"宮町二丁目","lat":"35.669111","lng":"139.481569"},{"town":"宮西町五丁目","lat":"35.669066","lng":"139.475279"},{"town":"日新町三丁目","lat":"35.668984","lng":"139.449240"},{"town":"宮西町二丁目","lat":"35.669764","lng":"139.477636"},{"town":"日新町五丁目","lat":"35.669601","lng":"139.443552"},{"town":"四谷四丁目","lat":"35.667684","lng":"139.441433"},{"town":"緑町三丁目","lat":"35.671119","lng":"139.492624"},{"town":"浅間町三丁目","lat":"35.685841","lng":"139.500447"},{"town":"宮町三丁目","lat":"35.667939","lng":"139.481504"},{"town":"八幡町二丁目","lat":"35.668777","lng":"139.488131"},{"town":"八幡町一丁目","lat":"35.669193","lng":"139.484661"},{"town":"片町二丁目","lat":"35.669719","lng":"139.471235"},{"town":"美好町三丁目","lat":"35.669944","lng":"139.465231"},{"town":"日新町一丁目","lat":"35.668719","lng":"139.455018"},{"town":"日新町二丁目","lat":"35.670714","lng":"139.450155"},{"town":"四谷六丁目","lat":"35.670644","lng":"139.433815"},{"town":"浅間町一丁目","lat":"35.678101","lng":"139.493423"},{"town":"浅間町二丁目","lat":"35.683745","lng":"139.497843"},{"town":"若松町二丁目","lat":"35.671729","lng":"139.500014"},{"town":"押立町五丁目","lat":"35.653197","lng":"139.514829"},{"town":"押立町四丁目","lat":"35.655023","lng":"139.515743"},{"town":"押立町二丁目","lat":"35.658780","lng":"139.515274"},{"town":"白糸台五丁目","lat":"35.662582","lng":"139.514171"},{"town":"白糸台六丁目","lat":"35.662523","lng":"139.518559"},{"town":"押立町三丁目","lat":"35.656601","lng":"139.509852"},{"town":"小柳町六丁目","lat":"35.652061","lng":"139.502884"},{"town":"小柳町四丁目","lat":"35.658012","lng":"139.502884"},{"town":"白糸台三丁目","lat":"35.666585","lng":"139.516181"},{"town":"押立町一丁目","lat":"35.659439","lng":"139.509675"},{"town":"白糸台四丁目","lat":"35.663486","lng":"139.509259"},{"town":"小柳町三丁目","lat":"35.661123","lng":"139.505187"},{"town":"小柳町二丁目","lat":"35.661602","lng":"139.501013"},{"town":"小柳町一丁目","lat":"35.665170","lng":"139.504081"},{"town":"清水が丘三丁目","lat":"35.665762","lng":"139.500664"},{"town":"住吉町二丁目","lat":"35.656210","lng":"139.458766"},{"town":"矢崎町四丁目","lat":"35.658215","lng":"139.477652"},{"town":"矢崎町三丁目","lat":"35.660032","lng":"139.476627"},{"town":"矢崎町二丁目","lat":"35.661956","lng":"139.475154"},{"town":"矢崎町五丁目","lat":"35.656518","lng":"139.477581"},{"town":"是政六丁目","lat":"35.653995","lng":"139.478230"},{"town":"是政五丁目","lat":"35.655329","lng":"139.485397"},{"town":"本町二丁目","lat":"35.666128","lng":"139.475222"},{"town":"本町三丁目","lat":"35.664621","lng":"139.472216"},{"town":"南町一丁目","lat":"35.660003","lng":"139.471507"},{"town":"片町三丁目","lat":"35.667590","lng":"139.470921"},{"town":"本町四丁目","lat":"35.664619","lng":"139.469172"},{"town":"南町五丁目","lat":"35.654044","lng":"139.467417"},{"town":"南町二丁目","lat":"35.660386","lng":"139.468733"},{"town":"南町六丁目","lat":"35.654429","lng":"139.471498"},{"town":"南町四丁目","lat":"35.655826","lng":"139.464137"},{"town":"南町三丁目","lat":"35.660660","lng":"139.465804"},{"town":"分梅町二丁目","lat":"35.664502","lng":"139.465455"},{"town":"住吉町一丁目","lat":"35.660837","lng":"139.459724"},{"town":"分梅町五丁目","lat":"35.661901","lng":"139.463288"},{"town":"分梅町一丁目","lat":"35.667553","lng":"139.465759"},{"town":"分梅町三丁目","lat":"35.666626","lng":"139.461460"},{"town":"分梅町四丁目","lat":"35.664446","lng":"139.461177"},{"town":"住吉町五丁目","lat":"35.656894","lng":"139.453810"},{"town":"住吉町三丁目","lat":"35.663938","lng":"139.454475"},{"town":"住吉町四丁目","lat":"35.661294","lng":"139.454723"},{"town":"四谷三丁目","lat":"35.661114","lng":"139.444497"},{"town":"四谷二丁目","lat":"35.664913","lng":"139.448221"},{"town":"四谷一丁目","lat":"35.659321","lng":"139.451181"},{"town":"四谷五丁目","lat":"35.665526","lng":"139.438194"},{"town":"紅葉丘一丁目","lat":"35.674080","lng":"139.509690"},{"town":"紅葉丘三丁目","lat":"35.673960","lng":"139.514168"},{"town":"朝日町二丁目","lat":"35.675041","lng":"139.517580"},{"town":"若松町三丁目","lat":"35.673910","lng":"139.502099"},{"town":"若松町四丁目","lat":"35.676906","lng":"139.503140"},{"town":"若松町五丁目","lat":"35.679755","lng":"139.501799"},{"town":"紅葉丘二丁目","lat":"35.678865","lng":"139.516057"},{"town":"多磨町一丁目","lat":"35.679466","lng":"139.520511"},{"town":"浅間町四丁目","lat":"35.680602","lng":"139.498877"},{"town":"多磨町四丁目","lat":"35.682978","lng":"139.509510"},{"town":"多磨町三丁目","lat":"35.689375","lng":"139.517473"},{"town":"多磨町二丁目","lat":"35.684717","lng":"139.519714"},{"town":"栄町二丁目","lat":"35.688384","lng":"139.477635"},{"town":"晴見町三丁目","lat":"35.683991","lng":"139.478301"},{"town":"府中町一丁目","lat":"35.674980","lng":"139.480551"},{"town":"府中町二丁目","lat":"35.674631","lng":"139.483150"},{"town":"緑町一丁目","lat":"35.673342","lng":"139.486258"},{"town":"宮西町一丁目","lat":"35.671891","lng":"139.477574"},{"town":"宮町一丁目","lat":"35.671230","lng":"139.481455"},{"town":"宮西町三丁目","lat":"35.671936","lng":"139.474861"},{"town":"片町一丁目","lat":"35.671424","lng":"139.471409"},{"town":"宮西町四丁目","lat":"35.670450","lng":"139.474977"},{"town":"西府町五丁目","lat":"35.675754","lng":"139.451693"},{"town":"日新町四丁目","lat":"35.671208","lng":"139.444571"},{"town":"緑町二丁目","lat":"35.674211","lng":"139.489485"},{"town":"府中町三丁目","lat":"35.675748","lng":"139.486033"},{"town":"天神町三丁目","lat":"35.683065","lng":"139.488798"},{"town":"天神町一丁目","lat":"35.680061","lng":"139.487621"},{"town":"幸町二丁目","lat":"35.679917","lng":"139.484172"},{"town":"幸町一丁目","lat":"35.680324","lng":"139.481063"},{"town":"天神町二丁目","lat":"35.680442","lng":"139.490993"},{"town":"晴見町一丁目","lat":"35.680085","lng":"139.477619"},{"town":"寿町一丁目","lat":"35.675372","lng":"139.478691"},{"town":"寿町三丁目","lat":"35.675630","lng":"139.473793"},{"town":"日鋼町","lat":"35.676331","lng":"139.470389"},{"town":"寿町二丁目","lat":"35.675555","lng":"139.476189"},{"town":"美好町一丁目","lat":"35.672855","lng":"139.470444"},{"town":"本宿町三丁目","lat":"35.675603","lng":"139.463026"},{"town":"美好町二丁目","lat":"35.675516","lng":"139.466261"},{"town":"本宿町四丁目","lat":"35.676822","lng":"139.460259"},{"town":"西原町一丁目","lat":"35.683027","lng":"139.460078"},{"town":"西府町四丁目","lat":"35.678400","lng":"139.453907"},{"town":"西府町三丁目","lat":"35.677607","lng":"139.457111"},{"town":"天神町四丁目","lat":"35.683097","lng":"139.492503"},{"town":"新町三丁目","lat":"35.692504","lng":"139.487389"},{"town":"幸町三丁目","lat":"35.683599","lng":"139.483448"},{"town":"新町一丁目","lat":"35.687827","lng":"139.487166"},{"town":"栄町一丁目","lat":"35.688883","lng":"139.482100"},{"town":"東芝町","lat":"35.681351","lng":"139.466385"},{"town":"晴見町二丁目","lat":"35.679939","lng":"139.473542"},{"town":"晴見町四丁目","lat":"35.684001","lng":"139.474065"},{"town":"西原町二丁目","lat":"35.683266","lng":"139.457999"},{"town":"栄町三丁目","lat":"35.687588","lng":"139.472396"},{"town":"西原町三丁目","lat":"35.682888","lng":"139.455762"},{"town":"北山町一丁目","lat":"35.685653","lng":"139.455199"},{"town":"武蔵台一丁目","lat":"35.687318","lng":"139.464396"},{"town":"北山町二丁目","lat":"35.687396","lng":"139.456567"},{"town":"西原町四丁目","lat":"35.682149","lng":"139.453208"},{"town":"北山町三丁目","lat":"35.689350","lng":"139.457257"},{"town":"北山町四丁目","lat":"35.691122","lng":"139.458498"},{"town":"武蔵台二丁目","lat":"35.691767","lng":"139.462904"},{"town":"武蔵台三丁目","lat":"35.696987","lng":"139.461480"}]