[{"town":"瑞江四丁目","lat":"35.693059","lng":"139.893822"},{"town":"東瑞江三丁目","lat":"35.690177","lng":"139.895427"},{"town":"東瑞江二丁目","lat":"35.687340","lng":"139.896900"},{"town":"篠崎町二丁目","lat":"35.706991","lng":"139.907932"},{"town":"篠崎町一丁目","lat":"35.710031","lng":"139.908431"},{"town":"臨海町六丁目","lat":"35.642621","lng":"139.859521"},{"town":"中葛西一丁目","lat":"35.671374","lng":"139.869494"},{"town":"南葛西四丁目","lat":"35.649550","lng":"139.874178"},{"town":"中葛西二丁目","lat":"35.670966","lng":"139.873758"},{"town":"中葛西八丁目","lat":"35.657707","lng":"139.870784"},{"town":"臨海町五丁目","lat":"35.644550","lng":"139.869256"},{"town":"南葛西三丁目","lat":"35.650102","lng":"139.868541"},{"town":"中葛西五丁目","lat":"35.662622","lng":"139.868589"},{"town":"南葛西五丁目","lat":"35.644335","lng":"139.873518"},{"town":"南葛西一丁目","lat":"35.654048","lng":"139.869630"},{"town":"中葛西三丁目","lat":"35.665844","lng":"139.870654"},{"town":"東葛西二丁目","lat":"35.668310","lng":"139.876561"},{"town":"東葛西三丁目","lat":"35.667761","lng":"139.884560"},{"town":"東葛西一丁目","lat":"35.670968","lng":"139.879933"},{"town":"中央三丁目","lat":"35.712168","lng":"139.873292"},{"town":"本一色一丁目","lat":"35.716137","lng":"139.869518"},{"town":"本一色二丁目","lat":"35.718382","lng":"139.873891"},{"town":"上一色一丁目","lat":"35.724602","lng":"139.871461"},{"town":"北葛西四丁目","lat":"35.671553","lng":"139.863457"},{"town":"西葛西二丁目","lat":"35.668371","lng":"139.851898"},{"town":"江戸川六丁目","lat":"35.675620","lng":"139.876560"},{"town":"春江町五丁目","lat":"35.679518","lng":"139.875135"},{"town":"西一之江四丁目","lat":"35.696160","lng":"139.873915"},{"town":"中央一丁目","lat":"35.706632","lng":"139.869448"},{"town":"中央四丁目","lat":"35.711330","lng":"139.867804"},{"town":"上一色三丁目","lat":"35.729081","lng":"139.872730"},{"town":"船堀七丁目","lat":"35.677665","lng":"139.869564"},{"town":"西葛西三丁目","lat":"35.667416","lng":"139.857662"},{"town":"船堀五丁目","lat":"35.681948","lng":"139.870171"},{"town":"松江六丁目","lat":"35.686477","lng":"139.871698"},{"town":"松江七丁目","lat":"35.690400","lng":"139.874121"},{"town":"中央二丁目","lat":"35.706384","lng":"139.873276"},{"town":"松江四丁目","lat":"35.692280","lng":"139.870264"},{"town":"松江二丁目","lat":"35.699489","lng":"139.873370"},{"town":"本一色三丁目","lat":"35.720374","lng":"139.870566"},{"town":"南葛西七丁目","lat":"35.647536","lng":"139.881186"},{"town":"南葛西六丁目","lat":"35.648061","lng":"139.877661"},{"town":"南葛西二丁目","lat":"35.653767","lng":"139.874942"},{"town":"東葛西九丁目","lat":"35.654400","lng":"139.883949"},{"town":"東葛西四丁目","lat":"35.662198","lng":"139.884369"},{"town":"東葛西五丁目","lat":"35.665455","lng":"139.877889"},{"town":"東葛西八丁目","lat":"35.654923","lng":"139.878767"},{"town":"東葛西七丁目","lat":"35.658707","lng":"139.877440"},{"town":"東葛西六丁目","lat":"35.661365","lng":"139.877366"},{"town":"臨海町一丁目","lat":"35.650994","lng":"139.853494"},{"town":"臨海町四丁目","lat":"35.646047","lng":"139.863790"},{"town":"西葛西八丁目","lat":"35.656257","lng":"139.861074"},{"town":"臨海町二丁目","lat":"35.650741","lng":"139.860129"},{"town":"清新町一丁目","lat":"35.661357","lng":"139.851430"},{"town":"清新町二丁目","lat":"35.655981","lng":"139.854203"},{"town":"中葛西七丁目","lat":"35.656491","lng":"139.866167"},{"town":"西葛西六丁目","lat":"35.663362","lng":"139.860432"},{"town":"中葛西四丁目","lat":"35.666327","lng":"139.866592"},{"town":"西葛西五丁目","lat":"35.666059","lng":"139.861359"},{"town":"西葛西四丁目","lat":"35.667730","lng":"139.863286"},{"town":"臨海町三丁目","lat":"35.648903","lng":"139.864925"},{"town":"西葛西七丁目","lat":"35.660469","lng":"139.860670"},{"town":"中葛西六丁目","lat":"35.660109","lng":"139.867190"},{"town":"南篠崎町三丁目","lat":"35.695293","lng":"139.900293"},{"town":"西篠崎二丁目","lat":"35.711597","lng":"139.895941"},{"town":"西篠崎一丁目","lat":"35.715025","lng":"139.893840"},{"town":"瑞江三丁目","lat":"35.696022","lng":"139.893207"},{"town":"一之江七丁目","lat":"35.686464","lng":"139.879583"},{"town":"鹿骨三丁目","lat":"35.713356","lng":"139.892361"},{"town":"江戸川二丁目","lat":"35.685436","lng":"139.902376"},{"town":"江戸川三丁目","lat":"35.684482","lng":"139.892772"},{"town":"一之江八丁目","lat":"35.685285","lng":"139.883435"},{"town":"南篠崎町二丁目","lat":"35.692234","lng":"139.902768"},{"town":"江戸川四丁目","lat":"35.680537","lng":"139.886883"},{"town":"一之江町","lat":"35.683642","lng":"139.873358"},{"town":"二之江町","lat":"35.681814","lng":"139.873167"},{"town":"西瑞江五丁目","lat":"35.679755","lng":"139.879957"},{"town":"西瑞江四丁目","lat":"35.682233","lng":"139.884191"},{"town":"春江町四丁目","lat":"35.682848","lng":"139.878209"},{"town":"一之江四丁目","lat":"35.690068","lng":"139.880935"},{"town":"一之江三丁目","lat":"35.688715","lng":"139.884531"},{"town":"西瑞江三丁目","lat":"35.688529","lng":"139.890436"},{"town":"春江町三丁目","lat":"35.692291","lng":"139.887953"},{"town":"一之江六丁目","lat":"35.686893","lng":"139.875935"},{"town":"南篠崎町一丁目","lat":"35.694817","lng":"139.906202"},{"town":"南篠崎町五丁目","lat":"35.692616","lng":"139.908579"},{"town":"東篠崎二丁目","lat":"35.691115","lng":"139.911778"},{"town":"篠崎町四丁目","lat":"35.699650","lng":"139.910281"},{"town":"下篠崎町","lat":"35.698634","lng":"139.913259"},{"town":"篠崎町五丁目","lat":"35.702140","lng":"139.908177"},{"town":"東篠崎一丁目","lat":"35.698209","lng":"139.916282"},{"town":"篠崎町六丁目","lat":"35.700821","lng":"139.904631"},{"town":"南篠崎町四丁目","lat":"35.697803","lng":"139.902808"},{"town":"東松本一丁目","lat":"35.718697","lng":"139.885523"},{"town":"上篠崎三丁目","lat":"35.711887","lng":"139.899347"},{"town":"東篠崎町","lat":"35.695168","lng":"139.916315"},{"town":"篠崎町三丁目","lat":"35.704551","lng":"139.913579"},{"town":"篠崎町七丁目","lat":"35.704904","lng":"139.902070"},{"town":"東瑞江一丁目","lat":"35.690410","lng":"139.899608"},{"town":"江戸川一丁目","lat":"35.688308","lng":"139.905398"},{"town":"春江町一丁目","lat":"35.702880","lng":"139.892050"},{"town":"新堀二丁目","lat":"35.704342","lng":"139.891477"},{"town":"鹿骨四丁目","lat":"35.714336","lng":"139.889637"},{"town":"一之江二丁目","lat":"35.694961","lng":"139.884026"},{"town":"一之江一丁目","lat":"35.699968","lng":"139.883477"},{"town":"瑞江二丁目","lat":"35.695307","lng":"139.896900"},{"town":"瑞江一丁目","lat":"35.699360","lng":"139.895527"},{"town":"西一之江三丁目","lat":"35.694425","lng":"139.877350"},{"town":"西一之江一丁目","lat":"35.700277","lng":"139.876993"},{"town":"一之江五丁目","lat":"35.693892","lng":"139.881227"},{"town":"西一之江二丁目","lat":"35.700131","lng":"139.880016"},{"town":"春江町二丁目","lat":"35.699917","lng":"139.888895"},{"town":"大杉三丁目","lat":"35.704938","lng":"139.882568"},{"town":"新堀一丁目","lat":"35.704769","lng":"139.886851"},{"town":"大杉一丁目","lat":"35.705970","lng":"139.876406"},{"town":"大杉二丁目","lat":"35.704888","lng":"139.879248"},{"town":"鹿骨六丁目","lat":"35.713892","lng":"139.883544"},{"town":"鹿骨一丁目","lat":"35.708809","lng":"139.887588"},{"town":"大杉五丁目","lat":"35.710151","lng":"139.877726"},{"town":"大杉四丁目","lat":"35.710356","lng":"139.881378"},{"town":"上篠崎二丁目","lat":"35.711741","lng":"139.905201"},{"town":"篠崎町八丁目","lat":"35.703870","lng":"139.897977"},{"town":"上篠崎一丁目","lat":"35.716267","lng":"139.901042"},{"town":"鹿骨町","lat":"35.717256","lng":"139.883424"},{"town":"谷河内二丁目","lat":"35.700782","lng":"139.900025"},{"town":"谷河内一丁目","lat":"35.703278","lng":"139.895235"},{"town":"鹿骨二丁目","lat":"35.707101","lng":"139.893378"},{"town":"上篠崎四丁目","lat":"35.708555","lng":"139.899230"},{"town":"東小岩二丁目","lat":"35.726367","lng":"139.894498"},{"town":"北篠崎二丁目","lat":"35.719082","lng":"139.898254"},{"town":"北篠崎一丁目","lat":"35.720723","lng":"139.895804"},{"town":"東小岩一丁目","lat":"35.720994","lng":"139.892426"},{"town":"南小岩二丁目","lat":"35.720006","lng":"139.889455"},{"town":"江戸川五丁目","lat":"35.675173","lng":"139.882390"},{"town":"松本二丁目","lat":"35.715772","lng":"139.879840"},{"town":"南小岩四丁目","lat":"35.722542","lng":"139.883413"},{"town":"南小岩三丁目","lat":"35.725781","lng":"139.886381"},{"town":"松本一丁目","lat":"35.714935","lng":"139.876488"},{"town":"南小岩一丁目","lat":"35.720204","lng":"139.885199"},{"town":"東松本二丁目","lat":"35.718730","lng":"139.881891"},{"town":"鹿骨五丁目","lat":"35.714807","lng":"139.886320"},{"town":"南小岩五丁目","lat":"35.724378","lng":"139.880232"},{"town":"東小岩六丁目","lat":"35.734904","lng":"139.889506"},{"town":"東小岩四丁目","lat":"35.727369","lng":"139.889829"},{"town":"東小岩三丁目","lat":"35.731730","lng":"139.894203"},{"town":"南小岩六丁目","lat":"35.729527","lng":"139.878707"},{"town":"南小岩七丁目","lat":"35.729841","lng":"139.883310"},{"town":"上一色二丁目","lat":"35.725882","lng":"139.874552"},{"town":"興宮町","lat":"35.722519","lng":"139.876607"},{"town":"北小岩一丁目","lat":"35.736276","lng":"139.891538"},{"town":"北小岩七丁目","lat":"35.744825","lng":"139.891371"},{"town":"北小岩三丁目","lat":"35.737145","lng":"139.894675"},{"town":"北小岩四丁目","lat":"35.741545","lng":"139.896192"},{"town":"東小岩五丁目","lat":"35.731473","lng":"139.888355"},{"town":"南小岩八丁目","lat":"35.731670","lng":"139.885317"},{"town":"西小岩一丁目","lat":"35.732583","lng":"139.878189"},{"town":"西小岩二丁目","lat":"35.732722","lng":"139.874177"},{"town":"北小岩五丁目","lat":"35.740653","lng":"139.889087"},{"town":"西小岩四丁目","lat":"35.738041","lng":"139.880194"},{"town":"西小岩三丁目","lat":"35.737696","lng":"139.878026"},{"town":"西小岩五丁目","lat":"35.739315","lng":"139.882064"},{"town":"北小岩八丁目","lat":"35.748591","lng":"139.887219"},{"town":"北小岩二丁目","lat":"35.739838","lng":"139.885646"},{"town":"北小岩六丁目","lat":"35.744189","lng":"139.885369"},{"town":"松江五丁目","lat":"35.687975","lng":"139.868408"},{"town":"北葛西三丁目","lat":"35.673594","lng":"139.859459"},{"town":"宇喜田町","lat":"35.676311","lng":"139.863211"},{"town":"北葛西五丁目","lat":"35.674487","lng":"139.866369"},{"town":"船堀六丁目","lat":"35.679251","lng":"139.867626"},{"town":"船堀三丁目","lat":"35.681494","lng":"139.864886"},{"town":"船堀四丁目","lat":"35.683900","lng":"139.866969"},{"town":"船堀一丁目","lat":"35.686496","lng":"139.859859"},{"town":"船堀二丁目","lat":"35.683752","lng":"139.857233"},{"town":"西葛西一丁目","lat":"35.672645","lng":"139.852138"},{"town":"北葛西二丁目","lat":"35.675530","lng":"139.853370"},{"town":"松江三丁目","lat":"35.694685","lng":"139.868606"},{"town":"東小松川二丁目","lat":"35.696494","lng":"139.865459"},{"town":"東小松川四丁目","lat":"35.689491","lng":"139.861004"},{"town":"北葛西一丁目","lat":"35.680374","lng":"139.855400"},{"town":"小松川一丁目","lat":"35.688052","lng":"139.850711"},{"town":"松江一丁目","lat":"35.700100","lng":"139.869569"},{"town":"東小松川一丁目","lat":"35.700872","lng":"139.866340"},{"town":"東小松川三丁目","lat":"35.693236","lng":"139.862044"},{"town":"松島一丁目","lat":"35.704575","lng":"139.865021"},{"town":"小松川四丁目","lat":"35.701672","lng":"139.854043"},{"town":"小松川二丁目","lat":"35.695844","lng":"139.852701"},{"town":"平井三丁目","lat":"35.703496","lng":"139.841665"},{"town":"小松川三丁目","lat":"35.698141","lng":"139.848780"},{"town":"西小松川町","lat":"35.698405","lng":"139.862007"},{"town":"松島三丁目","lat":"35.711276","lng":"139.862301"},{"town":"松島二丁目","lat":"35.705909","lng":"139.859425"},{"town":"平井二丁目","lat":"35.701457","lng":"139.845297"},{"town":"平井四丁目","lat":"35.707253","lng":"139.847289"},{"town":"平井五丁目","lat":"35.707582","lng":"139.842478"},{"town":"平井一丁目","lat":"35.704048","lng":"139.851382"},{"town":"松島四丁目","lat":"35.711350","lng":"139.856128"},{"town":"平井六丁目","lat":"35.709825","lng":"139.841548"},{"town":"平井七丁目","lat":"35.714916","lng":"139.837727"},{"town":"堀江町","lat":"35.643469","lng":"139.877198"}]