[{"town":"西尾久三丁目","lat":"35.752063","lng":"139.763610"},{"town":"西尾久八丁目","lat":"35.752174","lng":"139.754090"},{"town":"町屋五丁目","lat":"35.751813","lng":"139.779963"},{"town":"東尾久七丁目","lat":"35.751602","lng":"139.774699"},{"town":"町屋六丁目","lat":"35.751827","lng":"139.784260"},{"town":"東尾久八丁目","lat":"35.751682","lng":"139.768582"},{"town":"西尾久六丁目","lat":"35.752612","lng":"139.759520"},{"town":"南千住二丁目","lat":"35.730151","lng":"139.796665"},{"town":"南千住三丁目","lat":"35.731231","lng":"139.807018"},{"town":"東日暮里六丁目","lat":"35.730937","lng":"139.776514"},{"town":"荒川三丁目","lat":"35.734245","lng":"139.781115"},{"town":"西日暮里四丁目","lat":"35.732731","lng":"139.763707"},{"town":"西日暮里三丁目","lat":"35.729726","lng":"139.766665"},{"town":"東日暮里一丁目","lat":"35.730020","lng":"139.788725"},{"town":"南千住一丁目","lat":"35.733545","lng":"139.791091"},{"town":"南千住五丁目","lat":"35.733617","lng":"139.795661"},{"town":"南千住四丁目","lat":"35.734295","lng":"139.802731"},{"town":"南千住七丁目","lat":"35.735666","lng":"139.798688"},{"town":"荒川四丁目","lat":"35.737978","lng":"139.779571"},{"town":"東日暮里三丁目","lat":"35.730514","lng":"139.781233"},{"town":"荒川一丁目","lat":"35.734760","lng":"139.786842"},{"town":"荒川八丁目","lat":"35.740614","lng":"139.787545"},{"town":"荒川二丁目","lat":"35.737567","lng":"139.783240"},{"town":"東日暮里二丁目","lat":"35.729989","lng":"139.785181"},{"town":"荒川五丁目","lat":"35.738852","lng":"139.775750"},{"town":"荒川七丁目","lat":"35.741607","lng":"139.782238"},{"town":"西日暮里二丁目","lat":"35.730395","lng":"139.771031"},{"town":"東日暮里五丁目","lat":"35.726670","lng":"139.776243"},{"town":"東日暮里四丁目","lat":"35.726600","lng":"139.780900"},{"town":"西日暮里五丁目","lat":"35.732876","lng":"139.768386"},{"town":"西日暮里一丁目","lat":"35.735165","lng":"139.774363"},{"town":"西尾久一丁目","lat":"35.745816","lng":"139.763398"},{"town":"西日暮里六丁目","lat":"35.736172","lng":"139.769456"},{"town":"南千住六丁目","lat":"35.737924","lng":"139.792827"},{"town":"南千住八丁目","lat":"35.736832","lng":"139.809688"},{"town":"町屋七丁目","lat":"35.750119","lng":"139.788363"},{"town":"町屋八丁目","lat":"35.747448","lng":"139.786319"},{"town":"東尾久一丁目","lat":"35.739969","lng":"139.771341"},{"town":"町屋一丁目","lat":"35.744645","lng":"139.785293"},{"town":"町屋三丁目","lat":"35.747464","lng":"139.781956"},{"town":"町屋二丁目","lat":"35.744446","lng":"139.778698"},{"town":"町屋四丁目","lat":"35.747357","lng":"139.778124"},{"town":"東尾久二丁目","lat":"35.742944","lng":"139.772220"},{"town":"荒川六丁目","lat":"35.742123","lng":"139.777550"},{"town":"東尾久三丁目","lat":"35.746272","lng":"139.771200"},{"town":"東尾久六丁目","lat":"35.746957","lng":"139.773951"},{"town":"東尾久四丁目","lat":"35.742498","lng":"139.766822"},{"town":"西尾久五丁目","lat":"35.749051","lng":"139.759719"},{"town":"東尾久五丁目","lat":"35.747467","lng":"139.767758"},{"town":"西尾久二丁目","lat":"35.748636","lng":"139.763712"},{"town":"西尾久四丁目","lat":"35.745371","lng":"139.759525"},{"town":"西尾久七丁目","lat":"35.749528","lng":"139.755496"}]