[{"town":"青葉町","lat":"32.784523","lng":"130.355334"},{"town":"油堀町","lat":"32.809832","lng":"130.321428"},{"town":"洗切町","lat":"32.826320","lng":"130.351671"},{"town":"有明町大三東乙","lat":"32.830595","lng":"130.332672"},{"town":"有明町大三東甲","lat":"32.824385","lng":"130.334092"},{"town":"有明町大三東丁","lat":"32.825196","lng":"130.323913"},{"town":"有明町大三東丙","lat":"32.844383","lng":"130.340403"},{"town":"有明町大三東戊","lat":"32.828056","lng":"130.318700"},{"town":"有明町湯江乙","lat":"32.832720","lng":"130.311607"},{"town":"有明町湯江甲","lat":"32.852931","lng":"130.328234"},{"town":"有明町湯江丁","lat":"32.836420","lng":"130.304351"},{"town":"有明町湯江丙","lat":"32.848429","lng":"130.314270"},{"town":"有馬船津町","lat":"32.778009","lng":"130.375499"},{"town":"出の川町","lat":"32.809423","lng":"130.337876"},{"town":"出平町","lat":"32.808083","lng":"130.341749"},{"town":"今川町","lat":"32.787296","lng":"130.367167"},{"town":"上の原一丁目","lat":"32.781615","lng":"130.364818"},{"town":"上の原二丁目","lat":"32.778790","lng":"130.365162"},{"town":"上の原三丁目","lat":"32.777668","lng":"130.360382"},{"town":"上の町","lat":"32.789473","lng":"130.369156"},{"town":"宇土町","lat":"32.795315","lng":"130.338617"},{"town":"梅園町","lat":"32.753564","lng":"130.365562"},{"town":"浦田一丁目","lat":"32.778489","lng":"130.372708"},{"town":"浦田二丁目","lat":"32.776914","lng":"130.373347"},{"town":"浦の川","lat":"32.786983","lng":"130.364950"},{"town":"上新丁一丁目","lat":"32.787872","lng":"130.360912"},{"town":"上新丁二丁目","lat":"32.789807","lng":"130.359852"},{"town":"上新丁三丁目","lat":"32.791859","lng":"130.358809"},{"town":"江戸丁","lat":"32.790387","lng":"130.364199"},{"town":"蛭子町一丁目","lat":"32.779998","lng":"130.372894"},{"town":"蛭子町二丁目","lat":"32.778672","lng":"130.373926"},{"town":"江里町","lat":"32.798756","lng":"130.336427"},{"town":"大下町","lat":"32.753258","lng":"130.360945"},{"town":"大手原町","lat":"32.813054","lng":"130.358154"},{"town":"御手水町","lat":"32.817179","lng":"130.354873"},{"town":"柿の木町","lat":"32.793033","lng":"130.356753"},{"town":"柏野町","lat":"32.796274","lng":"130.357245"},{"town":"片町","lat":"32.790165","lng":"130.370516"},{"town":"門内町","lat":"32.748278","lng":"130.357198"},{"town":"鎌田町","lat":"32.747940","lng":"130.367399"},{"town":"加美町","lat":"32.784270","lng":"130.368453"},{"town":"亀の甲町","lat":"32.820555","lng":"130.352533"},{"town":"北安徳町","lat":"32.751394","lng":"130.364840"},{"town":"北原町","lat":"32.787344","lng":"130.363333"},{"town":"北門町","lat":"32.801196","lng":"130.362496"},{"town":"崩山町","lat":"32.776972","lng":"130.366303"},{"town":"湖南町","lat":"32.778074","lng":"130.368648"},{"town":"小山町","lat":"32.786312","lng":"130.354188"},{"town":"坂上町","lat":"32.778207","lng":"130.370652"},{"town":"栄町","lat":"32.773724","lng":"130.367818"},{"town":"坂下町","lat":"32.776923","lng":"130.371161"},{"town":"先魁町","lat":"32.793230","lng":"130.367033"},{"town":"桜町","lat":"32.786204","lng":"130.368503"},{"town":"桜門町","lat":"32.795605","lng":"130.361145"},{"town":"下新丁","lat":"32.790076","lng":"130.361620"},{"town":"下の丁","lat":"32.791395","lng":"130.363212"},{"town":"寺中町","lat":"32.819647","lng":"130.342366"},{"town":"下折橋町","lat":"32.788484","lng":"130.347149"},{"town":"下川尻町","lat":"32.769089","lng":"130.369119"},{"town":"下宮町","lat":"32.813788","lng":"130.348716"},{"town":"城西中の丁","lat":"32.791514","lng":"130.362454"},{"town":"城内一丁目","lat":"32.790779","lng":"130.366253"},{"town":"城内二丁目","lat":"32.794854","lng":"130.364185"},{"town":"城内三丁目","lat":"32.798199","lng":"130.362473"},{"town":"白土町","lat":"32.781248","lng":"130.367939"},{"town":"白土桃山一丁目","lat":"32.780477","lng":"130.374516"},{"town":"白土桃山二丁目","lat":"32.778763","lng":"130.374880"},{"town":"城見町","lat":"32.789278","lng":"130.357294"},{"town":"新建","lat":"32.787820","lng":"130.364062"},{"town":"新田町","lat":"32.787810","lng":"130.377284"},{"town":"新馬場町","lat":"32.798155","lng":"130.367135"},{"town":"新町一丁目","lat":"32.785360","lng":"130.370067"},{"town":"新町二丁目","lat":"32.784420","lng":"130.371183"},{"town":"新湊一丁目","lat":"32.763421","lng":"130.366940"},{"town":"新湊二丁目","lat":"32.761630","lng":"130.361280"},{"town":"新山一丁目","lat":"32.772967","lng":"130.365490"},{"town":"新山二丁目","lat":"32.774322","lng":"130.362938"},{"town":"新山三丁目","lat":"32.771320","lng":"130.362216"},{"town":"新山四丁目","lat":"32.769896","lng":"130.360812"},{"town":"親和町","lat":"32.761642","lng":"130.367209"},{"town":"杉山町","lat":"32.795516","lng":"130.351018"},{"town":"高島一丁目","lat":"32.787282","lng":"130.372751"},{"town":"高島二丁目","lat":"32.785366","lng":"130.373019"},{"town":"立野町","lat":"32.795245","lng":"130.324771"},{"town":"田町","lat":"32.794891","lng":"130.368805"},{"town":"秩父が浦町","lat":"32.758630","lng":"130.371101"},{"town":"津吹町","lat":"32.814871","lng":"130.340534"},{"town":"津町","lat":"32.776501","lng":"130.375657"},{"town":"寺町","lat":"32.783227","lng":"130.366332"},{"town":"天神元町","lat":"32.747837","lng":"130.352116"},{"town":"中安徳町","lat":"32.745092","lng":"130.367013"},{"town":"中尾町","lat":"32.804033","lng":"130.348275"},{"town":"長貫町","lat":"32.813141","lng":"130.329535"},{"town":"中野町","lat":"32.824848","lng":"130.347143"},{"town":"中原町","lat":"32.818510","lng":"130.349591"},{"town":"中堀町","lat":"32.782086","lng":"130.369718"},{"town":"中町","lat":"32.790087","lng":"130.369564"},{"town":"西町","lat":"32.804363","lng":"130.336133"},{"town":"西八幡町","lat":"32.774889","lng":"130.369314"},{"town":"仁田町","lat":"32.755718","lng":"130.351180"},{"town":"萩が丘一丁目","lat":"32.783332","lng":"130.357839"},{"town":"萩が丘二丁目","lat":"32.781798","lng":"130.358712"},{"town":"萩原一丁目","lat":"32.785479","lng":"130.366691"},{"town":"萩原二丁目","lat":"32.785621","lng":"130.362627"},{"town":"萩原三丁目","lat":"32.783924","lng":"130.363464"},{"town":"白山町","lat":"32.772840","lng":"130.371704"},{"town":"浜の町","lat":"32.739350","lng":"130.371708"},{"town":"原口町","lat":"32.819773","lng":"130.334116"},{"town":"原町","lat":"32.799160","lng":"130.352155"},{"town":"稗田町","lat":"32.810229","lng":"130.351625"},{"town":"広高野町","lat":"32.802716","lng":"130.321023"},{"town":"広馬場町","lat":"32.774597","lng":"130.371535"},{"town":"札の元町","lat":"32.747871","lng":"130.354870"},{"town":"船泊町","lat":"32.754663","lng":"130.371804"},{"town":"古丁","lat":"32.790450","lng":"130.362212"},{"town":"平成町","lat":"32.744006","lng":"130.375281"},{"town":"弁天町一丁目","lat":"32.782660","lng":"130.372100"},{"town":"弁天町二丁目","lat":"32.783375","lng":"130.375553"},{"town":"堀町","lat":"32.785027","lng":"130.369386"},{"town":"本光寺町","lat":"32.790764","lng":"130.352785"},{"town":"本町","lat":"32.802667","lng":"130.353981"},{"town":"前浜町","lat":"32.806108","lng":"130.360976"},{"town":"三会町","lat":"32.821051","lng":"130.354925"},{"town":"緑町","lat":"32.768218","lng":"130.363003"},{"town":"湊新地町","lat":"32.773732","lng":"130.377578"},{"town":"湊道一丁目","lat":"32.780372","lng":"130.371552"},{"town":"湊道二丁目","lat":"32.779891","lng":"130.370411"},{"town":"南安徳町","lat":"32.742500","lng":"130.368663"},{"town":"南柏野町","lat":"32.794987","lng":"130.359102"},{"town":"南崩山町","lat":"32.755045","lng":"130.367194"},{"town":"南下川尻町","lat":"32.765621","lng":"130.364015"},{"town":"宮の町","lat":"32.792691","lng":"130.369995"},{"town":"六ツ木町","lat":"32.792075","lng":"130.345366"},{"town":"元船津町","lat":"32.776382","lng":"130.373723"},{"town":"八幡町","lat":"32.776148","lng":"130.371265"},{"town":"山寺町","lat":"32.805920","lng":"130.346861"},{"town":"万町","lat":"32.786568","lng":"130.369422"},{"town":"霊南一丁目","lat":"32.780190","lng":"130.376914"},{"town":"霊南二丁目","lat":"32.778479","lng":"130.377288"},{"town":"礫石原町","lat":"32.795723","lng":"130.308711"},{"town":"上折橋町","lat":"32.788946","lng":"130.336860"},{"town":"北千本木町","lat":"32.786982","lng":"130.324447"},{"town":"南千本木町","lat":"32.781593","lng":"130.326036"},{"town":"白谷町","lat":"32.749930","lng":"130.346758"},{"town":"南上木場町","lat":"32.749154","lng":"130.334218"},{"town":"北上木場町","lat":"32.754162","lng":"130.336542"},{"town":"湊町","lat":"32.770679","lng":"130.372181"},{"town":"中組町","lat":"32.773602","lng":"130.373769"}]