[{"town":"越水字社家郷山","koaza":"","lat":34.784426,"lng":135.295636},{"town":"相生町","koaza":"","lat":34.743538,"lng":135.32744},{"town":"青木町","koaza":"","lat":34.74595,"lng":135.346539},{"town":"青葉台一丁目","koaza":"","lat":34.820164,"lng":135.320008},{"town":"青葉台二丁目","koaza":"","lat":34.823107,"lng":135.321576},{"town":"上鳴尾町","koaza":"","lat":34.722385,"lng":135.368463},{"town":"朝凪町","koaza":"","lat":34.722522,"lng":135.341319},{"town":"芦原町","koaza":"","lat":34.741766,"lng":135.353465},{"town":"愛宕山","koaza":"","lat":34.755899,"lng":135.349022},{"town":"荒戎町","koaza":"","lat":34.732438,"lng":135.332415},{"town":"荒木町","koaza":"","lat":34.754386,"lng":135.367003},{"town":"池田町","koaza":"","lat":34.737584,"lng":135.345691},{"town":"池開町","koaza":"","lat":34.717716,"lng":135.376224},{"town":"石在町","koaza":"","lat":34.730723,"lng":135.341618},{"town":"石刎町","koaza":"","lat":34.751439,"lng":135.327674},{"town":"泉町","koaza":"","lat":34.725267,"lng":135.332205},{"town":"一ケ谷町","koaza":"","lat":34.757861,"lng":135.340783},{"town":"市庭町","koaza":"","lat":34.734927,"lng":135.332197},{"town":"一里山町","koaza":"","lat":34.772837,"lng":135.371332},{"town":"今在家町","koaza":"","lat":34.7361,"lng":135.339509},{"town":"今津曙町","koaza":"","lat":34.72913,"lng":135.355262},{"town":"今津上野町","koaza":"","lat":34.729589,"lng":135.358547},{"town":"今津大東町","koaza":"","lat":34.724975,"lng":135.354979},{"town":"今津久寿川町","koaza":"","lat":34.723126,"lng":135.354928},{"town":"今津社前町","koaza":"","lat":34.725441,"lng":135.352933},{"town":"今津巽町","koaza":"","lat":34.722761,"lng":135.352041},{"town":"今津出在家町","koaza":"","lat":34.725796,"lng":135.349877},{"town":"今津西浜町","koaza":"","lat":34.72241,"lng":135.34689},{"town":"今津野田町","koaza":"","lat":34.73176,"lng":135.359518},{"town":"今津二葉町","koaza":"","lat":34.727986,"lng":135.351282},{"town":"今津真砂町","koaza":"","lat":34.719356,"lng":135.347984},{"town":"今津水波町","koaza":"","lat":34.728505,"lng":135.353476},{"town":"今津港町","koaza":"","lat":34.723351,"lng":135.349653},{"town":"今津山中町","koaza":"","lat":34.731148,"lng":135.35645},{"town":"上ケ原十番町","koaza":"","lat":34.761773,"lng":135.339342},{"town":"上ケ原一番町","koaza":"","lat":34.76855,"lng":135.346629},{"town":"上ケ原二番町","koaza":"","lat":34.765673,"lng":135.349076},{"town":"上ケ原三番町","koaza":"","lat":34.765206,"lng":135.345982},{"town":"上ケ原四番町","koaza":"","lat":34.761343,"lng":135.348893},{"town":"上ケ原五番町","koaza":"","lat":34.761463,"lng":135.347682},{"town":"上ケ原六番町","koaza":"","lat":34.764837,"lng":135.343832},{"town":"上ケ原七番町","koaza":"","lat":34.760415,"lng":135.345702},{"town":"上ケ原八番町","koaza":"","lat":34.761116,"lng":135.343919},{"town":"上ケ原九番町","koaza":"","lat":34.760993,"lng":135.341841},{"town":"上ケ原山田町","koaza":"","lat":34.765829,"lng":135.339718},{"town":"上ケ原山手町","koaza":"","lat":34.766073,"lng":135.341698},{"town":"上田中町","koaza":"","lat":34.708478,"lng":135.373025},{"town":"上田西町","koaza":"","lat":34.710749,"lng":135.370573},{"town":"上田東町","koaza":"","lat":34.705663,"lng":135.376089},{"town":"江上町","koaza":"","lat":34.740262,"lng":135.340353},{"town":"枝川町","koaza":"","lat":34.709555,"lng":135.362293},{"town":"老松町","koaza":"","lat":34.749935,"lng":135.316772},{"town":"大井手町","koaza":"","lat":34.743904,"lng":135.330103},{"town":"大島町","koaza":"","lat":34.76129,"lng":135.366908},{"town":"大谷町","koaza":"","lat":34.739382,"lng":135.319509},{"town":"大畑町","koaza":"","lat":34.748661,"lng":135.349903},{"town":"大浜町","koaza":"","lat":34.725843,"lng":135.326609},{"town":"大森町","koaza":"","lat":34.749697,"lng":135.367484},{"town":"大屋町","koaza":"","lat":34.74497,"lng":135.365416},{"town":"岡田山","koaza":"","lat":34.758453,"lng":135.350936},{"town":"奥畑","koaza":"","lat":34.753349,"lng":135.335877},{"town":"御茶家所町","koaza":"","lat":34.737827,"lng":135.326868},{"town":"神楽町","koaza":"","lat":34.738332,"lng":135.330087},{"town":"笠屋町","koaza":"","lat":34.713745,"lng":135.374819},{"town":"霞町","koaza":"","lat":34.74036,"lng":135.324747},{"town":"甲山町","koaza":"","lat":34.774602,"lng":135.3319},{"town":"上大市一丁目","koaza":"","lat":34.76517,"lng":135.36113},{"town":"上大市二丁目","koaza":"","lat":34.762763,"lng":135.361282},{"town":"上大市三丁目","koaza":"","lat":34.765006,"lng":135.364252},{"town":"上大市四丁目","koaza":"","lat":34.763275,"lng":135.366175},{"town":"上大市五丁目","koaza":"","lat":34.767219,"lng":135.371642},{"town":"神垣町","koaza":"","lat":34.748922,"lng":135.339537},{"town":"上甲子園一丁目","koaza":"","lat":34.73238,"lng":135.370369},{"town":"上甲子園二丁目","koaza":"","lat":34.732182,"lng":135.367393},{"town":"上甲子園三丁目","koaza":"","lat":34.732245,"lng":135.365486},{"town":"上甲子園四丁目","koaza":"","lat":34.73395,"lng":135.364022},{"town":"上甲子園五丁目","koaza":"","lat":34.734166,"lng":135.360413},{"town":"上甲東園一丁目","koaza":"","lat":34.768298,"lng":135.357545},{"town":"上甲東園二丁目","koaza":"","lat":34.767666,"lng":135.35376},{"town":"上甲東園三丁目","koaza":"","lat":34.768505,"lng":135.350601},{"town":"上甲東園四丁目","koaza":"","lat":34.764261,"lng":135.353805},{"town":"上甲東園五丁目","koaza":"","lat":34.766007,"lng":135.35087},{"town":"上甲東園六丁目","koaza":"","lat":34.764571,"lng":135.355389},{"town":"神園町","koaza":"","lat":34.757773,"lng":135.330194},{"town":"上之町","koaza":"","lat":34.753889,"lng":135.37084},{"town":"上葭原町","koaza":"","lat":34.728966,"lng":135.326518},{"town":"柏堂町","koaza":"","lat":34.763836,"lng":135.315095},{"town":"柏堂西町","koaza":"","lat":34.76451,"lng":135.310407},{"town":"川添町","koaza":"","lat":34.729107,"lng":135.330366},{"town":"川西町","koaza":"","lat":34.73205,"lng":135.328568},{"town":"河原町","koaza":"","lat":34.748595,"lng":135.346224},{"town":"川東町","koaza":"","lat":34.732571,"lng":135.330115},{"town":"瓦林町","koaza":"","lat":34.745136,"lng":135.368665},{"town":"神呪町","koaza":"","lat":34.762479,"lng":135.357195},{"town":"神原","koaza":"","lat":34.756222,"lng":135.33362},{"town":"学文殿町一丁目","koaza":"","lat":34.723844,"lng":135.373864},{"town":"学文殿町二丁目","koaza":"","lat":34.724886,"lng":135.371873},{"town":"菊谷町","koaza":"","lat":34.749587,"lng":135.324419},{"town":"木津山町","koaza":"","lat":34.747448,"lng":135.320147},{"town":"北口町","koaza":"","lat":34.749143,"lng":135.357848},{"town":"北昭和町","koaza":"","lat":34.748687,"lng":135.353492},{"town":"北名次町","koaza":"","lat":34.752691,"lng":135.330633},{"town":"北山町","koaza":"","lat":34.767261,"lng":135.3204},{"town":"北六甲台一丁目","koaza":"","lat":34.835467,"lng":135.243547},{"town":"北六甲台二丁目","koaza":"","lat":34.834906,"lng":135.248258},{"town":"北六甲台三丁目","koaza":"","lat":34.834598,"lng":135.252632},{"town":"北六甲台四丁目","koaza":"","lat":34.831012,"lng":135.250942},{"town":"北六甲台五丁目","koaza":"","lat":34.832235,"lng":135.245701},{"town":"清瀬台","koaza":"","lat":34.826849,"lng":135.319893},{"town":"久出ケ谷町","koaza":"","lat":34.746429,"lng":135.325014},{"town":"国見台一丁目","koaza":"","lat":34.837132,"lng":135.312415},{"town":"国見台二丁目","koaza":"","lat":34.839009,"lng":135.310839},{"town":"国見台三丁目","koaza":"","lat":34.839684,"lng":135.305886},{"town":"国見台四丁目","koaza":"","lat":34.836661,"lng":135.308813},{"town":"国見台五丁目","koaza":"","lat":34.836472,"lng":135.304298},{"town":"国見台六丁目","koaza":"","lat":34.838393,"lng":135.300663},{"town":"久保町","koaza":"","lat":34.729398,"lng":135.339618},{"town":"熊野町","koaza":"","lat":34.744214,"lng":135.371779},{"town":"雲井町","koaza":"","lat":34.743546,"lng":135.324769},{"town":"鞍掛町","koaza":"","lat":34.72971,"lng":135.338584},{"town":"苦楽園一番町","koaza":"","lat":34.755327,"lng":135.317272},{"town":"苦楽園二番町","koaza":"","lat":34.7597,"lng":135.313931},{"town":"苦楽園三番町","koaza":"","lat":34.763422,"lng":135.307715},{"town":"苦楽園四番町","koaza":"","lat":34.758607,"lng":135.308399},{"town":"苦楽園五番町","koaza":"","lat":34.754734,"lng":135.314107},{"town":"苦楽園六番町","koaza":"","lat":34.752535,"lng":135.313648},{"town":"結善町","koaza":"","lat":34.747015,"lng":135.330225},{"town":"剣谷町","koaza":"","lat":34.767219,"lng":135.312399},{"town":"甲子園一番町","koaza":"","lat":34.731238,"lng":135.374795},{"town":"甲子園二番町","koaza":"","lat":34.731613,"lng":135.372224},{"town":"甲子園三番町","koaza":"","lat":34.729625,"lng":135.37},{"town":"甲子園四番町","koaza":"","lat":34.728075,"lng":135.369077},{"town":"甲子園五番町","koaza":"","lat":34.726845,"lng":135.366455},{"town":"甲子園六番町","koaza":"","lat":34.72437,"lng":135.365219},{"town":"甲子園七番町","koaza":"","lat":34.721173,"lng":135.365355},{"town":"甲子園八番町","koaza":"","lat":34.71808,"lng":135.363795},{"town":"甲子園九番町","koaza":"","lat":34.71533,"lng":135.362348},{"town":"甲子園網引町","koaza":"","lat":34.721345,"lng":135.354709},{"town":"甲子園浦風町","koaza":"","lat":34.726025,"lng":135.361066},{"town":"甲子園口一丁目","koaza":"","lat":34.736785,"lng":135.378842},{"town":"甲子園口二丁目","koaza":"","lat":34.736153,"lng":135.37539},{"town":"甲子園口三丁目","koaza":"","lat":34.736197,"lng":135.372611},{"town":"甲子園口四丁目","koaza":"","lat":34.736265,"lng":135.370196},{"town":"甲子園口五丁目","koaza":"","lat":34.736618,"lng":135.367872},{"town":"甲子園口六丁目","koaza":"","lat":34.736803,"lng":135.365064},{"town":"甲子園口北町","koaza":"","lat":34.741026,"lng":135.376454},{"town":"甲子園洲鳥町","koaza":"","lat":34.723305,"lng":135.358248},{"town":"甲子園砂田町","koaza":"","lat":34.729084,"lng":135.364119},{"town":"甲子園高潮町","koaza":"","lat":34.724141,"lng":135.360471},{"town":"甲子園町","koaza":"","lat":34.720432,"lng":135.359446},{"town":"甲子園浜田町","koaza":"","lat":34.728701,"lng":135.360834},{"town":"甲子園浜一丁目","koaza":"","lat":34.708958,"lng":135.34884},{"town":"甲子園浜二丁目","koaza":"","lat":34.709058,"lng":135.344653},{"town":"甲子園浜三丁目","koaza":"","lat":34.717361,"lng":135.346579},{"town":"甲子園春風町","koaza":"","lat":34.730806,"lng":135.362402},{"town":"甲子園三保町","koaza":"","lat":34.728523,"lng":135.365256},{"town":"甲子園六石町","koaza":"","lat":34.727521,"lng":135.362972},{"town":"甲東園一丁目","koaza":"","lat":34.767599,"lng":135.360949},{"town":"甲東園二丁目","koaza":"","lat":34.769816,"lng":135.361322},{"town":"甲東園三丁目","koaza":"","lat":34.768328,"lng":135.35944},{"town":"甲風園一丁目","koaza":"","lat":34.747646,"lng":135.356012},{"town":"甲風園二丁目","koaza":"","lat":34.750788,"lng":135.356141},{"town":"甲風園三丁目","koaza":"","lat":34.753819,"lng":135.356469},{"town":"甲陽園山王町","koaza":"","lat":34.765473,"lng":135.333568},{"town":"甲陽園西山町","koaza":"","lat":34.76291,"lng":135.32732},{"town":"甲陽園東山町","koaza":"","lat":34.766724,"lng":135.336434},{"town":"甲陽園日之出町","koaza":"","lat":34.761874,"lng":135.334209},{"town":"甲陽園本庄町","koaza":"","lat":34.760527,"lng":135.332703},{"town":"甲陽園目神山町","koaza":"","lat":34.770246,"lng":135.325987},{"town":"甲陽園若江町","koaza":"","lat":34.759025,"lng":135.330896},{"town":"甑岩町","koaza":"","lat":34.759237,"lng":135.323443},{"town":"越水町","koaza":"","lat":34.745488,"lng":135.340051},{"town":"小曽根町一丁目","koaza":"","lat":34.731474,"lng":135.378021},{"town":"小曽根町二丁目","koaza":"","lat":34.729702,"lng":135.377927},{"town":"小曽根町三丁目","koaza":"","lat":34.728452,"lng":135.378122},{"town":"小曽根町四丁目","koaza":"","lat":34.727317,"lng":135.378511},{"town":"寿町","koaza":"","lat":34.741914,"lng":135.331529},{"town":"小松北町一丁目","koaza":"","lat":34.725929,"lng":135.377581},{"town":"小松北町二丁目","koaza":"","lat":34.724629,"lng":135.3776},{"town":"小松町一丁目","koaza":"","lat":34.723602,"lng":135.378181},{"town":"小松町二丁目","koaza":"","lat":34.722383,"lng":135.378242},{"town":"小松西町一丁目","koaza":"","lat":34.723083,"lng":135.37615},{"town":"小松西町二丁目","koaza":"","lat":34.720701,"lng":135.375969},{"town":"小松東町一丁目","koaza":"","lat":34.725681,"lng":135.381128},{"town":"小松東町二丁目","koaza":"","lat":34.723677,"lng":135.381821},{"town":"小松東町三丁目","koaza":"","lat":34.722269,"lng":135.382077},{"town":"小松南町一丁目","koaza":"","lat":34.719953,"lng":135.381674},{"town":"小松南町二丁目","koaza":"","lat":34.72045,"lng":135.379124},{"town":"小松南町三丁目","koaza":"","lat":34.720573,"lng":135.377585},{"town":"郷免町","koaza":"","lat":34.7371,"lng":135.322332},{"town":"西福町","koaza":"","lat":34.739795,"lng":135.348572},{"town":"桜谷町","koaza":"","lat":34.745884,"lng":135.337058},{"town":"桜町","koaza":"","lat":34.753588,"lng":135.321851},{"town":"五月ケ丘","koaza":"","lat":34.75844,"lng":135.337922},{"town":"里中町一丁目","koaza":"","lat":34.720708,"lng":135.374474},{"town":"里中町二丁目","koaza":"","lat":34.720969,"lng":135.372934},{"town":"里中町三丁目","koaza":"","lat":34.721228,"lng":135.371226},{"town":"産所町","koaza":"","lat":34.737578,"lng":135.334649},{"town":"塩瀬町名塩","koaza":"","lat":34.840047,"lng":135.291214},{"town":"塩瀬町生瀬","koaza":"","lat":34.81432,"lng":135.308406},{"town":"獅子ケ口町","koaza":"","lat":34.757789,"lng":135.327339},{"town":"清水町","koaza":"","lat":34.744857,"lng":135.334825},{"town":"下大市西町","koaza":"","lat":34.760273,"lng":135.359867},{"town":"下大市東町","koaza":"","lat":34.758913,"lng":135.360929},{"town":"下葭原町","koaza":"","lat":34.727347,"lng":135.326756},{"town":"社家町","koaza":"","lat":34.735184,"lng":135.334656},{"town":"松籟荘","koaza":"","lat":34.765557,"lng":135.358209},{"town":"城山","koaza":"","lat":34.749387,"lng":135.33645},{"town":"新甲陽町","koaza":"","lat":34.762257,"lng":135.336701},{"town":"神明町","koaza":"","lat":34.741981,"lng":135.350344},{"town":"鷲林寺","koaza":"","lat":34.772895,"lng":135.302032},{"town":"鷲林寺","koaza":"剣谷","lat":34.779402,"lng":135.311851},{"town":"鷲林寺一丁目","koaza":"","lat":34.77646,"lng":135.311588},{"town":"鷲林寺二丁目","koaza":"","lat":34.776186,"lng":135.317905},{"town":"鷲林寺町","koaza":"","lat":34.774396,"lng":135.310047},{"town":"鷲林寺南町","koaza":"","lat":34.769838,"lng":135.313206},{"town":"城ケ堀町","koaza":"","lat":34.742569,"lng":135.340415},{"town":"神祇官町","koaza":"","lat":34.739888,"lng":135.353464},{"town":"末広町","koaza":"","lat":34.742617,"lng":135.336922},{"town":"角石町","koaza":"","lat":34.758886,"lng":135.318267},{"town":"すみれ台一丁目","koaza":"","lat":34.819164,"lng":135.244084},{"town":"すみれ台二丁目","koaza":"","lat":34.819161,"lng":135.238525},{"town":"すみれ台三丁目","koaza":"","lat":34.818305,"lng":135.235271},{"town":"染殿町","koaza":"","lat":34.73388,"lng":135.345209},{"town":"大社町","koaza":"","lat":34.752788,"lng":135.340061},{"town":"高木西町","koaza":"","lat":34.750097,"lng":135.359969},{"town":"高木東町","koaza":"","lat":34.750295,"lng":135.363215},{"town":"高座町","koaza":"","lat":34.754825,"lng":135.344147},{"town":"高須町一丁目","koaza":"","lat":34.701722,"lng":135.371981},{"town":"高須町二丁目","koaza":"","lat":34.706789,"lng":135.367728},{"town":"高塚町","koaza":"","lat":34.743371,"lng":135.318576},{"town":"高畑町","koaza":"","lat":34.740738,"lng":135.362126},{"town":"高松町","koaza":"","lat":34.744483,"lng":135.35826},{"town":"田代町","koaza":"","lat":34.744723,"lng":135.362689},{"town":"田近野町","koaza":"","lat":34.777814,"lng":135.371949},{"town":"建石町","koaza":"","lat":34.729401,"lng":135.333812},{"town":"田中町","koaza":"","lat":34.736492,"lng":135.337229},{"town":"段上町一丁目","koaza":"","lat":34.767487,"lng":135.364452},{"town":"段上町二丁目","koaza":"","lat":34.769537,"lng":135.365205},{"town":"段上町三丁目","koaza":"","lat":34.771757,"lng":135.365155},{"town":"段上町四丁目","koaza":"","lat":34.772951,"lng":135.360972},{"town":"段上町五丁目","koaza":"","lat":34.774094,"lng":135.364259},{"town":"段上町六丁目","koaza":"","lat":34.772668,"lng":135.367555},{"town":"段上町七丁目","koaza":"","lat":34.769507,"lng":135.369115},{"town":"段上町八丁目","koaza":"","lat":34.766763,"lng":135.367468},{"town":"千歳町","koaza":"","lat":34.740766,"lng":135.331484},{"town":"津田町","koaza":"","lat":34.740311,"lng":135.345713},{"town":"堤町","koaza":"","lat":34.757113,"lng":135.370918},{"town":"津門綾羽町","koaza":"","lat":34.733682,"lng":135.355531},{"town":"津門飯田町","koaza":"","lat":34.737108,"lng":135.361495},{"town":"津門稲荷町","koaza":"","lat":34.736227,"lng":135.351767},{"town":"津門大箇町","koaza":"","lat":34.735222,"lng":135.356574},{"town":"津門大塚町","koaza":"","lat":34.737486,"lng":135.354735},{"town":"津門川町","koaza":"","lat":34.732283,"lng":135.348128},{"town":"津門呉羽町","koaza":"","lat":34.731995,"lng":135.354251},{"town":"津門住江町","koaza":"","lat":34.728601,"lng":135.348287},{"town":"津門西口町","koaza":"","lat":34.734483,"lng":135.348288},{"town":"津門仁辺町","koaza":"","lat":34.734617,"lng":135.3515},{"town":"津門宝津町","koaza":"","lat":34.732798,"lng":135.350871},{"town":"天道町","koaza":"","lat":34.740692,"lng":135.369241},{"town":"常磐町","koaza":"","lat":34.740763,"lng":135.336984},{"town":"戸崎町","koaza":"","lat":34.733866,"lng":135.377718},{"town":"戸田町","koaza":"","lat":34.735384,"lng":135.340688},{"town":"殿山町","koaza":"","lat":34.744017,"lng":135.322115},{"town":"中島町","koaza":"","lat":34.740766,"lng":135.365991},{"town":"中須佐町","koaza":"","lat":34.742586,"lng":135.346138},{"town":"中殿町","koaza":"","lat":34.742681,"lng":135.348474},{"town":"中浜町","koaza":"","lat":34.731759,"lng":135.325345},{"town":"中前田町","koaza":"","lat":34.742634,"lng":135.343197},{"town":"中屋町","koaza":"","lat":34.750917,"lng":135.343742},{"town":"中葭原町","koaza":"","lat":34.728307,"lng":135.326089},{"town":"長田町","koaza":"","lat":34.74729,"lng":135.362335},{"town":"名塩一丁目","koaza":"","lat":34.830046,"lng":135.30251},{"town":"名塩二丁目","koaza":"","lat":34.830218,"lng":135.294146},{"town":"名塩三丁目","koaza":"","lat":34.831619,"lng":135.289978},{"town":"名塩赤坂","koaza":"","lat":34.837858,"lng":135.268942},{"town":"名塩ガーデン","koaza":"","lat":34.82791,"lng":135.287256},{"town":"名塩木之元","koaza":"","lat":34.824722,"lng":135.314186},{"town":"名塩さくら台一丁目","koaza":"","lat":34.837227,"lng":135.282426},{"town":"名塩さくら台二丁目","koaza":"","lat":34.836964,"lng":135.278581},{"town":"名塩さくら台三丁目","koaza":"","lat":34.839549,"lng":135.277866},{"town":"名塩さくら台四丁目","koaza":"","lat":34.838155,"lng":135.274128},{"town":"名塩山荘","koaza":"","lat":34.827241,"lng":135.290738},{"town":"名塩新町","koaza":"","lat":34.826975,"lng":135.311446},{"town":"名塩茶園町","koaza":"","lat":34.834828,"lng":135.283569},{"town":"名塩東久保","koaza":"","lat":34.833874,"lng":135.276097},{"town":"名塩平成台","koaza":"","lat":34.83042,"lng":135.282713},{"town":"名塩南台一丁目","koaza":"","lat":34.825428,"lng":135.300848},{"town":"名塩南台二丁目","koaza":"","lat":34.826034,"lng":135.297208},{"town":"名塩南台三丁目","koaza":"","lat":34.822895,"lng":135.301094},{"town":"名塩南台四丁目","koaza":"","lat":34.82347,"lng":135.302858},{"town":"名塩美山","koaza":"","lat":34.846545,"lng":135.270286},{"town":"名次町","koaza":"","lat":34.74999,"lng":135.331786},{"town":"生瀬高台","koaza":"","lat":34.814744,"lng":135.32403},{"town":"生瀬町一丁目","koaza":"","lat":34.820172,"lng":135.327347},{"town":"生瀬町二丁目","koaza":"","lat":34.818779,"lng":135.327374},{"town":"生瀬東町","koaza":"","lat":34.815688,"lng":135.335677},{"town":"生瀬武庫川町","koaza":"","lat":34.817319,"lng":135.331442},{"town":"鳴尾町一丁目","koaza":"","lat":34.717337,"lng":135.372427},{"town":"鳴尾町二丁目","koaza":"","lat":34.714834,"lng":135.371214},{"town":"鳴尾町三丁目","koaza":"","lat":34.718288,"lng":135.369794},{"town":"鳴尾町四丁目","koaza":"","lat":34.716078,"lng":135.36847},{"town":"鳴尾町五丁目","koaza":"","lat":34.718072,"lng":135.367204},{"town":"鳴尾浜一丁目","koaza":"","lat":34.699577,"lng":135.363644},{"town":"鳴尾浜二丁目","koaza":"","lat":34.692814,"lng":135.365088},{"town":"鳴尾浜三丁目","koaza":"","lat":34.695519,"lng":135.358765},{"town":"南郷町","koaza":"","lat":34.746196,"lng":135.332139},{"town":"仁川五ケ山町","koaza":"","lat":34.771384,"lng":135.349185},{"town":"仁川町一丁目","koaza":"","lat":34.775638,"lng":135.365807},{"town":"仁川町二丁目","koaza":"","lat":34.774272,"lng":135.359412},{"town":"仁川町三丁目","koaza":"","lat":34.772569,"lng":135.356407},{"town":"仁川町四丁目","koaza":"","lat":34.771146,"lng":135.353175},{"town":"仁川町五丁目","koaza":"","lat":34.77309,"lng":135.350849},{"town":"仁川町六丁目","koaza":"","lat":34.780177,"lng":135.332513},{"town":"仁川百合野町","koaza":"","lat":34.771325,"lng":135.343339},{"town":"西田町","koaza":"","lat":34.743427,"lng":135.336879},{"town":"西宮浜一丁目","koaza":"","lat":34.717698,"lng":135.337483},{"town":"西宮浜二丁目","koaza":"","lat":34.71368,"lng":135.336409},{"town":"西宮浜三丁目","koaza":"","lat":34.719103,"lng":135.331064},{"town":"西宮浜四丁目","koaza":"","lat":34.713577,"lng":135.328786},{"town":"西波止町","koaza":"","lat":34.723498,"lng":135.33331},{"town":"西平町","koaza":"","lat":34.756944,"lng":135.324561},{"town":"能登町","koaza":"","lat":34.752007,"lng":135.351096},{"town":"野間町","koaza":"","lat":34.756519,"lng":135.359867},{"town":"羽衣町","koaza":"","lat":34.740541,"lng":135.327093},{"town":"櫨塚町","koaza":"","lat":34.740327,"lng":135.343268},{"town":"花園町","koaza":"","lat":34.725714,"lng":135.369279},{"town":"花の峯","koaza":"","lat":34.823505,"lng":135.328104},{"town":"浜甲子園一丁目","koaza":"","lat":34.71327,"lng":135.356993},{"town":"浜甲子園二丁目","koaza":"","lat":34.714372,"lng":135.354408},{"town":"浜甲子園三丁目","koaza":"","lat":34.715898,"lng":135.352454},{"town":"浜甲子園四丁目","koaza":"","lat":34.717541,"lng":135.350531},{"town":"浜町","koaza":"","lat":34.727981,"lng":135.336934},{"town":"浜松原町","koaza":"","lat":34.727347,"lng":135.346091},{"town":"浜脇町","koaza":"","lat":34.732479,"lng":135.336993},{"town":"林田町","koaza":"","lat":34.757375,"lng":135.361877},{"town":"馬場町","koaza":"","lat":34.735144,"lng":135.337841},{"town":"東鳴尾町一丁目","koaza":"","lat":34.713595,"lng":135.378882},{"town":"東鳴尾町二丁目","koaza":"","lat":34.710218,"lng":135.377689},{"town":"東浜町","koaza":"","lat":34.724206,"lng":135.344175},{"town":"東町一丁目","koaza":"","lat":34.727086,"lng":135.343483},{"town":"東町二丁目","koaza":"","lat":34.726163,"lng":135.340512},{"town":"東山台一丁目","koaza":"","lat":34.829058,"lng":135.310898},{"town":"東山台二丁目","koaza":"","lat":34.830342,"lng":135.31429},{"town":"東山台三丁目","koaza":"","lat":34.833039,"lng":135.313225},{"town":"東山台四丁目","koaza":"","lat":34.833126,"lng":135.308878},{"town":"東山台五丁目","koaza":"","lat":34.830808,"lng":135.307529},{"town":"樋之池町","koaza":"","lat":34.751635,"lng":135.320287},{"town":"樋ノ口町一丁目","koaza":"","lat":34.762835,"lng":135.371062},{"town":"樋ノ口町二丁目","koaza":"","lat":34.759808,"lng":135.370043},{"town":"日野町","koaza":"","lat":34.750469,"lng":135.372206},{"town":"平木町","koaza":"","lat":34.746057,"lng":135.350215},{"town":"平松町","koaza":"","lat":34.73961,"lng":135.336882},{"town":"広田町","koaza":"","lat":34.751059,"lng":135.347058},{"town":"毘沙門町","koaza":"","lat":34.759362,"lng":135.320756},{"town":"深津町","koaza":"","lat":34.740668,"lng":135.357839},{"town":"深谷町","koaza":"","lat":34.74702,"lng":135.317871},{"town":"伏原町","koaza":"","lat":34.753976,"lng":135.35927},{"town":"二見町","koaza":"","lat":34.740631,"lng":135.372278},{"town":"古川町","koaza":"","lat":34.713192,"lng":135.368006},{"town":"分銅町","koaza":"","lat":34.741813,"lng":135.336953},{"town":"宝生ケ丘一丁目","koaza":"","lat":34.813823,"lng":135.331594},{"town":"宝生ケ丘二丁目","koaza":"","lat":34.813967,"lng":135.328109},{"town":"豊楽町","koaza":"","lat":34.75337,"lng":135.324788},{"town":"堀切町","koaza":"","lat":34.730662,"lng":135.325919},{"town":"本町","koaza":"","lat":34.73391,"lng":135.339799},{"town":"前浜町","koaza":"","lat":34.727357,"lng":135.332807},{"town":"松生町","koaza":"","lat":34.74648,"lng":135.328028},{"town":"松風町","koaza":"","lat":34.754088,"lng":135.327475},{"town":"松ケ丘町","koaza":"","lat":34.748471,"lng":135.32143},{"town":"松下町","koaza":"","lat":34.735791,"lng":135.327925},{"town":"松園町","koaza":"","lat":34.739737,"lng":135.322464},{"town":"松並町","koaza":"","lat":34.74557,"lng":135.374801},{"town":"松原町","koaza":"","lat":34.736188,"lng":135.346244},{"town":"松山町","koaza":"","lat":34.747154,"lng":135.372051},{"town":"丸橋町","koaza":"","lat":34.752699,"lng":135.353851},{"town":"満池谷町","koaza":"","lat":34.748862,"lng":135.334384},{"town":"美作町","koaza":"","lat":34.756025,"lng":135.320879},{"town":"南甲子園一丁目","koaza":"","lat":34.717012,"lng":135.357839},{"town":"南甲子園二丁目","koaza":"","lat":34.718384,"lng":135.355141},{"town":"南甲子園三丁目","koaza":"","lat":34.719389,"lng":135.352665},{"town":"南越木岩町","koaza":"","lat":34.749165,"lng":135.327616},{"town":"南昭和町","koaza":"","lat":34.74643,"lng":135.353655},{"town":"宮西町","koaza":"","lat":34.735727,"lng":135.330865},{"town":"宮前町","koaza":"","lat":34.732407,"lng":135.334417},{"town":"武庫川町","koaza":"","lat":34.717051,"lng":135.380158},{"town":"室川町","koaza":"","lat":34.745406,"lng":135.342888},{"town":"森下町","koaza":"","lat":34.743949,"lng":135.350337},{"town":"門前町","koaza":"","lat":34.757391,"lng":135.364599},{"town":"門戸岡田町","koaza":"","lat":34.757749,"lng":135.353648},{"town":"門戸荘","koaza":"","lat":34.756125,"lng":135.356364},{"town":"門戸西町","koaza":"","lat":34.762544,"lng":135.352365},{"town":"門戸東町","koaza":"","lat":34.760297,"lng":135.356763},{"town":"薬師町","koaza":"","lat":34.754001,"lng":135.363545},{"town":"屋敷町","koaza":"","lat":34.735262,"lng":135.325612},{"town":"安井町","koaza":"","lat":34.739717,"lng":135.331564},{"town":"柳本町","koaza":"","lat":34.749061,"lng":135.342714},{"town":"山口町上山口","koaza":"","lat":34.815953,"lng":135.240184},{"town":"山口町上山口一丁目","koaza":"","lat":34.82422,"lng":135.243097},{"town":"山口町上山口二丁目","koaza":"","lat":34.826673,"lng":135.244523},{"town":"山口町上山口三丁目","koaza":"","lat":34.827554,"lng":135.248671},{"town":"山口町上山口四丁目","koaza":"","lat":34.824318,"lng":135.248246},{"town":"山口町金仙寺","koaza":"","lat":34.815803,"lng":135.261388},{"town":"山口町金仙寺一丁目","koaza":"","lat":34.82325,"lng":135.252929},{"town":"山口町金仙寺二丁目","koaza":"","lat":34.821447,"lng":135.252519},{"town":"山口町金仙寺三丁目","koaza":"","lat":34.824349,"lng":135.252275},{"town":"山口町香花園","koaza":"","lat":34.805464,"lng":135.245864},{"town":"山口町下山口","koaza":"","lat":34.831315,"lng":135.260458},{"town":"山口町下山口一丁目","koaza":"","lat":34.836455,"lng":135.238265},{"town":"山口町下山口二丁目","koaza":"","lat":34.83609,"lng":135.236584},{"town":"山口町下山口三丁目","koaza":"","lat":34.832889,"lng":135.238789},{"town":"山口町下山口四丁目","koaza":"","lat":34.829327,"lng":135.239472},{"town":"山口町下山口五丁目","koaza":"","lat":34.830497,"lng":135.242537},{"town":"山口町中野","koaza":"","lat":34.808882,"lng":135.259225},{"town":"山口町中野一丁目","koaza":"","lat":34.810972,"lng":135.250406},{"town":"山口町中野二丁目","koaza":"","lat":34.814423,"lng":135.248432},{"town":"山口町中野三丁目","koaza":"","lat":34.814706,"lng":135.24994},{"town":"山口町名来","koaza":"","lat":34.842371,"lng":135.24455},{"town":"山口町名来一丁目","koaza":"","lat":34.844325,"lng":135.236009},{"town":"山口町名来二丁目","koaza":"","lat":34.840412,"lng":135.236342},{"town":"山口町阪神流通センター一丁目","koaza":"","lat":34.825655,"lng":135.234653},{"town":"山口町阪神流通センター二丁目","koaza":"","lat":34.824444,"lng":135.230828},{"town":"山口町阪神流通センター三丁目","koaza":"","lat":34.830502,"lng":135.233477},{"town":"山口町船坂","koaza":"","lat":34.800531,"lng":135.285864},{"town":"湯元町","koaza":"","lat":34.778255,"lng":135.313976},{"town":"弓場町","koaza":"","lat":34.73462,"lng":135.322736},{"town":"用海町","koaza":"","lat":34.731481,"lng":135.344195},{"town":"与古道町","koaza":"","lat":34.734966,"lng":135.342825},{"town":"両度町","koaza":"","lat":34.743977,"lng":135.353442},{"town":"六湛寺町","koaza":"","lat":34.737603,"lng":135.34189},{"town":"六軒町","koaza":"","lat":34.758291,"lng":135.335809},{"town":"若草町一丁目","koaza":"","lat":34.728648,"lng":135.373989},{"town":"若草町二丁目","koaza":"","lat":34.726839,"lng":135.373458},{"town":"若松町","koaza":"","lat":34.743123,"lng":135.333127},{"town":"若山町","koaza":"","lat":34.759996,"lng":135.365086},{"town":"和上町","koaza":"","lat":34.737858,"lng":135.337799}]