[{"town":"相生町","lat":"37.044229","lng":"136.966663"},{"town":"青葉台町","lat":"37.021354","lng":"136.941814"},{"town":"青山町","lat":"37.047151","lng":"136.913655"},{"town":"旭町","lat":"37.026467","lng":"136.914976"},{"town":"麻生町","lat":"37.011201","lng":"137.014983"},{"town":"阿良町","lat":"37.047593","lng":"136.963247"},{"town":"新屋町","lat":"37.063928","lng":"136.896163"},{"town":"飯川町","lat":"37.004521","lng":"136.936600"},{"town":"生駒町","lat":"37.046245","lng":"136.965362"},{"town":"石崎町","lat":"37.078718","lng":"136.931643"},{"town":"石崎町香島一丁目","lat":"37.082797","lng":"136.926828"},{"town":"石崎町香島二丁目","lat":"37.080837","lng":"136.925057"},{"town":"石崎町香島三丁目","lat":"37.079885","lng":"136.923946"},{"town":"一本杉町","lat":"37.047114","lng":"136.962538"},{"town":"今町","lat":"37.043548","lng":"136.969152"},{"town":"魚町","lat":"37.048879","lng":"136.961185"},{"town":"後畠町","lat":"37.025366","lng":"136.970734"},{"town":"鵜浦町","lat":"37.093962","lng":"137.042352"},{"town":"馬出町","lat":"37.046046","lng":"136.960855"},{"town":"上野ヶ丘町","lat":"37.059911","lng":"136.883507"},{"town":"江曽町","lat":"36.999372","lng":"136.943155"},{"town":"江泊町","lat":"37.065202","lng":"137.041670"},{"town":"大田新町","lat":"37.051145","lng":"136.998909"},{"town":"大田町","lat":"37.061889","lng":"137.013544"},{"town":"大津町","lat":"37.062833","lng":"136.845889"},{"town":"大手町","lat":"37.044415","lng":"136.965358"},{"town":"大泊町","lat":"36.965914","lng":"137.016200"},{"town":"大野木町","lat":"37.076971","lng":"137.045851"},{"town":"岡町","lat":"37.059656","lng":"137.022743"},{"town":"奥原町","lat":"37.074303","lng":"136.914856"},{"town":"小栗町","lat":"37.021405","lng":"137.014873"},{"town":"垣吉町","lat":"37.058674","lng":"136.898509"},{"town":"鍜冶町","lat":"37.043862","lng":"136.970544"},{"town":"上府中町","lat":"37.041323","lng":"136.969626"},{"town":"亀山町","lat":"37.046199","lng":"136.963387"},{"town":"川尻町","lat":"37.069944","lng":"136.894953"},{"town":"川原町","lat":"37.042497","lng":"136.969380"},{"town":"北藤橋町","lat":"37.044061","lng":"136.962232"},{"town":"木町","lat":"37.048320","lng":"136.962945"},{"town":"熊淵町","lat":"36.985434","lng":"137.001549"},{"town":"黒崎町","lat":"36.989970","lng":"137.036739"},{"town":"小池川原町","lat":"37.020403","lng":"136.971326"},{"town":"柑子町","lat":"37.027832","lng":"137.028575"},{"town":"光陽台","lat":"37.083487","lng":"136.924475"},{"town":"郡町","lat":"37.044981","lng":"136.973345"},{"town":"国下町","lat":"37.011151","lng":"136.954417"},{"town":"国分町","lat":"37.030864","lng":"136.952926"},{"town":"小島町","lat":"37.050128","lng":"136.952767"},{"town":"寿町","lat":"37.050525","lng":"136.965313"},{"town":"小丸山台一丁目","lat":"37.045466","lng":"136.955252"},{"town":"小丸山台二丁目","lat":"37.046476","lng":"136.952234"},{"town":"小丸山台三丁目","lat":"37.045975","lng":"136.949910"},{"town":"米町","lat":"37.047555","lng":"136.964758"},{"town":"栄町","lat":"37.033776","lng":"136.959257"},{"town":"作事町","lat":"37.045475","lng":"136.967595"},{"town":"桜町","lat":"37.051588","lng":"136.962653"},{"town":"佐野町","lat":"37.029355","lng":"137.005054"},{"town":"佐味町","lat":"37.042259","lng":"137.002715"},{"town":"沢野町","lat":"37.047063","lng":"137.026364"},{"town":"山王町","lat":"37.041280","lng":"136.972467"},{"town":"七原町","lat":"37.025009","lng":"136.868977"},{"town":"清水平町","lat":"37.022663","lng":"137.024938"},{"town":"下町","lat":"37.012821","lng":"136.936369"},{"town":"昭和町","lat":"37.049365","lng":"136.966688"},{"town":"白浜町","lat":"37.067895","lng":"136.875058"},{"town":"白馬町","lat":"37.020724","lng":"136.927118"},{"town":"白銀町","lat":"37.049507","lng":"136.962395"},{"town":"新保町","lat":"37.062203","lng":"136.923665"},{"town":"神明町","lat":"37.042644","lng":"136.965358"},{"town":"菅沢町","lat":"36.995363","lng":"137.016001"},{"town":"杉森町","lat":"37.049180","lng":"136.887792"},{"town":"須能町","lat":"37.005940","lng":"137.002533"},{"town":"泉南台","lat":"37.078029","lng":"136.921771"},{"town":"袖ケ江町","lat":"37.043135","lng":"136.967475"},{"town":"外林町","lat":"37.034019","lng":"137.030216"},{"town":"祖浜町","lat":"37.069364","lng":"136.931207"},{"town":"高田町","lat":"37.053132","lng":"136.897524"},{"town":"竹町","lat":"37.026771","lng":"136.976904"},{"town":"橘町","lat":"37.044798","lng":"136.967720"},{"town":"田鶴浜町","lat":"37.062039","lng":"136.888483"},{"town":"多根町","lat":"36.985694","lng":"136.972220"},{"town":"千野町","lat":"37.006906","lng":"136.966878"},{"town":"つつじが浜","lat":"37.053275","lng":"136.959920"},{"town":"津向町","lat":"37.060242","lng":"136.952978"},{"town":"天神川原町","lat":"37.031795","lng":"136.971637"},{"town":"東浜町","lat":"36.973112","lng":"137.036646"},{"town":"常盤町","lat":"37.049063","lng":"136.963302"},{"town":"所口町","lat":"37.037924","lng":"136.964588"},{"town":"殿町","lat":"37.048047","lng":"137.019756"},{"town":"富岡町","lat":"37.050246","lng":"136.960632"},{"town":"中島町上畠","lat":"37.131722","lng":"136.813516"},{"town":"中島町大平","lat":"37.141889","lng":"136.787217"},{"town":"中島町奥吉田","lat":"37.097054","lng":"136.843622"},{"town":"中島町小牧","lat":"37.146094","lng":"136.858036"},{"town":"中島町笠師","lat":"37.088521","lng":"136.831038"},{"town":"中島町鹿島台","lat":"37.127507","lng":"136.881068"},{"town":"中島町河崎","lat":"37.106952","lng":"136.842313"},{"town":"中島町河内","lat":"37.175413","lng":"136.822943"},{"town":"中島町上町","lat":"37.126579","lng":"136.843597"},{"town":"中島町北免田","lat":"37.126784","lng":"136.817848"},{"town":"中島町北免田上畠町屋鳥越入会地","lat":"37.134830","lng":"136.793545"},{"town":"中島町呉竹","lat":"37.194421","lng":"136.819027"},{"town":"中島町崎山","lat":"37.105263","lng":"136.853035"},{"town":"中島町塩津","lat":"37.080622","lng":"136.847213"},{"town":"中島町瀬嵐","lat":"37.117485","lng":"136.879831"},{"town":"中島町外","lat":"37.157689","lng":"136.867409"},{"town":"中島町外原","lat":"37.115811","lng":"136.784378"},{"town":"中島町田岸","lat":"37.162593","lng":"136.872745"},{"town":"中島町土川","lat":"37.109252","lng":"136.808037"},{"town":"中島町豊田","lat":"37.096802","lng":"136.816649"},{"town":"中島町豊田町","lat":"37.104258","lng":"136.829701"},{"town":"中島町鳥越","lat":"37.143852","lng":"136.802821"},{"town":"中島町長浦","lat":"37.129717","lng":"136.894635"},{"town":"中島町中島","lat":"37.120362","lng":"136.858219"},{"town":"中島町西谷内","lat":"37.166753","lng":"136.803629"},{"town":"中島町西谷内藤瀬河内入会地","lat":"37.150636","lng":"136.831311"},{"town":"中島町浜田","lat":"37.113017","lng":"136.839445"},{"town":"中島町深浦","lat":"37.136357","lng":"136.884706"},{"town":"中島町藤瀬","lat":"37.142741","lng":"136.822800"},{"town":"中島町筆染","lat":"37.102439","lng":"136.860528"},{"town":"中島町古江","lat":"37.152258","lng":"136.797530"},{"town":"中島町別所","lat":"37.172260","lng":"136.845094"},{"town":"中島町町屋","lat":"37.136702","lng":"136.806993"},{"town":"中島町町屋上畠北免田入会地","lat":"37.129242","lng":"136.791290"},{"town":"中島町宮前","lat":"37.129598","lng":"136.835809"},{"town":"中島町谷内","lat":"37.137867","lng":"136.841165"},{"town":"中島町山戸田","lat":"37.123980","lng":"136.824807"},{"town":"中島町横田","lat":"37.138321","lng":"136.830494"},{"town":"中島町横見","lat":"37.170792","lng":"136.870703"},{"town":"中挟町","lat":"37.005422","lng":"136.951358"},{"town":"なぎの浦","lat":"37.054923","lng":"136.957525"},{"town":"西下町","lat":"37.041775","lng":"136.891863"},{"town":"西藤橋町","lat":"37.043688","lng":"136.957740"},{"town":"塗師町","lat":"37.044789","lng":"136.969237"},{"town":"能登島えの目町","lat":"37.152822","lng":"137.041603"},{"town":"能登島小浦町","lat":"37.135406","lng":"137.040486"},{"town":"能登島久木町","lat":"37.149313","lng":"136.912756"},{"town":"能登島向田町","lat":"37.129614","lng":"137.002003"},{"town":"能登島佐波町","lat":"37.115051","lng":"136.982562"},{"town":"能登島須曽町","lat":"37.108407","lng":"136.964229"},{"town":"能登島田尻町","lat":"37.146700","lng":"136.907476"},{"town":"能登島通町","lat":"37.135721","lng":"136.907461"},{"town":"能登島長崎町","lat":"37.142368","lng":"137.034101"},{"town":"能登島閨町","lat":"37.136220","lng":"136.936162"},{"town":"能登島野崎町","lat":"37.126617","lng":"137.034835"},{"town":"能登島祖母ケ浦町","lat":"37.151301","lng":"137.026326"},{"town":"能登島八ケ崎町","lat":"37.156839","lng":"137.035815"},{"town":"能登島半浦町","lat":"37.114085","lng":"136.945860"},{"town":"能登島日出ケ島町","lat":"37.117617","lng":"137.028476"},{"town":"能登島百万石町","lat":"37.140271","lng":"136.914206"},{"town":"能登島二穴町","lat":"37.119411","lng":"137.016998"},{"town":"能登島別所町","lat":"37.121674","lng":"136.963007"},{"town":"能登島曲町","lat":"37.137689","lng":"136.979515"},{"town":"能登島南町","lat":"37.135773","lng":"136.959415"},{"town":"能登島無関町","lat":"37.136826","lng":"136.948760"},{"town":"八田町","lat":"36.997474","lng":"136.960315"},{"town":"花園町","lat":"36.982449","lng":"137.043951"},{"town":"東三階町","lat":"37.021407","lng":"136.914857"},{"town":"東山町","lat":"37.057235","lng":"136.904697"},{"town":"桧物町","lat":"37.045296","lng":"136.965262"},{"town":"深見町","lat":"37.058577","lng":"136.866890"},{"town":"藤野町","lat":"37.029098","lng":"136.969435"},{"town":"藤橋町","lat":"37.041154","lng":"136.941183"},{"town":"府中町","lat":"37.047459","lng":"136.968611"},{"town":"舟尾町","lat":"37.068077","lng":"136.905635"},{"town":"古府町","lat":"37.015361","lng":"136.970497"},{"town":"古城町","lat":"37.013729","lng":"136.978955"},{"town":"古屋敷町","lat":"37.023430","lng":"136.975325"},{"town":"細口町","lat":"37.029414","lng":"136.936711"},{"town":"松百町","lat":"37.061844","lng":"136.943295"},{"town":"松本町","lat":"37.049099","lng":"136.959409"},{"town":"万行町","lat":"37.032828","lng":"136.990047"},{"town":"三島町","lat":"37.048360","lng":"136.965358"},{"town":"御祓町","lat":"37.042815","lng":"136.963605"},{"town":"湊町一丁目","lat":"37.045947","lng":"136.970270"},{"town":"湊町二丁目","lat":"37.045790","lng":"136.971910"},{"town":"南ケ丘町","lat":"37.018995","lng":"136.963679"},{"town":"南藤橋町","lat":"37.041983","lng":"136.960996"},{"town":"三引町","lat":"37.054094","lng":"136.876622"},{"town":"三室町","lat":"37.092983","lng":"137.022957"},{"town":"本府中町","lat":"37.036566","lng":"136.970248"},{"town":"矢田新町","lat":"37.048610","lng":"136.979996"},{"town":"矢田町","lat":"37.027428","lng":"136.983357"},{"town":"山崎町","lat":"36.975605","lng":"137.012767"},{"town":"大和町","lat":"37.042505","lng":"136.977021"},{"town":"八幡町","lat":"37.018275","lng":"136.948110"},{"town":"湯川町","lat":"37.075755","lng":"137.029741"},{"town":"吉田町","lat":"37.034510","lng":"136.870626"},{"town":"若林町","lat":"37.002706","lng":"136.927887"},{"town":"和倉町","lat":"37.084833","lng":"136.914215"},{"town":"和倉町ひばり一丁目","lat":"37.086987","lng":"136.924315"},{"town":"和倉町ひばり二丁目","lat":"37.084966","lng":"136.923682"},{"town":"和倉町ひばり三丁目","lat":"37.083159","lng":"136.919989"},{"town":"佐々波町","lat":"37.008624","lng":"137.036139"},{"town":"庵町","lat":"37.038930","lng":"137.038361"},{"town":"直津町","lat":"37.049452","lng":"136.921517"},{"town":"赤浦町","lat":"37.051434","lng":"136.937172"},{"town":"赤浦新町","lat":"37.056986","lng":"136.931029"},{"town":"池崎町","lat":"37.037379","lng":"136.914258"},{"town":"盤若野町","lat":"37.030723","lng":"136.907608"},{"town":"町屋町","lat":"37.032020","lng":"136.900677"},{"town":"満仁町","lat":"37.040749","lng":"136.899463"},{"town":"温井町","lat":"37.034427","lng":"136.896773"},{"town":"西三階町","lat":"37.022678","lng":"136.898680"},{"town":"伊久留町","lat":"37.027598","lng":"136.883353"}]