[{"town":"相滝町","lat":"36.339795","lng":"136.596001"},{"town":"青葉台一丁目","lat":"36.515913","lng":"136.580861"},{"town":"青葉台二丁目","lat":"36.514774","lng":"136.582036"},{"town":"明島町","lat":"36.461879","lng":"136.608952"},{"town":"旭丘一丁目","lat":"36.552502","lng":"136.573808"},{"town":"旭丘二丁目","lat":"36.551706","lng":"136.568637"},{"town":"旭丘三丁目","lat":"36.550689","lng":"136.563503"},{"town":"旭丘四丁目","lat":"36.551204","lng":"136.558394"},{"town":"あさひ荘苑一丁目","lat":"36.535080","lng":"136.574885"},{"town":"あさひ荘苑二丁目","lat":"36.536519","lng":"136.575512"},{"town":"あさひ荘苑三丁目","lat":"36.535656","lng":"136.577691"},{"town":"あさひ荘苑四丁目","lat":"36.537281","lng":"136.579561"},{"town":"阿手町","lat":"36.292247","lng":"136.570828"},{"town":"阿弥陀島町","lat":"36.504906","lng":"136.514823"},{"town":"荒谷","lat":"36.256858","lng":"136.687362"},{"town":"荒屋柏野町","lat":"36.498651","lng":"136.538938"},{"town":"荒屋町","lat":"36.484772","lng":"136.607879"},{"town":"行町","lat":"36.487512","lng":"136.591768"},{"town":"安養寺","lat":"36.497924","lng":"136.595502"},{"town":"安養寺町","lat":"36.494585","lng":"136.594252"},{"town":"石立町","lat":"36.510240","lng":"136.505371"},{"town":"石同新町","lat":"36.519735","lng":"136.570013"},{"town":"石同町","lat":"36.522221","lng":"136.568967"},{"town":"井関町","lat":"36.490785","lng":"136.507362"},{"town":"一塚町","lat":"36.558607","lng":"136.560487"},{"town":"市原","lat":"36.317577","lng":"136.650401"},{"town":"乾町","lat":"36.523661","lng":"136.583048"},{"town":"井口町","lat":"36.474282","lng":"136.605165"},{"town":"今平町","lat":"36.499757","lng":"136.579278"},{"town":"内方新保町","lat":"36.487621","lng":"136.555721"},{"town":"漆島町","lat":"36.472926","lng":"136.579775"},{"town":"大竹町","lat":"36.471417","lng":"136.589569"},{"town":"小川町","lat":"36.523624","lng":"136.521899"},{"town":"尾添","lat":"36.216223","lng":"136.729585"},{"town":"乙丸町","lat":"36.497677","lng":"136.573516"},{"town":"女原","lat":"36.268713","lng":"136.655885"},{"town":"小柳町","lat":"36.472600","lng":"136.617586"},{"town":"笠間新一丁目","lat":"36.505449","lng":"136.529699"},{"town":"笠間町","lat":"36.505134","lng":"136.523204"},{"town":"鹿島平","lat":"36.504163","lng":"136.508869"},{"town":"鍛治町","lat":"36.521591","lng":"136.565749"},{"town":"鹿島町","lat":"36.502941","lng":"136.501729"},{"town":"柏町","lat":"36.504516","lng":"136.534173"},{"town":"数瀬町","lat":"36.301700","lng":"136.588383"},{"town":"釜清水町","lat":"36.357992","lng":"136.614247"},{"town":"釜谷","lat":"36.247329","lng":"136.649666"},{"town":"上小川町","lat":"36.519403","lng":"136.520672"},{"town":"上柏野町","lat":"36.496299","lng":"136.546696"},{"town":"上島田町","lat":"36.482371","lng":"136.549616"},{"town":"上野町","lat":"36.372867","lng":"136.604429"},{"town":"上二口町","lat":"36.505083","lng":"136.576511"},{"town":"上安田町","lat":"36.481406","lng":"136.536414"},{"town":"上吉谷町","lat":"36.328687","lng":"136.632463"},{"town":"河合町","lat":"36.396328","lng":"136.609910"},{"town":"河内町板尾","lat":"36.382648","lng":"136.677627"},{"town":"河内町内尾","lat":"36.334261","lng":"136.709460"},{"town":"河内町奥池","lat":"36.350480","lng":"136.721570"},{"town":"河内町きりの里","lat":"36.390897","lng":"136.616920"},{"town":"河内町金間","lat":"36.359284","lng":"136.655755"},{"town":"河内町口直海","lat":"36.400414","lng":"136.642029"},{"town":"河内町久保","lat":"36.377315","lng":"136.630909"},{"town":"河内町江津","lat":"36.385156","lng":"136.615315"},{"town":"河内町下折","lat":"36.349545","lng":"136.675790"},{"town":"河内町中直海","lat":"36.391076","lng":"136.641798"},{"town":"河内町吹上","lat":"36.373787","lng":"136.639590"},{"town":"河内町福岡","lat":"36.393971","lng":"136.625005"},{"town":"河内町ふじが丘","lat":"36.399191","lng":"136.626421"},{"town":"河内町吉岡","lat":"36.375410","lng":"136.621893"},{"town":"河原山町","lat":"36.304400","lng":"136.632563"},{"town":"北島町","lat":"36.499589","lng":"136.516467"},{"town":"北成町","lat":"36.535062","lng":"136.556448"},{"town":"北安田西一丁目","lat":"36.524193","lng":"136.545733"},{"town":"北安田西二丁目","lat":"36.521254","lng":"136.545733"},{"town":"北安田町","lat":"36.524276","lng":"136.549223"},{"town":"木滑","lat":"36.306936","lng":"136.650774"},{"town":"木滑新","lat":"36.290795","lng":"136.666970"},{"town":"倉部町","lat":"36.557627","lng":"136.552398"},{"town":"倉光十丁目","lat":"36.509942","lng":"136.568885"},{"town":"倉光一丁目","lat":"36.512669","lng":"136.569150"},{"town":"倉光二丁目","lat":"36.513891","lng":"136.565757"},{"town":"倉光三丁目","lat":"36.511089","lng":"136.565574"},{"town":"倉光四丁目","lat":"36.512796","lng":"136.562641"},{"town":"倉光五丁目","lat":"36.516146","lng":"136.566009"},{"town":"倉光六丁目","lat":"36.516057","lng":"136.568230"},{"town":"倉光七丁目","lat":"36.516018","lng":"136.570026"},{"town":"倉光八丁目","lat":"36.515530","lng":"136.572263"},{"town":"倉光九丁目","lat":"36.510946","lng":"136.572223"},{"town":"倉光西二丁目","lat":"36.516500","lng":"136.562901"},{"town":"黒瀬町","lat":"36.513768","lng":"136.522112"},{"town":"桑島","lat":"36.193456","lng":"136.658869"},{"town":"剣崎町","lat":"36.497395","lng":"136.562076"},{"town":"源兵島町","lat":"36.485807","lng":"136.519451"},{"town":"木津町","lat":"36.502258","lng":"136.588794"},{"town":"幸明町","lat":"36.515989","lng":"136.578022"},{"town":"御影堂町","lat":"36.488147","lng":"136.549537"},{"town":"小上町","lat":"36.501563","lng":"136.542759"},{"town":"五十谷町","lat":"36.317078","lng":"136.560091"},{"town":"五歩市町","lat":"36.531752","lng":"136.576567"},{"town":"五味島","lat":"36.255601","lng":"136.653887"},{"town":"坂尻町","lat":"36.482290","lng":"136.623199"},{"town":"佐良","lat":"36.332608","lng":"136.653181"},{"town":"三宮町","lat":"36.434970","lng":"136.646820"},{"town":"七原町","lat":"36.485018","lng":"136.597643"},{"town":"七郎町","lat":"36.515647","lng":"136.525826"},{"town":"柴木二丁目","lat":"36.493627","lng":"136.602100"},{"town":"柴木町","lat":"36.491310","lng":"136.601295"},{"town":"島田町","lat":"36.481841","lng":"136.557132"},{"town":"下柏野町","lat":"36.496999","lng":"136.531907"},{"town":"下田原","lat":"36.201863","lng":"136.584736"},{"town":"下野町","lat":"36.383681","lng":"136.605885"},{"town":"下吉谷町","lat":"36.340512","lng":"136.628142"},{"town":"白峰","lat":"36.131836","lng":"136.686909"},{"town":"白山町","lat":"36.419823","lng":"136.644587"},{"town":"新田町","lat":"36.533341","lng":"136.570546"},{"town":"新成二丁目","lat":"36.532967","lng":"136.557959"},{"town":"新成三丁目","lat":"36.532813","lng":"136.555727"},{"town":"新成四丁目","lat":"36.529606","lng":"136.554799"},{"town":"末広一丁目","lat":"36.520398","lng":"136.567540"},{"town":"末広二丁目","lat":"36.518198","lng":"136.567616"},{"town":"末正町","lat":"36.481113","lng":"136.505027"},{"town":"菅波町","lat":"36.490180","lng":"136.572027"},{"town":"杉森町","lat":"36.350171","lng":"136.607581"},{"town":"瀬木野町","lat":"36.403988","lng":"136.619368"},{"town":"瀬戸","lat":"36.281657","lng":"136.657224"},{"town":"瀬波","lat":"36.307767","lng":"136.691450"},{"town":"専福寺町","lat":"36.524005","lng":"136.590452"},{"town":"相川新町","lat":"36.547902","lng":"136.542581"},{"town":"相川町","lat":"36.542172","lng":"136.542680"},{"town":"竹松町","lat":"36.546544","lng":"136.555606"},{"town":"田地町","lat":"36.490241","lng":"136.578406"},{"town":"辰巳町","lat":"36.521973","lng":"136.567325"},{"town":"田中町","lat":"36.529608","lng":"136.587783"},{"town":"知気寺町","lat":"36.484217","lng":"136.602952"},{"town":"茶屋一丁目","lat":"36.523183","lng":"136.560628"},{"town":"茶屋二丁目","lat":"36.519460","lng":"136.560971"},{"town":"中宮","lat":"36.259185","lng":"136.763637"},{"town":"長屋町","lat":"36.483385","lng":"136.497843"},{"town":"千代野西一丁目","lat":"36.521317","lng":"136.538684"},{"town":"千代野西二丁目","lat":"36.521669","lng":"136.535982"},{"town":"千代野西三丁目","lat":"36.523728","lng":"136.536014"},{"town":"千代野西四丁目","lat":"36.523345","lng":"136.538632"},{"town":"千代野西五丁目","lat":"36.525371","lng":"136.538585"},{"town":"千代野西六丁目","lat":"36.525426","lng":"136.535979"},{"town":"千代野西七丁目","lat":"36.528120","lng":"136.536075"},{"town":"千代野西八丁目","lat":"36.527574","lng":"136.538672"},{"town":"千代野東一丁目","lat":"36.520548","lng":"136.543355"},{"town":"千代野東二丁目","lat":"36.519710","lng":"136.541818"},{"town":"千代野東三丁目","lat":"36.522031","lng":"136.541147"},{"town":"千代野東四丁目","lat":"36.525260","lng":"136.541222"},{"town":"千代野東五丁目","lat":"36.524758","lng":"136.543538"},{"town":"千代野東六丁目","lat":"36.528047","lng":"136.542127"},{"town":"千代野南一丁目","lat":"36.517785","lng":"136.541925"},{"town":"千代野南二丁目","lat":"36.519981","lng":"136.537632"},{"town":"月橋町","lat":"36.464151","lng":"136.630824"},{"town":"鶴来朝日町","lat":"36.448555","lng":"136.632181"},{"town":"鶴来今町","lat":"36.441802","lng":"136.630073"},{"town":"鶴来後山","lat":"36.454041","lng":"136.648202"},{"town":"鶴来大国町","lat":"36.452006","lng":"136.620890"},{"town":"鶴来上東町","lat":"36.447357","lng":"136.628445"},{"town":"鶴来桑島町","lat":"36.496494","lng":"136.597749"},{"town":"鶴来下東町","lat":"36.448619","lng":"136.627637"},{"town":"鶴来新町","lat":"36.445011","lng":"136.628892"},{"town":"鶴来清沢町","lat":"36.447311","lng":"136.630473"},{"town":"鶴来千原","lat":"36.455086","lng":"136.639710"},{"town":"鶴来知守町","lat":"36.450827","lng":"136.627691"},{"town":"鶴来日詰町","lat":"36.450924","lng":"136.632628"},{"town":"鶴来日吉町","lat":"36.447335","lng":"136.640133"},{"town":"鶴来古町","lat":"36.447104","lng":"136.625314"},{"town":"鶴来本町一丁目","lat":"36.446730","lng":"136.627253"},{"town":"鶴来本町二丁目","lat":"36.448318","lng":"136.626781"},{"town":"鶴来本町三丁目","lat":"36.450175","lng":"136.625386"},{"town":"鶴来本町四丁目","lat":"36.454558","lng":"136.629349"},{"town":"鶴来水戸町","lat":"36.445259","lng":"136.621122"},{"town":"鶴来水戸町二丁目","lat":"36.443283","lng":"136.626454"},{"town":"鶴来水戸町三丁目","lat":"36.444607","lng":"136.624179"},{"town":"鶴来水戸町四丁目","lat":"36.446466","lng":"136.623098"},{"town":"出合島町","lat":"36.476358","lng":"136.528641"},{"town":"出合町","lat":"36.352924","lng":"136.590548"},{"town":"手取町","lat":"36.487244","lng":"136.502759"},{"town":"道法寺町","lat":"36.475509","lng":"136.634176"},{"town":"鴇ケ谷","lat":"36.241175","lng":"136.615952"},{"town":"徳丸町","lat":"36.522681","lng":"136.577844"},{"town":"徳光町","lat":"36.532609","lng":"136.532114"},{"town":"富光寺町","lat":"36.495215","lng":"136.600698"},{"town":"中奥町","lat":"36.517860","lng":"136.581006"},{"town":"中柏野町","lat":"36.498037","lng":"136.542465"},{"town":"中島町","lat":"36.408962","lng":"136.641180"},{"town":"長島町","lat":"36.492574","lng":"136.555106"},{"town":"中新保町","lat":"36.552889","lng":"136.578622"},{"town":"長竹町","lat":"36.521016","lng":"136.588960"},{"town":"中成二丁目","lat":"36.527161","lng":"136.554832"},{"town":"中ノ郷町","lat":"36.486179","lng":"136.585196"},{"town":"成町","lat":"36.522794","lng":"136.556739"},{"town":"西柏一丁目","lat":"36.502372","lng":"136.531044"},{"town":"西柏二丁目","lat":"36.501561","lng":"136.529494"},{"town":"西柏三丁目","lat":"36.500611","lng":"136.528288"},{"town":"西柏町","lat":"36.503345","lng":"136.532689"},{"town":"西佐良町","lat":"36.332938","lng":"136.639632"},{"town":"西美沢野一丁目","lat":"36.503257","lng":"136.529395"},{"town":"西美沢野町","lat":"36.504147","lng":"136.530862"},{"town":"西米光町","lat":"36.495919","lng":"136.501940"},{"town":"布市一丁目","lat":"36.522627","lng":"136.571083"},{"town":"布市二丁目","lat":"36.522556","lng":"136.573953"},{"town":"野地町","lat":"36.319555","lng":"136.584889"},{"town":"博労一丁目","lat":"36.521594","lng":"136.564610"},{"town":"博労二丁目","lat":"36.519835","lng":"136.565085"},{"town":"博労三丁目","lat":"36.518073","lng":"136.565211"},{"town":"橋爪新町","lat":"36.509104","lng":"136.585324"},{"town":"橋爪町","lat":"36.515783","lng":"136.585750"},{"town":"蓮池町","lat":"36.499919","lng":"136.497735"},{"town":"八田中町","lat":"36.558480","lng":"136.573235"},{"town":"八田町","lat":"36.560494","lng":"136.564166"},{"town":"馬場一丁目","lat":"36.521170","lng":"136.563063"},{"town":"馬場二丁目","lat":"36.518732","lng":"136.563024"},{"town":"番匠町","lat":"36.534264","lng":"136.582536"},{"town":"番田町","lat":"36.480150","lng":"136.526575"},{"town":"東一番町","lat":"36.523607","lng":"136.569315"},{"town":"東柏町","lat":"36.505482","lng":"136.534965"},{"town":"東二番町","lat":"36.524707","lng":"136.568811"},{"town":"東二口","lat":"36.284678","lng":"136.623779"},{"town":"東美沢野町","lat":"36.506616","lng":"136.533635"},{"town":"左礫町","lat":"36.293855","lng":"136.609365"},{"town":"日御子町","lat":"36.467855","lng":"136.610381"},{"town":"日向町","lat":"36.478819","lng":"136.593404"},{"town":"平加町","lat":"36.495254","lng":"136.491255"},{"town":"平木町","lat":"36.533597","lng":"136.546531"},{"town":"平松町","lat":"36.504976","lng":"136.568649"},{"town":"広瀬町","lat":"36.418149","lng":"136.625359"},{"town":"深瀬","lat":"36.234108","lng":"136.653939"},{"town":"深瀬新町","lat":"36.489149","lng":"136.597853"},{"town":"福正寺町","lat":"36.514221","lng":"136.591015"},{"town":"福新町","lat":"36.488971","lng":"136.536257"},{"town":"福留町","lat":"36.491797","lng":"136.529971"},{"town":"福留南一丁目","lat":"36.487760","lng":"136.527665"},{"town":"福永町","lat":"36.484930","lng":"136.531179"},{"town":"福増町","lat":"36.542001","lng":"136.577888"},{"town":"仏師ヶ野町","lat":"36.289061","lng":"136.636677"},{"town":"藤波一丁目","lat":"36.487531","lng":"136.575402"},{"town":"藤波二丁目","lat":"36.486609","lng":"136.576414"},{"town":"藤木町","lat":"36.484113","lng":"136.578801"},{"town":"蕪城一丁目","lat":"36.530716","lng":"136.553069"},{"town":"蕪城二丁目","lat":"36.531222","lng":"136.551529"},{"town":"蕪城三丁目","lat":"36.531248","lng":"136.549910"},{"town":"蕪城四丁目","lat":"36.532756","lng":"136.553294"},{"town":"蕪城五丁目","lat":"36.534570","lng":"136.553511"},{"town":"部入道町","lat":"36.494939","lng":"136.605801"},{"town":"別宮出町","lat":"36.355086","lng":"136.607369"},{"town":"別宮町","lat":"36.360408","lng":"136.605291"},{"town":"法仏町","lat":"36.517904","lng":"136.537579"},{"town":"坊丸町","lat":"36.493211","lng":"136.578973"},{"town":"松本町","lat":"36.513540","lng":"136.512951"},{"town":"三浦町","lat":"36.509165","lng":"136.578173"},{"town":"美川今町","lat":"36.487607","lng":"136.488311"},{"town":"美川永代町","lat":"36.489985","lng":"136.481482"},{"town":"美川北町","lat":"36.486735","lng":"136.486452"},{"town":"美川神幸町","lat":"36.488242","lng":"136.487267"},{"town":"美川新町","lat":"36.487149","lng":"136.486187"},{"town":"美川末広町","lat":"36.489172","lng":"136.487902"},{"town":"美川中町","lat":"36.487271","lng":"136.493114"},{"town":"美川浜町","lat":"36.489556","lng":"136.491716"},{"town":"美川南町","lat":"36.484692","lng":"136.484681"},{"town":"美川本吉町","lat":"36.482352","lng":"136.489499"},{"town":"美川和波町","lat":"36.491166","lng":"136.487351"},{"town":"神子清水町","lat":"36.344534","lng":"136.611842"},{"town":"三坂町","lat":"36.367749","lng":"136.591587"},{"town":"美里町","lat":"36.520703","lng":"136.581586"},{"town":"美沢野町","lat":"36.505254","lng":"136.531869"},{"town":"水島町","lat":"36.480780","lng":"136.513444"},{"town":"みずほ一丁目","lat":"36.496160","lng":"136.583943"},{"town":"みずほ二丁目","lat":"36.493122","lng":"136.584334"},{"town":"みずほ三丁目","lat":"36.492409","lng":"136.582843"},{"town":"みずほ四丁目","lat":"36.493665","lng":"136.582718"},{"town":"みずほ五丁目","lat":"36.494950","lng":"136.582514"},{"town":"みずほ六丁目","lat":"36.496133","lng":"136.582470"},{"town":"水澄町","lat":"36.490589","lng":"136.519539"},{"town":"三ツ瀬町","lat":"36.305558","lng":"136.597529"},{"town":"三ツ屋野町","lat":"36.318065","lng":"136.637048"},{"town":"湊町","lat":"36.475271","lng":"136.475618"},{"town":"宮永市町","lat":"36.538133","lng":"136.568649"},{"town":"宮永新町","lat":"36.549241","lng":"136.574970"},{"town":"宮永町","lat":"36.543483","lng":"136.567356"},{"town":"宮原町","lat":"36.506482","lng":"136.535509"},{"town":"宮保新町","lat":"36.507258","lng":"136.532025"},{"town":"宮保町","lat":"36.514747","lng":"136.534367"},{"town":"宮丸町","lat":"36.507701","lng":"136.549978"},{"town":"三幸町","lat":"36.513220","lng":"136.577803"},{"town":"明法島町","lat":"36.475820","lng":"136.588707"},{"town":"向島町","lat":"36.479452","lng":"136.582606"},{"town":"村井新町","lat":"36.551855","lng":"136.545906"},{"town":"村井東一丁目","lat":"36.516810","lng":"136.560093"},{"town":"村井東二丁目","lat":"36.515793","lng":"136.560072"},{"town":"村井町","lat":"36.508936","lng":"136.558844"},{"town":"明光一丁目","lat":"36.477179","lng":"136.611311"},{"town":"明光二丁目","lat":"36.474991","lng":"136.611217"},{"town":"明光三丁目","lat":"36.477328","lng":"136.609252"},{"town":"明光四丁目","lat":"36.476381","lng":"136.608080"},{"town":"森島町","lat":"36.467421","lng":"136.597939"},{"town":"矢頃島町","lat":"36.475268","lng":"136.582919"},{"town":"安田町","lat":"36.522568","lng":"136.562057"},{"town":"安吉町","lat":"36.487677","lng":"136.565588"},{"town":"八束穂一丁目","lat":"36.484329","lng":"136.574346"},{"town":"八束穂二丁目","lat":"36.484064","lng":"136.571862"},{"town":"八束穂三丁目","lat":"36.486087","lng":"136.570356"},{"town":"八ツ矢新町","lat":"36.529198","lng":"136.570211"},{"town":"柳原町","lat":"36.333738","lng":"136.577501"},{"town":"八幡町","lat":"36.440945","lng":"136.641284"},{"town":"山島台一丁目","lat":"36.471387","lng":"136.580785"},{"town":"山島台二丁目","lat":"36.469468","lng":"136.579838"},{"town":"山島台三丁目","lat":"36.470316","lng":"136.578042"},{"town":"山島台四丁目","lat":"36.470810","lng":"136.576189"},{"town":"山島台五丁目","lat":"36.471520","lng":"136.574298"},{"town":"山島台六丁目","lat":"36.472719","lng":"136.576338"},{"town":"横江町","lat":"36.543908","lng":"136.586166"},{"town":"横町","lat":"36.524543","lng":"136.562097"},{"town":"吉田町","lat":"36.476632","lng":"136.571461"},{"town":"吉野","lat":"36.357848","lng":"136.632265"},{"town":"四日市町","lat":"36.522766","lng":"136.568368"},{"town":"四ツ屋町","lat":"36.487371","lng":"136.542994"},{"town":"米永町","lat":"36.509467","lng":"136.542752"},{"town":"米光町","lat":"36.493819","lng":"136.513659"},{"town":"寄新保町","lat":"36.478356","lng":"136.561699"},{"town":"若原町","lat":"36.384891","lng":"136.593620"},{"town":"若宮一丁目","lat":"36.520688","lng":"136.574043"},{"town":"若宮二丁目","lat":"36.520026","lng":"136.572105"},{"town":"若宮三丁目","lat":"36.518418","lng":"136.572901"},{"town":"渡津町","lat":"36.332108","lng":"136.611291"},{"town":"熱野町","lat":"36.492827","lng":"136.611026"},{"town":"陽羽里一丁目","lat":"36.492511","lng":"136.614032"},{"town":"曽谷町","lat":"36.486492","lng":"136.630159"},{"town":"陽羽里二丁目","lat":"36.494771","lng":"136.614249"},{"town":"八ツ矢町","lat":"36.527094","lng":"136.571736"},{"town":"東三番町","lat":"36.525831","lng":"136.568482"},{"town":"殿町","lat":"36.525251","lng":"136.567555"},{"town":"古城町","lat":"36.524583","lng":"136.566606"},{"town":"中町","lat":"36.522731","lng":"136.564885"},{"town":"東新町","lat":"36.523376","lng":"136.567632"},{"town":"八日市町","lat":"36.522756","lng":"136.567275"},{"town":"西新町","lat":"36.524866","lng":"136.564148"},{"town":"旭町","lat":"36.527859","lng":"136.567925"},{"town":"中成一丁目","lat":"36.525943","lng":"136.557377"},{"town":"新成一丁目","lat":"36.530028","lng":"136.557674"},{"town":"相木三丁目","lat":"36.529788","lng":"136.561182"},{"town":"相木町","lat":"36.532028","lng":"136.563618"},{"town":"相木二丁目","lat":"36.527738","lng":"136.561359"},{"town":"相木一丁目","lat":"36.528239","lng":"136.565328"},{"town":"菜の花一丁目","lat":"36.510191","lng":"136.581097"},{"town":"菜の花二丁目","lat":"36.511344","lng":"136.582077"},{"town":"菜の花三丁目","lat":"36.512505","lng":"136.579874"}]