[{"town":"大久保一丁目","koaza":"","lat":35.409925,"lng":139.593681},{"town":"大久保二丁目","koaza":"","lat":35.408818,"lng":139.589023},{"town":"大久保三丁目","koaza":"","lat":35.409365,"lng":139.584554},{"town":"上大岡西一丁目","koaza":"","lat":35.409632,"lng":139.595894},{"town":"上大岡西二丁目","koaza":"","lat":35.405511,"lng":139.595025},{"town":"上大岡西三丁目","koaza":"","lat":35.402778,"lng":139.596288},{"town":"上大岡東一丁目","koaza":"","lat":35.409582,"lng":139.59976},{"town":"上大岡東二丁目","koaza":"","lat":35.404272,"lng":139.600321},{"town":"上大岡東三丁目","koaza":"","lat":35.405618,"lng":139.606009},{"town":"上永谷一丁目","koaza":"","lat":35.40316,"lng":139.57881},{"town":"上永谷二丁目","koaza":"","lat":35.403914,"lng":139.573631},{"town":"上永谷三丁目","koaza":"","lat":35.40797,"lng":139.572644},{"town":"上永谷四丁目","koaza":"","lat":35.408544,"lng":139.568609},{"town":"上永谷五丁目","koaza":"","lat":35.402357,"lng":139.566583},{"town":"上永谷六丁目","koaza":"","lat":35.404278,"lng":139.565047},{"town":"上永谷町","koaza":"","lat":35.386101,"lng":139.559006},{"town":"港南一丁目","koaza":"","lat":35.40472,"lng":139.590001},{"town":"港南二丁目","koaza":"","lat":35.403614,"lng":139.585679},{"town":"港南三丁目","koaza":"","lat":35.401401,"lng":139.58511},{"town":"港南四丁目","koaza":"","lat":35.398576,"lng":139.594377},{"town":"港南五丁目","koaza":"","lat":35.396837,"lng":139.592746},{"town":"港南六丁目","koaza":"","lat":35.395826,"lng":139.59053},{"town":"港南台一丁目","koaza":"","lat":35.380326,"lng":139.584641},{"town":"港南台二丁目","koaza":"","lat":35.377101,"lng":139.583046},{"town":"港南台三丁目","koaza":"","lat":35.377385,"lng":139.578222},{"town":"港南台四丁目","koaza":"","lat":35.374846,"lng":139.573599},{"town":"港南台五丁目","koaza":"","lat":35.370709,"lng":139.580142},{"town":"港南台六丁目","koaza":"","lat":35.369888,"lng":139.585846},{"town":"港南台七丁目","koaza":"","lat":35.37288,"lng":139.589743},{"town":"港南台八丁目","koaza":"","lat":35.36632,"lng":139.590804},{"town":"港南台九丁目","koaza":"","lat":35.371048,"lng":139.573666},{"town":"港南中央通","koaza":"","lat":35.401607,"lng":139.591598},{"town":"最戸一丁目","koaza":"","lat":35.414232,"lng":139.595819},{"town":"最戸二丁目","koaza":"","lat":35.412093,"lng":139.591681},{"town":"笹下一丁目","koaza":"","lat":35.398354,"lng":139.597911},{"town":"笹下二丁目","koaza":"","lat":35.394921,"lng":139.60086},{"town":"笹下三丁目","koaza":"","lat":35.389709,"lng":139.602751},{"town":"笹下四丁目","koaza":"","lat":35.389303,"lng":139.598808},{"town":"笹下五丁目","koaza":"","lat":35.39245,"lng":139.596649},{"town":"笹下六丁目","koaza":"","lat":35.388696,"lng":139.593335},{"town":"笹下七丁目","koaza":"","lat":35.392035,"lng":139.591833},{"town":"下永谷一丁目","koaza":"","lat":35.415848,"lng":139.561916},{"town":"下永谷二丁目","koaza":"","lat":35.410268,"lng":139.56564},{"town":"下永谷三丁目","koaza":"","lat":35.40734,"lng":139.562263},{"town":"下永谷四丁目","koaza":"","lat":35.40445,"lng":139.557838},{"town":"下永谷五丁目","koaza":"","lat":35.410868,"lng":139.558225},{"town":"下永谷六丁目","koaza":"","lat":35.415704,"lng":139.559665},{"town":"芹が谷一丁目","koaza":"","lat":35.416905,"lng":139.577136},{"town":"芹が谷二丁目","koaza":"","lat":35.419221,"lng":139.571497},{"town":"芹が谷三丁目","koaza":"","lat":35.414292,"lng":139.574268},{"town":"芹が谷四丁目","koaza":"","lat":35.41372,"lng":139.570657},{"town":"芹が谷五丁目","koaza":"","lat":35.41527,"lng":139.565988},{"town":"野庭町","koaza":"","lat":35.39017,"lng":139.570526},{"town":"東芹が谷","koaza":"","lat":35.412816,"lng":139.577981},{"town":"東永谷一丁目","koaza":"","lat":35.408079,"lng":139.580035},{"town":"東永谷二丁目","koaza":"","lat":35.406775,"lng":139.57728},{"town":"東永谷三丁目","koaza":"","lat":35.41042,"lng":139.577345},{"town":"日限山一丁目","koaza":"","lat":35.400808,"lng":139.56089},{"town":"日限山二丁目","koaza":"","lat":35.39526,"lng":139.560188},{"town":"日限山三丁目","koaza":"","lat":35.391269,"lng":139.561537},{"town":"日限山四丁目","koaza":"","lat":35.389016,"lng":139.557903},{"town":"日野一丁目","koaza":"","lat":35.397057,"lng":139.588032},{"town":"日野二丁目","koaza":"","lat":35.399122,"lng":139.584052},{"town":"日野三丁目","koaza":"","lat":35.397957,"lng":139.579334},{"town":"日野四丁目","koaza":"","lat":35.393854,"lng":139.579929},{"town":"日野五丁目","koaza":"","lat":35.394757,"lng":139.584011},{"town":"日野六丁目","koaza":"","lat":35.391693,"lng":139.577059},{"town":"日野七丁目","koaza":"","lat":35.388609,"lng":139.579398},{"town":"日野八丁目","koaza":"","lat":35.385535,"lng":139.57792},{"town":"日野九丁目","koaza":"","lat":35.384299,"lng":139.57364},{"town":"日野中央一丁目","koaza":"","lat":35.390679,"lng":139.586286},{"town":"日野中央二丁目","koaza":"","lat":35.38549,"lng":139.584034},{"town":"日野中央三丁目","koaza":"","lat":35.380951,"lng":139.588797},{"town":"日野南一丁目","koaza":"","lat":35.380278,"lng":139.576371},{"town":"日野南二丁目","koaza":"","lat":35.37997,"lng":139.572826},{"town":"日野南三丁目","koaza":"","lat":35.377412,"lng":139.571902},{"town":"日野南四丁目","koaza":"","lat":35.37994,"lng":139.569278},{"town":"日野南五丁目","koaza":"","lat":35.378084,"lng":139.564285},{"town":"日野南六丁目","koaza":"","lat":35.375128,"lng":139.563671},{"town":"日野南七丁目","koaza":"","lat":35.372916,"lng":139.561239},{"town":"丸山台一丁目","koaza":"","lat":35.401056,"lng":139.572485},{"town":"丸山台二丁目","koaza":"","lat":35.397311,"lng":139.569174},{"town":"丸山台三丁目","koaza":"","lat":35.399309,"lng":139.567383},{"town":"丸山台四丁目","koaza":"","lat":35.3946,"lng":139.56516}]