[{"town":"秋鹿町","koaza":"","lat":35.496685,"lng":132.95312},{"town":"青葉台","koaza":"","lat":35.446471,"lng":133.105825},{"town":"上乃木十丁目","koaza":"","lat":35.436477,"lng":133.064127},{"town":"上乃木一丁目","koaza":"","lat":35.45288,"lng":133.057386},{"town":"上乃木二丁目","koaza":"","lat":35.450444,"lng":133.058671},{"town":"上乃木三丁目","koaza":"","lat":35.447705,"lng":133.060754},{"town":"上乃木四丁目","koaza":"","lat":35.444752,"lng":133.06243},{"town":"上乃木五丁目","koaza":"","lat":35.450783,"lng":133.064816},{"town":"上乃木六丁目","koaza":"","lat":35.449039,"lng":133.071684},{"town":"上乃木七丁目","koaza":"","lat":35.445279,"lng":133.069136},{"town":"上乃木八丁目","koaza":"","lat":35.441943,"lng":133.069176},{"town":"上乃木九丁目","koaza":"","lat":35.441146,"lng":133.063811},{"town":"朝酌町","koaza":"","lat":35.467962,"lng":133.10705},{"town":"朝日町","koaza":"","lat":35.464105,"lng":133.062256},{"town":"意宇町","koaza":"","lat":35.444916,"lng":133.141779},{"town":"石橋町","koaza":"","lat":35.481966,"lng":133.059119},{"town":"伊勢宮町","koaza":"","lat":35.466178,"lng":133.060295},{"town":"一の谷町","koaza":"","lat":35.436351,"lng":133.069738},{"town":"魚町","koaza":"","lat":35.465337,"lng":133.053773},{"town":"うぐいす台","koaza":"","lat":35.494748,"lng":133.04859},{"town":"打出町","koaza":"","lat":35.478875,"lng":132.98561},{"town":"内中原町","koaza":"","lat":35.474144,"lng":133.047242},{"town":"邑生町","koaza":"","lat":35.520226,"lng":133.128537},{"town":"大井町","koaza":"","lat":35.465845,"lng":133.120965},{"town":"大垣町","koaza":"","lat":35.480205,"lng":132.934776},{"town":"大草町","koaza":"","lat":35.425953,"lng":133.100119},{"town":"大野町","koaza":"","lat":35.482328,"lng":132.912261},{"town":"大庭町","koaza":"","lat":35.429585,"lng":133.083359},{"town":"大海崎町","koaza":"","lat":35.475202,"lng":133.137906},{"town":"岡本町","koaza":"","lat":35.478365,"lng":132.949331},{"town":"奥谷町","koaza":"","lat":35.481835,"lng":133.052494},{"town":"御手船場町","koaza":"","lat":35.466468,"lng":133.063271},{"town":"魚瀬町","koaza":"","lat":35.512564,"lng":132.921215},{"town":"苧町","koaza":"","lat":35.469214,"lng":133.048634},{"town":"学園一丁目","koaza":"","lat":35.477525,"lng":133.067776},{"town":"学園二丁目","koaza":"","lat":35.482757,"lng":133.067206},{"town":"学園南一丁目","koaza":"","lat":35.47109,"lng":133.066734},{"town":"学園南二丁目","koaza":"","lat":35.47483,"lng":133.067627},{"town":"鹿島町恵曇","koaza":"","lat":35.528287,"lng":132.974434},{"town":"鹿島町片句","koaza":"","lat":35.539242,"lng":132.991638},{"town":"鹿島町上講武","koaza":"","lat":35.526074,"lng":133.052883},{"town":"鹿島町北講武","koaza":"","lat":35.523938,"lng":133.021118},{"town":"鹿島町古浦","koaza":"","lat":35.517127,"lng":132.954786},{"town":"鹿島町佐陀本郷","koaza":"","lat":35.523239,"lng":132.993061},{"town":"鹿島町佐陀宮内","koaza":"","lat":35.512722,"lng":133.001144},{"town":"鹿島町武代","koaza":"","lat":35.528317,"lng":132.981257},{"town":"鹿島町手結","koaza":"","lat":35.537204,"lng":132.973889},{"town":"鹿島町御津","koaza":"","lat":35.542162,"lng":133.035693},{"town":"鹿島町南講武","koaza":"","lat":35.519575,"lng":133.029045},{"town":"鹿島町名分","koaza":"","lat":35.518281,"lng":133.010901},{"town":"春日町","koaza":"","lat":35.485176,"lng":133.047712},{"town":"片原町","koaza":"","lat":35.469983,"lng":133.050215},{"town":"上宇部尾町","koaza":"","lat":35.486729,"lng":133.126286},{"town":"上大野町","koaza":"","lat":35.491322,"lng":132.922797},{"town":"上佐陀町","koaza":"","lat":35.503434,"lng":133.014108},{"town":"上東川津町","koaza":"","lat":35.487869,"lng":133.097161},{"town":"上本庄町","koaza":"","lat":35.523124,"lng":133.112505},{"town":"川原町","koaza":"","lat":35.496999,"lng":133.102865},{"town":"北田町","koaza":"","lat":35.476624,"lng":133.061852},{"town":"北堀町","koaza":"","lat":35.477653,"lng":133.054635},{"town":"国屋町","koaza":"","lat":35.467893,"lng":133.035873},{"town":"黒田町","koaza":"","lat":35.480466,"lng":133.043976},{"town":"古志町","koaza":"","lat":35.492981,"lng":133.01086},{"town":"古志原一丁目","koaza":"","lat":35.445973,"lng":133.073573},{"town":"古志原二丁目","koaza":"","lat":35.448796,"lng":133.078533},{"town":"古志原三丁目","koaza":"","lat":35.44704,"lng":133.082129},{"town":"古志原四丁目","koaza":"","lat":35.442285,"lng":133.075804},{"town":"古志原五丁目","koaza":"","lat":35.442181,"lng":133.083002},{"town":"古志原六丁目","koaza":"","lat":35.440212,"lng":133.081257},{"town":"古志原七丁目","koaza":"","lat":35.437846,"lng":133.07563},{"town":"古曽志町","koaza":"","lat":35.484681,"lng":132.99382},{"town":"薦津町","koaza":"","lat":35.48622,"lng":133.02717},{"town":"雑賀町","koaza":"","lat":35.456717,"lng":133.060038},{"town":"幸町","koaza":"","lat":35.458632,"lng":133.054282},{"town":"栄町","koaza":"","lat":35.45483,"lng":133.052232},{"town":"坂本町","koaza":"","lat":35.516248,"lng":133.093224},{"town":"佐草町","koaza":"","lat":35.422535,"lng":133.066967},{"town":"島根町大芦","koaza":"","lat":35.546462,"lng":133.054741},{"town":"島根町加賀","koaza":"","lat":35.557938,"lng":133.077339},{"town":"島根町多古","koaza":"","lat":35.59872,"lng":133.093439},{"town":"島根町野井","koaza":"","lat":35.582498,"lng":133.115264},{"town":"島根町野波","koaza":"","lat":35.57058,"lng":133.101907},{"town":"下佐陀町","koaza":"","lat":35.494412,"lng":133.019491},{"town":"下東川津町","koaza":"","lat":35.494678,"lng":133.081446},{"town":"荘成町","koaza":"","lat":35.501078,"lng":132.988729},{"town":"淞北台","koaza":"","lat":35.48883,"lng":133.056141},{"town":"白瀉本町","koaza":"","lat":35.466446,"lng":133.055475},{"town":"新雑賀町","koaza":"","lat":35.46042,"lng":133.063192},{"town":"宍道町伊志見","koaza":"","lat":35.392937,"lng":132.879586},{"town":"宍道町上来待","koaza":"","lat":35.388726,"lng":132.964081},{"town":"宍道町佐々布","koaza":"","lat":35.389032,"lng":132.896109},{"town":"宍道町昭和","koaza":"","lat":35.408413,"lng":132.905678},{"town":"宍道町昭和新田","koaza":"","lat":35.407732,"lng":132.8972},{"town":"宍道町宍道","koaza":"","lat":35.407423,"lng":132.913233},{"town":"宍道町西来待","koaza":"","lat":35.410438,"lng":132.939164},{"town":"宍道町白石","koaza":"","lat":35.393078,"lng":132.920634},{"town":"宍道町東来待","koaza":"","lat":35.418369,"lng":132.958385},{"town":"新庄町","koaza":"","lat":35.499588,"lng":133.127777},{"town":"新町","koaza":"","lat":35.455991,"lng":133.055805},{"town":"末次町","koaza":"","lat":35.467467,"lng":133.049814},{"town":"末次本町","koaza":"","lat":35.468929,"lng":133.054498},{"town":"菅田町","koaza":"","lat":35.487664,"lng":133.063826},{"town":"砂子町","koaza":"","lat":35.473214,"lng":133.043582},{"town":"袖師町","koaza":"","lat":35.455313,"lng":133.050324},{"town":"外中原町","koaza":"","lat":35.471028,"lng":133.04223},{"town":"大正町","koaza":"","lat":35.462144,"lng":133.062515},{"town":"大輪町","koaza":"","lat":35.479769,"lng":133.060085},{"town":"手角町","koaza":"","lat":35.539619,"lng":133.153116},{"town":"竪町","koaza":"","lat":35.459637,"lng":133.057118},{"town":"玉湯町大谷","koaza":"","lat":35.385494,"lng":132.993337},{"town":"玉湯町玉造","koaza":"","lat":35.409181,"lng":133.011426},{"town":"玉湯町林","koaza":"","lat":35.419236,"lng":132.990318},{"town":"玉湯町布志名","koaza":"","lat":35.429359,"lng":133.032423},{"town":"玉湯町湯町","koaza":"","lat":35.430206,"lng":133.013432},{"town":"田和山町","koaza":"","lat":35.439115,"lng":133.050693},{"town":"竹矢町","koaza":"","lat":35.437442,"lng":133.120706},{"town":"千鳥町","koaza":"","lat":35.4661,"lng":133.045139},{"town":"津田町","koaza":"","lat":35.45982,"lng":133.065727},{"town":"寺町","koaza":"","lat":35.463605,"lng":133.058178},{"town":"天神町","koaza":"","lat":35.462923,"lng":133.056334},{"town":"堂形町","koaza":"","lat":35.466335,"lng":133.040954},{"town":"殿町","koaza":"","lat":35.474303,"lng":133.052059},{"town":"中原町","koaza":"","lat":35.46835,"lng":133.045517},{"town":"長海町","koaza":"","lat":35.531329,"lng":133.145013},{"town":"灘町","koaza":"","lat":35.462784,"lng":133.053149},{"town":"南平台","koaza":"","lat":35.47038,"lng":133.031873},{"town":"西生馬町","koaza":"","lat":35.503101,"lng":133.029923},{"town":"西忌部町","koaza":"","lat":35.4012,"lng":133.026296},{"town":"西尾町","koaza":"","lat":35.470454,"lng":133.092276},{"town":"西川津町","koaza":"","lat":35.482232,"lng":133.078382},{"town":"西谷町","koaza":"","lat":35.49441,"lng":132.999432},{"town":"西茶町","koaza":"","lat":35.469118,"lng":133.050552},{"town":"西津田十丁目","koaza":"","lat":35.452671,"lng":133.079361},{"town":"西津田一丁目","koaza":"","lat":35.460064,"lng":133.0692},{"town":"西津田二丁目","koaza":"","lat":35.460285,"lng":133.076497},{"town":"西津田三丁目","koaza":"","lat":35.457593,"lng":133.078871},{"town":"西津田四丁目","koaza":"","lat":35.45712,"lng":133.075256},{"town":"西津田五丁目","koaza":"","lat":35.45689,"lng":133.071977},{"town":"西津田六丁目","koaza":"","lat":35.456861,"lng":133.068771},{"town":"西津田七丁目","koaza":"","lat":35.456337,"lng":133.06567},{"town":"西津田八丁目","koaza":"","lat":35.453322,"lng":133.066436},{"town":"西津田九丁目","koaza":"","lat":35.452114,"lng":133.073008},{"town":"西長江町","koaza":"","lat":35.496244,"lng":132.966569},{"town":"西浜佐陀町","koaza":"","lat":35.47694,"lng":133.012067},{"town":"西法吉町","koaza":"","lat":35.495812,"lng":133.044707},{"town":"西持田町","koaza":"","lat":35.505065,"lng":133.069839},{"town":"西嫁島一丁目","koaza":"","lat":35.44811,"lng":133.048022},{"town":"西嫁島二丁目","koaza":"","lat":35.446713,"lng":133.046478},{"town":"西嫁島三丁目","koaza":"","lat":35.444321,"lng":133.045854},{"town":"乃木福富町","koaza":"","lat":35.437871,"lng":133.043423},{"town":"乃白町","koaza":"","lat":35.431671,"lng":133.047567},{"town":"野原町","koaza":"","lat":35.523095,"lng":133.137388},{"town":"八軒屋町","koaza":"","lat":35.467412,"lng":133.056007},{"town":"浜佐田町","koaza":"","lat":35.477911,"lng":133.027299},{"town":"浜乃木一丁目","koaza":"","lat":35.450701,"lng":133.053118},{"town":"浜乃木二丁目","koaza":"","lat":35.4465,"lng":133.053089},{"town":"浜乃木三丁目","koaza":"","lat":35.443347,"lng":133.047127},{"town":"浜乃木四丁目","koaza":"","lat":35.443854,"lng":133.050572},{"town":"浜乃木五丁目","koaza":"","lat":35.443184,"lng":133.053117},{"town":"浜乃木六丁目","koaza":"","lat":35.443136,"lng":133.05696},{"town":"浜乃木七丁目","koaza":"","lat":35.439205,"lng":133.058612},{"town":"浜乃木八丁目","koaza":"","lat":35.435398,"lng":133.058706},{"town":"浜乃木町","koaza":"","lat":35.441699,"lng":133.046916},{"town":"東朝日町","koaza":"","lat":35.463811,"lng":133.072758},{"town":"東生馬町","koaza":"","lat":35.504266,"lng":133.043097},{"town":"東出雲町出雲郷","koaza":"","lat":35.43098,"lng":133.127353},{"town":"東出雲町意宇南一丁目","koaza":"","lat":35.428975,"lng":133.131284},{"town":"東出雲町意宇南二丁目","koaza":"","lat":35.427828,"lng":133.133655},{"town":"東出雲町意宇南三丁目","koaza":"","lat":35.425703,"lng":133.134403},{"town":"東出雲町意宇南四丁目","koaza":"","lat":35.425816,"lng":133.132491},{"town":"東出雲町意宇南五丁目","koaza":"","lat":35.427575,"lng":133.128549},{"town":"東出雲町意宇南六丁目","koaza":"","lat":35.425744,"lng":133.127427},{"town":"東出雲町意宇東一丁目","koaza":"","lat":35.436185,"lng":133.136502},{"town":"東出雲町意宇東二丁目","koaza":"","lat":35.435293,"lng":133.137592},{"town":"東出雲町意宇東三丁目","koaza":"","lat":35.43461,"lng":133.135639},{"town":"東出雲町今宮","koaza":"","lat":35.430585,"lng":133.115539},{"town":"東出雲町揖屋","koaza":"","lat":35.429318,"lng":133.153623},{"town":"東出雲町内馬","koaza":"","lat":35.412233,"lng":133.121873},{"town":"東出雲町春日","koaza":"","lat":35.419706,"lng":133.115479},{"town":"東出雲町上意東","koaza":"","lat":35.401423,"lng":133.161253},{"town":"東出雲町下意東","koaza":"","lat":35.423416,"lng":133.175238},{"town":"東出雲町須田","koaza":"","lat":35.40857,"lng":133.133938},{"town":"東出雲町錦新町一丁目","koaza":"","lat":35.434687,"lng":133.139088},{"town":"東出雲町錦新町二丁目","koaza":"","lat":35.432969,"lng":133.137241},{"town":"東出雲町錦新町三丁目","koaza":"","lat":35.432106,"lng":133.135605},{"town":"東出雲町錦新町四丁目","koaza":"","lat":35.431068,"lng":133.136791},{"town":"東出雲町錦新町五丁目","koaza":"","lat":35.432169,"lng":133.139134},{"town":"東出雲町錦新町六丁目","koaza":"","lat":35.430815,"lng":133.139568},{"town":"東出雲町錦新町七丁目","koaza":"","lat":35.430574,"lng":133.14193},{"town":"東出雲町錦新町八丁目","koaza":"","lat":35.433388,"lng":133.140923},{"town":"東出雲町錦浜","koaza":"","lat":35.442623,"lng":133.151414},{"town":"東忌部町","koaza":"","lat":35.399198,"lng":133.041491},{"town":"東奥谷町","koaza":"","lat":35.485044,"lng":133.056355},{"town":"東茶町","koaza":"","lat":35.468845,"lng":133.052529},{"town":"東津田町","koaza":"","lat":35.45386,"lng":133.091521},{"town":"東長江町","koaza":"","lat":35.491898,"lng":132.979696},{"town":"東本町一丁目","koaza":"","lat":35.468963,"lng":133.056175},{"town":"東本町二丁目","koaza":"","lat":35.468968,"lng":133.05719},{"town":"東本町三丁目","koaza":"","lat":35.469139,"lng":133.058352},{"town":"東本町四丁目","koaza":"","lat":35.469106,"lng":133.059824},{"town":"東本町五丁目","koaza":"","lat":35.469132,"lng":133.061835},{"town":"東持田町","koaza":"","lat":35.516425,"lng":133.078938},{"town":"比津が丘一丁目","koaza":"","lat":35.492347,"lng":133.038183},{"town":"比津が丘二丁目","koaza":"","lat":35.494961,"lng":133.038148},{"town":"比津が丘三丁目","koaza":"","lat":35.493939,"lng":133.041509},{"town":"比津が丘四丁目","koaza":"","lat":35.492654,"lng":133.040239},{"town":"比津が丘五丁目","koaza":"","lat":35.490636,"lng":133.041492},{"town":"比津町","koaza":"","lat":35.486841,"lng":133.035822},{"town":"福富町","koaza":"","lat":35.453549,"lng":133.119949},{"town":"福原町","koaza":"","lat":35.515207,"lng":133.103106},{"town":"富士見町","koaza":"","lat":35.449789,"lng":133.135998},{"town":"平成町","koaza":"","lat":35.429536,"lng":133.056745},{"town":"北陵町","koaza":"","lat":35.497937,"lng":133.06106},{"town":"法吉町","koaza":"","lat":35.499914,"lng":133.050701},{"town":"母衣町","koaza":"","lat":35.472913,"lng":133.056258},{"town":"本郷町","koaza":"","lat":35.460186,"lng":133.059843},{"town":"本庄町","koaza":"","lat":35.512422,"lng":133.12912},{"town":"馬潟町","koaza":"","lat":35.445129,"lng":133.114444},{"town":"枕木町","koaza":"","lat":35.534942,"lng":133.130044},{"town":"松尾町","koaza":"","lat":35.454784,"lng":133.054629},{"town":"南田町","koaza":"","lat":35.472786,"lng":133.061075},{"town":"美保関町笠浦","koaza":"","lat":35.576342,"lng":133.122049},{"town":"美保関町片江","koaza":"","lat":35.564088,"lng":133.203354},{"town":"美保関町北浦","koaza":"","lat":35.557327,"lng":133.158545},{"town":"美保関町雲津","koaza":"","lat":35.568795,"lng":133.281503},{"town":"美保関町七類","koaza":"","lat":35.568504,"lng":133.22838},{"town":"美保関町下宇部尾","koaza":"","lat":35.540851,"lng":133.1794},{"town":"美保関町菅浦","koaza":"","lat":35.556995,"lng":133.175557},{"town":"美保関町千酌","koaza":"","lat":35.557032,"lng":133.133494},{"town":"美保関町福浦","koaza":"","lat":35.557693,"lng":133.26898},{"town":"美保関町美保関","koaza":"","lat":35.566479,"lng":133.308895},{"town":"美保関町森山","koaza":"","lat":35.54443,"lng":133.201505},{"town":"美保関町諸喰","koaza":"","lat":35.568167,"lng":133.25823},{"town":"向島町","koaza":"","lat":35.469059,"lng":133.064209},{"town":"八雲台一丁目","koaza":"","lat":35.439537,"lng":133.071107},{"town":"八雲台二丁目","koaza":"","lat":35.437416,"lng":133.071946},{"town":"八雲町熊野","koaza":"","lat":35.366854,"lng":133.073342},{"town":"八雲町西岩坂","koaza":"","lat":35.387709,"lng":133.103394},{"town":"八雲町東岩坂","koaza":"","lat":35.392217,"lng":133.124823},{"town":"八雲町日吉","koaza":"","lat":35.418804,"lng":133.096831},{"town":"八雲町平原","koaza":"","lat":35.3993,"lng":133.065677},{"town":"矢田町","koaza":"","lat":35.443087,"lng":133.097924},{"town":"八束町江島","koaza":"","lat":35.514244,"lng":133.194476},{"town":"八束町遅江","koaza":"","lat":35.495468,"lng":133.183375},{"town":"八束町亀尻","koaza":"","lat":35.50144,"lng":133.18022},{"town":"八束町寺津","koaza":"","lat":35.500723,"lng":133.175312},{"town":"八束町入江","koaza":"","lat":35.495943,"lng":133.163816},{"town":"八束町波入","koaza":"","lat":35.492075,"lng":133.174085},{"town":"八束町二子","koaza":"","lat":35.50483,"lng":133.165042},{"town":"八束町馬渡","koaza":"","lat":35.50316,"lng":133.185654},{"town":"山代町","koaza":"","lat":35.437132,"lng":133.093876},{"town":"八幡町","koaza":"","lat":35.447408,"lng":133.126382},{"town":"横浜町","koaza":"","lat":35.459642,"lng":133.056125},{"town":"米子町","koaza":"","lat":35.47175,"lng":133.05789},{"town":"嫁島町","koaza":"","lat":35.450851,"lng":133.048777},{"town":"和多見町","koaza":"","lat":35.466693,"lng":133.057536},{"town":"朝日町","koaza":"伊勢宮","lat":35.463417,"lng":133.061057},{"town":"東津田町","koaza":"堂前","lat":35.4566,"lng":133.086714}]