[{"town":"愛東外町","lat":"35.093206","lng":"136.296782"},{"town":"青野町","lat":"35.081534","lng":"136.276677"},{"town":"青葉町","lat":"35.106621","lng":"136.199008"},{"town":"青山町","lat":"35.096818","lng":"136.266269"},{"town":"阿弥陀堂町","lat":"35.202080","lng":"136.157442"},{"town":"池庄町","lat":"35.127341","lng":"136.240491"},{"town":"池田町","lat":"35.088714","lng":"136.267137"},{"town":"池之尻町","lat":"35.118093","lng":"136.255410"},{"town":"池之脇町","lat":"35.062784","lng":"136.292717"},{"town":"石谷町","lat":"35.073246","lng":"136.254219"},{"town":"石塔町","lat":"35.072174","lng":"136.208584"},{"town":"市ケ原町","lat":"35.115210","lng":"136.278661"},{"town":"市子沖町","lat":"35.053952","lng":"136.176480"},{"town":"市子川原町","lat":"35.058273","lng":"136.183000"},{"town":"市子殿町","lat":"35.059517","lng":"136.176125"},{"town":"市子松井町","lat":"35.052161","lng":"136.182433"},{"town":"市辺町","lat":"35.098592","lng":"136.174393"},{"town":"市原野町","lat":"35.071710","lng":"136.267893"},{"town":"一式町","lat":"35.071974","lng":"136.258668"},{"town":"稲垂町","lat":"35.079926","lng":"136.169726"},{"town":"猪子町","lat":"35.175818","lng":"136.166929"},{"town":"伊庭町","lat":"35.178333","lng":"136.149507"},{"town":"茨川町","lat":"35.155463","lng":"136.440044"},{"town":"今在家町","lat":"35.148144","lng":"136.255324"},{"town":"今崎町","lat":"35.100114","lng":"136.190559"},{"town":"今代町","lat":"35.090542","lng":"136.257495"},{"town":"今町","lat":"35.190515","lng":"136.175054"},{"town":"今堀町","lat":"35.091743","lng":"136.191784"},{"town":"妹町","lat":"35.103497","lng":"136.254346"},{"town":"鋳物師町","lat":"35.031770","lng":"136.198778"},{"town":"上中野町","lat":"35.120141","lng":"136.266390"},{"town":"梅林町","lat":"35.121628","lng":"136.241671"},{"town":"瓜生津町","lat":"35.077583","lng":"136.248848"},{"town":"永源寺相谷町","lat":"35.067838","lng":"136.326087"},{"town":"永源寺高野町","lat":"35.094108","lng":"136.323147"},{"town":"大沢町","lat":"35.134008","lng":"136.252578"},{"town":"大清水町","lat":"35.137015","lng":"136.215352"},{"town":"大塚町","lat":"35.051163","lng":"136.192356"},{"town":"大萩町","lat":"35.118462","lng":"136.243332"},{"town":"大林町","lat":"35.110757","lng":"136.274122"},{"town":"大森町","lat":"35.081116","lng":"136.227454"},{"town":"岡田町","lat":"35.091047","lng":"136.248216"},{"town":"小川町","lat":"35.193374","lng":"136.161372"},{"town":"沖野一丁目","lat":"35.102315","lng":"136.206280"},{"town":"沖野二丁目","lat":"35.100099","lng":"136.205464"},{"town":"沖野三丁目","lat":"35.096416","lng":"136.207341"},{"town":"沖野四丁目","lat":"35.097892","lng":"136.211111"},{"town":"沖野五丁目","lat":"35.094708","lng":"136.213846"},{"town":"小倉町","lat":"35.093395","lng":"136.277855"},{"town":"長町","lat":"35.131535","lng":"136.228504"},{"town":"乙女浜町","lat":"35.192141","lng":"136.139499"},{"town":"小脇町","lat":"35.115106","lng":"136.178464"},{"town":"垣見町","lat":"35.183042","lng":"136.168571"},{"town":"柏木町","lat":"35.097477","lng":"136.152763"},{"town":"春日町","lat":"35.105279","lng":"136.204535"},{"town":"葛巻町","lat":"35.061045","lng":"136.151019"},{"town":"綺田町","lat":"35.058444","lng":"136.210277"},{"town":"上麻生町","lat":"35.038246","lng":"136.191525"},{"town":"上大森町","lat":"35.080000","lng":"136.236913"},{"town":"上岸本町","lat":"35.114152","lng":"136.235327"},{"town":"上南町","lat":"35.055210","lng":"136.170696"},{"town":"上羽田町","lat":"35.083341","lng":"136.159062"},{"town":"上平木町","lat":"35.100730","lng":"136.140475"},{"town":"上二俣町","lat":"35.066073","lng":"136.286043"},{"town":"上山町","lat":"35.122740","lng":"136.290173"},{"town":"蒲生大森町","lat":"35.041772","lng":"136.181686"},{"town":"蒲生岡本町","lat":"35.040827","lng":"136.200765"},{"town":"蒲生寺町","lat":"35.060520","lng":"136.199949"},{"town":"蒲生堂町","lat":"35.040806","lng":"136.166327"},{"town":"萱尾町","lat":"35.080441","lng":"136.362604"},{"town":"川合町","lat":"35.071916","lng":"136.180286"},{"town":"川合寺町","lat":"35.119933","lng":"136.213630"},{"town":"川南町","lat":"35.199371","lng":"136.167406"},{"town":"祇園町","lat":"35.151855","lng":"136.273777"},{"town":"北坂町","lat":"35.137377","lng":"136.283256"},{"town":"北清水町","lat":"35.144620","lng":"136.218462"},{"town":"北須田町","lat":"35.157241","lng":"136.157703"},{"town":"北花沢町","lat":"35.127576","lng":"136.260308"},{"town":"北菩提寺町","lat":"35.145067","lng":"136.235449"},{"town":"きぬがさ町","lat":"35.164804","lng":"136.145468"},{"town":"君ヶ畑町","lat":"35.164375","lng":"136.402288"},{"town":"木村町","lat":"35.072212","lng":"136.164440"},{"town":"黄和田町","lat":"35.095561","lng":"136.405657"},{"town":"九居瀬町","lat":"35.087601","lng":"136.348691"},{"town":"栗見新田町","lat":"35.204924","lng":"136.121646"},{"town":"栗見出在家町","lat":"35.210833","lng":"136.116604"},{"town":"小池町","lat":"35.133993","lng":"136.230303"},{"town":"小今町","lat":"35.103926","lng":"136.184020"},{"town":"甲津畑町","lat":"35.041138","lng":"136.341751"},{"town":"合戸町","lat":"35.061057","lng":"136.166199"},{"town":"五個荘石川町","lat":"35.149852","lng":"136.182007"},{"town":"五個荘石塚町","lat":"35.144774","lng":"136.179538"},{"town":"五個荘石馬寺町","lat":"35.161514","lng":"136.168906"},{"town":"五個荘伊野部町","lat":"35.130702","lng":"136.188212"},{"town":"五個荘奥町","lat":"35.143541","lng":"136.202670"},{"town":"五個荘小幡町","lat":"35.153343","lng":"136.198499"},{"town":"五個荘河曲町","lat":"35.169391","lng":"136.188579"},{"town":"五個荘川並町","lat":"35.149829","lng":"136.168218"},{"town":"五個荘北町屋町","lat":"35.147112","lng":"136.183747"},{"town":"五個荘木流町","lat":"35.143098","lng":"136.194146"},{"town":"五個荘五位田町","lat":"35.159795","lng":"136.193248"},{"town":"五個荘金堂町","lat":"35.155328","lng":"136.180693"},{"town":"五個荘七里町","lat":"35.165819","lng":"136.176291"},{"town":"五個荘清水鼻町","lat":"35.135346","lng":"136.174369"},{"town":"五個荘新堂町","lat":"35.145493","lng":"136.188421"},{"town":"五個荘竜田町","lat":"35.152630","lng":"136.187577"},{"town":"五個荘塚本町","lat":"35.152686","lng":"136.175831"},{"town":"五個荘中町","lat":"35.160642","lng":"136.199010"},{"town":"五個荘日吉町","lat":"35.169865","lng":"136.169350"},{"town":"五個荘平阪町","lat":"35.137142","lng":"136.191238"},{"town":"五個荘三俣町","lat":"35.149195","lng":"136.192939"},{"town":"五個荘簗瀬町","lat":"35.165116","lng":"136.192117"},{"town":"五個荘山本町","lat":"35.139024","lng":"136.183546"},{"town":"五個荘和田町","lat":"35.171816","lng":"136.192163"},{"town":"小田苅町","lat":"35.128356","lng":"136.220847"},{"town":"五智町","lat":"35.097977","lng":"136.232790"},{"town":"小八木町","lat":"35.153334","lng":"136.258406"},{"town":"幸町","lat":"35.107022","lng":"136.204267"},{"town":"栄町","lat":"35.109264","lng":"136.194919"},{"town":"桜川西町","lat":"35.062658","lng":"136.184573"},{"town":"桜川東町","lat":"35.065071","lng":"136.194460"},{"town":"佐生町","lat":"35.174549","lng":"136.179302"},{"town":"佐野町","lat":"35.178828","lng":"136.175472"},{"town":"佐目町","lat":"35.055497","lng":"136.382360"},{"town":"尻無町","lat":"35.083964","lng":"136.216833"},{"town":"芝原町","lat":"35.090030","lng":"136.196848"},{"town":"柴原南町","lat":"35.082554","lng":"136.202274"},{"town":"下麻生町","lat":"35.041315","lng":"136.188458"},{"town":"下一色町","lat":"35.149680","lng":"136.243695"},{"town":"下岸本町","lat":"35.122323","lng":"136.225710"},{"town":"下里町","lat":"35.139117","lng":"136.255419"},{"town":"下中野町","lat":"35.112916","lng":"136.266218"},{"town":"下羽田町","lat":"35.092312","lng":"136.138213"},{"town":"下二俣町","lat":"35.086185","lng":"136.209972"},{"town":"清水中町","lat":"35.141028","lng":"136.224165"},{"town":"勝堂町","lat":"35.153475","lng":"136.234464"},{"town":"昭和町","lat":"35.106797","lng":"136.190266"},{"town":"新宮町","lat":"35.200753","lng":"136.148763"},{"town":"神郷町","lat":"35.178483","lng":"136.190224"},{"town":"新出町","lat":"35.063957","lng":"136.264676"},{"town":"神田町","lat":"35.112707","lng":"136.224266"},{"town":"鈴町","lat":"35.035191","lng":"136.175329"},{"town":"聖徳町","lat":"35.102916","lng":"136.198868"},{"town":"聖和町","lat":"35.099808","lng":"136.201697"},{"town":"僧坊町","lat":"35.142203","lng":"136.257853"},{"town":"曽根町","lat":"35.100097","lng":"136.271650"},{"town":"園町","lat":"35.105648","lng":"136.278274"},{"town":"大覚寺町","lat":"35.116401","lng":"136.296108"},{"town":"躰光寺町","lat":"35.189166","lng":"136.157986"},{"town":"田井町","lat":"35.046910","lng":"136.186927"},{"town":"大中町","lat":"35.186805","lng":"136.130272"},{"town":"高木町","lat":"35.068828","lng":"136.279270"},{"town":"蓼畑町","lat":"35.099767","lng":"136.369914"},{"town":"建部上中町","lat":"35.127838","lng":"136.199342"},{"town":"建部瓦屋寺町","lat":"35.120608","lng":"136.188879"},{"town":"建部北町","lat":"35.126224","lng":"136.205434"},{"town":"建部堺町","lat":"35.121837","lng":"136.208918"},{"town":"建部下野町","lat":"35.132566","lng":"136.197711"},{"town":"建部日吉町","lat":"35.121049","lng":"136.196013"},{"town":"建部南町","lat":"35.120759","lng":"136.201874"},{"town":"種町","lat":"35.186795","lng":"136.186444"},{"town":"長勝寺町","lat":"35.174685","lng":"136.184411"},{"town":"寺町","lat":"35.091926","lng":"136.253305"},{"town":"土器町","lat":"35.073928","lng":"136.243747"},{"town":"外町","lat":"35.115518","lng":"136.216617"},{"town":"外原町","lat":"35.055054","lng":"136.156624"},{"town":"中一色町","lat":"35.144005","lng":"136.244527"},{"town":"中岸本町","lat":"35.120810","lng":"136.234727"},{"town":"中里町","lat":"35.133697","lng":"136.265583"},{"town":"中戸町","lat":"35.107313","lng":"136.249754"},{"town":"中野町","lat":"35.105072","lng":"136.188943"},{"town":"中羽田町","lat":"35.085927","lng":"136.145046"},{"town":"中小路町","lat":"35.100373","lng":"136.230748"},{"town":"鯰江町","lat":"35.110302","lng":"136.244703"},{"town":"西中野町","lat":"35.106340","lng":"136.192711"},{"town":"西菩提寺町","lat":"35.142340","lng":"136.229125"},{"town":"糠塚町","lat":"35.107565","lng":"136.168208"},{"town":"布引台一丁目","lat":"35.087195","lng":"136.187358"},{"town":"布引台二丁目","lat":"35.087065","lng":"136.189374"},{"town":"野口町","lat":"35.104923","lng":"136.159621"},{"town":"能登川町","lat":"35.169161","lng":"136.156496"},{"town":"野村町","lat":"35.107740","lng":"136.217419"},{"town":"林田町","lat":"35.095554","lng":"136.239799"},{"town":"林町","lat":"35.181350","lng":"136.161001"},{"town":"東今崎町","lat":"35.099670","lng":"136.197637"},{"town":"東沖野一丁目","lat":"35.104582","lng":"136.210846"},{"town":"東沖野二丁目","lat":"35.103323","lng":"136.208873"},{"town":"東沖野三丁目","lat":"35.100606","lng":"136.212787"},{"town":"東沖野四丁目","lat":"35.100143","lng":"136.218256"},{"town":"東沖野五丁目","lat":"35.096714","lng":"136.216552"},{"town":"東中野町","lat":"35.105836","lng":"136.195287"},{"town":"ひばり丘町","lat":"35.104106","lng":"136.201663"},{"town":"百済寺甲町","lat":"35.125569","lng":"136.329891"},{"town":"百済寺町","lat":"35.130686","lng":"136.288686"},{"town":"百済寺本町","lat":"35.123511","lng":"136.274942"},{"town":"平尾町","lat":"35.103666","lng":"136.294881"},{"town":"平田町","lat":"35.108425","lng":"136.145768"},{"town":"平林町","lat":"35.065113","lng":"136.219539"},{"town":"平松町","lat":"35.143133","lng":"136.250253"},{"town":"平柳町","lat":"35.146146","lng":"136.290242"},{"town":"蛭谷町","lat":"35.130278","lng":"136.389430"},{"town":"福堂町","lat":"35.203262","lng":"136.133526"},{"town":"布施町","lat":"35.086299","lng":"136.176815"},{"town":"札の辻一丁目","lat":"35.105515","lng":"136.212083"},{"town":"札の辻二丁目","lat":"35.102429","lng":"136.217549"},{"town":"蛇溝町","lat":"35.079133","lng":"136.188525"},{"town":"政所町","lat":"35.113535","lng":"136.394354"},{"town":"御園町","lat":"35.088202","lng":"136.244892"},{"town":"三津屋町","lat":"35.098626","lng":"136.161819"},{"town":"南清水町","lat":"35.143085","lng":"136.212424"},{"town":"南須田町","lat":"35.157579","lng":"136.151027"},{"town":"南花沢町","lat":"35.124290","lng":"136.255865"},{"town":"南菩提寺町","lat":"35.139736","lng":"136.241159"},{"town":"箕川町","lat":"35.125137","lng":"136.362334"},{"town":"宮井町","lat":"35.056858","lng":"136.160563"},{"town":"宮川町","lat":"35.040899","lng":"136.157760"},{"town":"宮荘町","lat":"35.160371","lng":"136.185982"},{"town":"妙法寺町","lat":"35.102369","lng":"136.225168"},{"town":"山上町","lat":"35.076762","lng":"136.294705"},{"town":"山路町","lat":"35.185664","lng":"136.152762"},{"town":"杠葉尾町","lat":"35.073740","lng":"136.410480"},{"town":"湯屋町","lat":"35.140644","lng":"136.265705"},{"town":"八日市金屋一丁目","lat":"35.110710","lng":"136.196315"},{"town":"八日市金屋二丁目","lat":"35.110433","lng":"136.198734"},{"town":"八日市金屋三丁目","lat":"35.110237","lng":"136.201212"},{"town":"八日市上之町","lat":"35.113255","lng":"136.203654"},{"town":"八日市清水一丁目","lat":"35.111162","lng":"136.194401"},{"town":"八日市清水二丁目","lat":"35.112371","lng":"136.190645"},{"town":"八日市清水三丁目","lat":"35.109583","lng":"136.190798"},{"town":"八日市町","lat":"35.112916","lng":"136.200421"},{"town":"八日市野々宮町","lat":"35.108654","lng":"136.199405"},{"town":"八日市浜野町","lat":"35.116018","lng":"136.196613"},{"town":"八日市東浜町","lat":"35.115776","lng":"136.200015"},{"town":"八日市東本町","lat":"35.108782","lng":"136.205300"},{"town":"八日市本町","lat":"35.113028","lng":"136.195949"},{"town":"八日市松尾町","lat":"35.114810","lng":"136.192449"},{"town":"八日市緑町","lat":"35.112553","lng":"136.208075"},{"town":"横溝町","lat":"35.133594","lng":"136.245383"},{"town":"横山町","lat":"35.067029","lng":"136.156955"},{"town":"読合堂町","lat":"35.128298","lng":"136.270033"},{"town":"和南町","lat":"35.057747","lng":"136.318906"}]