[{"town":"大字雨降野","lat":"35.192316","lng":"136.250015"},{"town":"大字安食西","lat":"35.212239","lng":"136.228920"},{"town":"大字安食南","lat":"35.204951","lng":"136.225404"},{"town":"大字石畑","lat":"35.199792","lng":"136.233463"},{"town":"大字大町","lat":"35.202088","lng":"136.219229"},{"town":"大字上枝","lat":"35.194244","lng":"136.226985"},{"town":"大字沢","lat":"35.194718","lng":"136.218881"},{"town":"大字四十九院","lat":"35.208004","lng":"136.238778"},{"town":"大字下枝","lat":"35.191557","lng":"136.221647"},{"town":"大字杉","lat":"35.195385","lng":"136.227970"},{"town":"大字高野瀬","lat":"35.200589","lng":"136.224960"},{"town":"大字八目","lat":"35.198181","lng":"136.229660"},{"town":"大字八町","lat":"35.196916","lng":"136.239663"},{"town":"大字日栄","lat":"35.192389","lng":"136.228769"},{"town":"大字三ツ池","lat":"35.202908","lng":"136.227975"},{"town":"大字吉田","lat":"35.184848","lng":"136.228996"}]