[{"town":"いせの","lat":"35.012690","lng":"136.230462"},{"town":"大字安部居","lat":"35.043941","lng":"136.243377"},{"town":"大字石原","lat":"35.031743","lng":"136.212985"},{"town":"大字内池","lat":"35.012988","lng":"136.223538"},{"town":"大字小井口","lat":"35.002698","lng":"136.255964"},{"town":"大字大窪","lat":"35.011193","lng":"136.247375"},{"town":"大字大谷","lat":"35.029269","lng":"136.238562"},{"town":"大字奥師","lat":"35.024956","lng":"136.274397"},{"town":"大字奥之池","lat":"35.055065","lng":"136.261103"},{"town":"大字音羽","lat":"34.999687","lng":"136.285833"},{"town":"大字鎌掛","lat":"34.980350","lng":"136.271192"},{"town":"大字上駒月","lat":"34.964511","lng":"136.237703"},{"town":"大字河原","lat":"35.021642","lng":"136.255483"},{"town":"大字北畑","lat":"35.007349","lng":"136.301794"},{"town":"大字北脇","lat":"35.059407","lng":"136.243627"},{"town":"大字木津","lat":"35.007320","lng":"136.242417"},{"town":"大字清田","lat":"34.998569","lng":"136.231084"},{"town":"大字熊野","lat":"35.002922","lng":"136.328355"},{"town":"大字上野田","lat":"35.016628","lng":"136.233528"},{"town":"大字小谷","lat":"35.028919","lng":"136.217730"},{"town":"大字小御門","lat":"35.021675","lng":"136.217387"},{"town":"大字蔵王","lat":"34.992838","lng":"136.308426"},{"town":"大字佐久良","lat":"35.042863","lng":"136.256403"},{"town":"大字里口","lat":"35.016595","lng":"136.226756"},{"town":"大字下駒月","lat":"34.975556","lng":"136.235572"},{"town":"大字十禅師","lat":"35.008495","lng":"136.229082"},{"town":"大字寺尻","lat":"34.996354","lng":"136.244886"},{"town":"大字鳥居平","lat":"35.032592","lng":"136.256751"},{"town":"大字中在寺","lat":"35.045657","lng":"136.229584"},{"town":"大字中之郷","lat":"35.048660","lng":"136.269585"},{"town":"大字西大路","lat":"35.009549","lng":"136.272205"},{"town":"大字仁本木","lat":"35.007368","lng":"136.282897"},{"town":"大字猫田","lat":"35.007007","lng":"136.221961"},{"town":"大字野出","lat":"35.046358","lng":"136.219266"},{"town":"大字迫","lat":"34.984363","lng":"136.220692"},{"town":"大字日田","lat":"35.009074","lng":"136.236112"},{"town":"大字平子","lat":"34.986568","lng":"136.324712"},{"town":"大字別所","lat":"34.995291","lng":"136.211052"},{"town":"大字松尾","lat":"35.028088","lng":"136.245145"},{"town":"大字深山口","lat":"34.988103","lng":"136.234127"},{"town":"大字村井","lat":"35.010360","lng":"136.257853"},{"town":"大字山本","lat":"35.029678","lng":"136.228687"},{"town":"大字蓮花寺","lat":"35.059815","lng":"136.222128"},{"town":"大窪","lat":"35.014351","lng":"136.252217"},{"town":"河原一丁目","lat":"35.017595","lng":"136.246944"},{"town":"河原二丁目","lat":"35.016983","lng":"136.250097"},{"town":"中道一丁目","lat":"35.015866","lng":"136.251592"},{"town":"中道二丁目","lat":"35.015132","lng":"136.250449"},{"town":"松尾一丁目","lat":"35.017508","lng":"136.244247"},{"town":"松尾二丁目","lat":"35.015336","lng":"136.244141"},{"town":"松尾三丁目","lat":"35.017895","lng":"136.241744"},{"town":"松尾四丁目","lat":"35.015887","lng":"136.240482"},{"town":"松尾五丁目","lat":"35.018390","lng":"136.239777"},{"town":"村井一丁目","lat":"35.014092","lng":"136.255682"},{"town":"村井二丁目","lat":"35.014043","lng":"136.253434"},{"town":"村井三丁目","lat":"35.015405","lng":"136.254189"},{"town":"大字杣","lat":"35.043547","lng":"136.276849"},{"town":"大字小野","lat":"35.027846","lng":"136.294915"},{"town":"大字川原","lat":"35.042491","lng":"136.290765"},{"town":"大字原","lat":"35.036340","lng":"136.308412"},{"town":"大字西明寺","lat":"35.017917","lng":"136.315976"},{"town":"大字杉","lat":"35.052555","lng":"136.290466"},{"town":"大字増田","lat":"35.026063","lng":"136.202907"},{"town":"大字三十坪","lat":"35.014944","lng":"136.213341"},{"town":"大字中山","lat":"35.008839","lng":"136.198383"},{"town":"大字豊田","lat":"35.015789","lng":"136.200495"}]