[{"town":"愛野","lat":"34.747333","lng":"137.954955"},{"town":"愛野東一丁目","lat":"34.752618","lng":"137.959018"},{"town":"愛野東二丁目","lat":"34.753698","lng":"137.962379"},{"town":"愛野南一丁目","lat":"34.751994","lng":"137.964131"},{"town":"愛野南二丁目","lat":"34.748831","lng":"137.96281"},{"town":"愛野南三丁目","lat":"34.7479","lng":"137.966883"},{"town":"愛野南四丁目","lat":"34.748788","lng":"137.96752"},{"town":"葵町一丁目","lat":"34.754853","lng":"137.921805"},{"town":"葵町二丁目","lat":"34.7558","lng":"137.921431"},{"town":"葵町三丁目","lat":"34.756421","lng":"137.921113"},{"town":"青木町","lat":"34.734347","lng":"137.932017"},{"town":"浅岡","lat":"34.708912","lng":"137.916453"},{"town":"浅名","lat":"34.707121","lng":"137.927444"},{"town":"浅羽","lat":"34.718533","lng":"137.927061"},{"town":"浅羽一色","lat":"34.69999","lng":"137.914757"},{"town":"旭町一丁目","lat":"34.751461","lng":"137.922875"},{"town":"旭町二丁目","lat":"34.753397","lng":"137.922738"},{"town":"新屋一丁目","lat":"34.750416","lng":"137.925077"},{"town":"新屋二丁目","lat":"34.751075","lng":"137.926857"},{"town":"新屋三丁目","lat":"34.750537","lng":"137.928035"},{"town":"新屋四丁目","lat":"34.751778","lng":"137.929701"},{"town":"泉町一丁目","lat":"34.753475","lng":"137.917617"},{"town":"泉町二丁目","lat":"34.754736","lng":"137.917043"},{"town":"一之池新田","lat":"34.710658","lng":"137.91358"},{"town":"上田町","lat":"34.735852","lng":"137.935208"},{"town":"宇刈","lat":"34.800748","lng":"137.932128"},{"town":"梅山","lat":"34.690866","lng":"137.941816"},{"town":"永楽町","lat":"34.749546","lng":"137.92191"},{"town":"太田","lat":"34.769213","lng":"137.89156"},{"town":"大野","lat":"34.677091","lng":"137.949836"},{"town":"大谷","lat":"34.795618","lng":"137.866512"},{"town":"岡崎","lat":"34.709988","lng":"137.950804"},{"town":"小川町","lat":"34.735549","lng":"137.927637"},{"town":"沖山梨","lat":"34.784912","lng":"137.895781"},{"town":"小山","lat":"34.751288","lng":"137.890493"},{"town":"可睡の杜","lat":"34.777364","lng":"137.916719"},{"town":"神長","lat":"34.737679","lng":"137.940211"},{"town":"上山梨","lat":"34.790527","lng":"137.902112"},{"town":"上山梨一丁目","lat":"34.786229","lng":"137.906446"},{"town":"上山梨二丁目","lat":"34.787989","lng":"137.905856"},{"town":"上山梨三丁目","lat":"34.789234","lng":"137.903909"},{"town":"上山梨四丁目","lat":"34.785987","lng":"137.902897"},{"town":"萱間","lat":"34.808504","lng":"137.884884"},{"town":"川井","lat":"34.745855","lng":"137.913244"},{"town":"川会","lat":"34.809126","lng":"137.876044"},{"town":"木原","lat":"34.743803","lng":"137.901547"},{"town":"国本","lat":"34.765481","lng":"137.952447"},{"town":"久能","lat":"34.765802","lng":"137.917967"},{"town":"栄町","lat":"34.744104","lng":"137.92157"},{"town":"清水町","lat":"34.736318","lng":"137.931851"},{"town":"下山梨","lat":"34.776407","lng":"137.904562"},{"town":"下山梨一丁目","lat":"34.777689","lng":"137.909078"},{"town":"下山梨二丁目","lat":"34.781775","lng":"137.908937"},{"town":"砂本町","lat":"34.733966","lng":"137.928545"},{"town":"大門","lat":"34.737607","lng":"137.937936"},{"town":"高尾町","lat":"34.743564","lng":"137.925577"},{"town":"田町一丁目","lat":"34.750553","lng":"137.919727"},{"town":"田町二丁目","lat":"34.752128","lng":"137.918512"},{"town":"太郎助","lat":"34.680251","lng":"137.926104"},{"town":"月見町","lat":"34.786372","lng":"137.909048"},{"town":"土橋","lat":"34.751018","lng":"137.900316"},{"town":"天神町一丁目","lat":"34.75064","lng":"137.916562"},{"town":"天神町二丁目","lat":"34.749248","lng":"137.914766"},{"town":"天神町三丁目","lat":"34.75028","lng":"137.914111"},{"town":"徳光","lat":"34.758365","lng":"137.900921"},{"town":"富里","lat":"34.700207","lng":"137.903976"},{"town":"友永","lat":"34.79912","lng":"137.879314"},{"town":"豊沢","lat":"34.736376","lng":"137.96971"},{"town":"豊住","lat":"34.701147","lng":"137.930197"},{"town":"中","lat":"34.70457","lng":"137.903687"},{"town":"中新田","lat":"34.674057","lng":"137.962204"},{"town":"長溝","lat":"34.711227","lng":"137.90713"},{"town":"新池","lat":"34.734234","lng":"137.910123"},{"town":"新堀","lat":"34.695812","lng":"137.931753"},{"town":"西ケ崎","lat":"34.690035","lng":"137.91337"},{"town":"西田","lat":"34.739905","lng":"137.908016"},{"town":"西同笠","lat":"34.674884","lng":"137.935175"},{"town":"延久","lat":"34.763279","lng":"137.893141"},{"town":"初越","lat":"34.692751","lng":"137.920513"},{"town":"春岡","lat":"34.786142","lng":"137.914342"},{"town":"春岡一丁目","lat":"34.791649","lng":"137.912326"},{"town":"春岡二丁目","lat":"34.793044","lng":"137.912173"},{"town":"東同笠","lat":"34.676587","lng":"137.941514"},{"town":"彦島","lat":"34.729876","lng":"137.902706"},{"town":"広岡","lat":"34.755167","lng":"137.946263"},{"town":"深見","lat":"34.780252","lng":"137.891067"},{"town":"袋井","lat":"34.747658","lng":"137.922998"},{"town":"方丈一丁目","lat":"34.747101","lng":"137.929359"},{"town":"方丈二丁目","lat":"34.747806","lng":"137.926263"},{"town":"方丈三丁目","lat":"34.748603","lng":"137.928025"},{"town":"方丈四丁目","lat":"34.74913","lng":"137.929554"},{"town":"方丈五丁目","lat":"34.749567","lng":"137.930845"},{"town":"方丈六丁目","lat":"34.748757","lng":"137.93465"},{"town":"堀越","lat":"34.760236","lng":"137.910013"},{"town":"堀越一丁目","lat":"34.752842","lng":"137.914442"},{"town":"堀越二丁目","lat":"34.751829","lng":"137.911128"},{"town":"堀越三丁目","lat":"34.755878","lng":"137.908736"},{"town":"堀越四丁目","lat":"34.753759","lng":"137.90952"},{"town":"堀越五丁目","lat":"34.755587","lng":"137.912426"},{"town":"松原","lat":"34.691168","lng":"137.92717"},{"town":"松袋井","lat":"34.720774","lng":"137.905537"},{"town":"三門町","lat":"34.742085","lng":"137.923165"},{"town":"見取","lat":"34.784296","lng":"137.87255"},{"town":"湊","lat":"34.674794","lng":"137.91985"},{"town":"睦町","lat":"34.74186","lng":"137.917738"},{"town":"村松","lat":"34.775244","lng":"137.935003"},{"town":"諸井","lat":"34.724473","lng":"137.920031"},{"town":"山崎","lat":"34.713492","lng":"137.970537"},{"town":"山科","lat":"34.76464","lng":"137.902984"},{"town":"山田","lat":"34.811644","lng":"137.866181"},{"town":"山名町","lat":"34.740745","lng":"137.920524"},{"town":"横井","lat":"34.756922","lng":"137.889785"},{"town":"鷲巣","lat":"34.766814","lng":"137.927815"},{"town":"高尾","lat":"34.737662","lng":"137.926839"},{"town":"掛之上","lat":"34.744422","lng":"137.929271"}]