[{"town":"上土狩","lat":"35.145472","lng":"138.902719"},{"town":"上長窪","lat":"35.15412","lng":"138.87586"},{"town":"桜堤一丁目","lat":"35.143944","lng":"138.904277"},{"town":"桜堤二丁目","lat":"35.143613","lng":"138.906475"},{"town":"桜堤三丁目","lat":"35.146869","lng":"138.906218"},{"town":"下土狩","lat":"35.126542","lng":"138.898568"},{"town":"下長窪","lat":"35.147349","lng":"138.886915"},{"town":"竹原","lat":"35.11961","lng":"138.897717"},{"town":"中土狩","lat":"35.136678","lng":"138.903944"},{"town":"納米里","lat":"35.145897","lng":"138.896039"},{"town":"東野","lat":"35.188417","lng":"138.852586"},{"town":"本宿","lat":"35.120807","lng":"138.889595"},{"town":"南一色","lat":"35.157596","lng":"138.894275"},{"town":"元長窪","lat":"35.165473","lng":"138.865351"}]