[{"town":"字造山","lat":"38.405903","lng":"140.291239"},{"town":"字畑中","lat":"38.408455","lng":"140.300371"},{"town":"大字岩木","lat":"38.459579","lng":"140.296464"},{"town":"大字新吉田","lat":"38.453419","lng":"140.333610"},{"town":"大字田井","lat":"38.403128","lng":"140.327661"},{"town":"大字溝延","lat":"38.393495","lng":"140.308895"},{"town":"大字吉田","lat":"38.444532","lng":"140.318472"},{"town":"西里","lat":"38.433215","lng":"140.274442"},{"town":"谷地","lat":"38.432591","lng":"140.332535"},{"town":"谷地荒町東一丁目","lat":"38.420340","lng":"140.318596"},{"town":"谷地荒町東二丁目","lat":"38.420377","lng":"140.321232"},{"town":"谷地中央一丁目","lat":"38.421111","lng":"140.311442"},{"town":"谷地中央二丁目","lat":"38.420719","lng":"140.313957"},{"town":"谷地中央三丁目","lat":"38.417763","lng":"140.313901"},{"town":"谷地中央四丁目","lat":"38.417942","lng":"140.310409"},{"town":"谷地中央五丁目","lat":"38.418306","lng":"140.307971"},{"town":"谷地所岡一丁目","lat":"38.426890","lng":"140.309581"},{"town":"谷地所岡二丁目","lat":"38.431112","lng":"140.312296"},{"town":"谷地所岡三丁目","lat":"38.431266","lng":"140.309713"},{"town":"谷地ひな市一丁目","lat":"38.429147","lng":"140.317404"},{"town":"谷地ひな市二丁目","lat":"38.431377","lng":"140.318065"},{"town":"谷地ひな市三丁目","lat":"38.431503","lng":"140.320688"},{"town":"谷地ひな市四丁目","lat":"38.428966","lng":"140.320069"}]