[{"town":"相生町一丁目","lat":"38.918770","lng":"139.843169"},{"town":"相生町二丁目","lat":"38.919137","lng":"139.841230"},{"town":"相沢","lat":"38.875652","lng":"139.948233"},{"town":"赤剥","lat":"38.987142","lng":"139.998034"},{"town":"あきほ町","lat":"38.889958","lng":"139.851400"},{"town":"曙町一丁目","lat":"38.920132","lng":"139.860723"},{"town":"曙町二丁目","lat":"38.919456","lng":"139.864472"},{"town":"字荒町","lat":"38.854657","lng":"139.959221"},{"town":"字稲荷沢","lat":"38.858067","lng":"139.966925"},{"town":"字内町","lat":"38.858615","lng":"139.959900"},{"town":"字扇谷地","lat":"38.893948","lng":"139.859521"},{"town":"字片町","lat":"38.861915","lng":"139.957652"},{"town":"字金谷","lat":"38.862570","lng":"139.957281"},{"town":"字北町","lat":"38.861673","lng":"139.959624"},{"town":"字蔵小路","lat":"38.857272","lng":"139.957982"},{"town":"字古湊","lat":"38.951336","lng":"139.825008"},{"town":"字肴町","lat":"38.858575","lng":"139.956388"},{"town":"字鷺谷地","lat":"38.894557","lng":"139.856758"},{"town":"字下瀬","lat":"38.912364","lng":"139.827368"},{"town":"字真学寺沢","lat":"38.853999","lng":"139.966436"},{"town":"字心光寺沢","lat":"38.863039","lng":"139.969533"},{"town":"字新町","lat":"38.859659","lng":"139.955455"},{"town":"字新屋敷","lat":"38.860075","lng":"139.959733"},{"town":"字総光寺沢","lat":"38.860353","lng":"139.967427"},{"town":"字外山越","lat":"38.857320","lng":"139.975583"},{"town":"字仲町","lat":"38.856832","lng":"139.961023"},{"town":"字中森","lat":"38.865566","lng":"139.962901"},{"town":"字西田","lat":"38.854603","lng":"139.955088"},{"town":"字仁助谷地","lat":"38.898209","lng":"139.865051"},{"town":"旭新町","lat":"38.923591","lng":"139.851035"},{"town":"字朴ノ木沢","lat":"38.863953","lng":"139.963788"},{"town":"字本町","lat":"38.857032","lng":"139.956880"},{"town":"字南新屋敷","lat":"38.853310","lng":"139.961748"},{"town":"字南町","lat":"38.855114","lng":"139.960396"},{"town":"字妙香寺沢","lat":"38.856336","lng":"139.966642"},{"town":"字元新屋敷","lat":"38.854560","lng":"139.961425"},{"town":"字山田","lat":"38.858470","lng":"139.953465"},{"town":"飛鳥","lat":"38.885965","lng":"139.925645"},{"town":"東町一丁目","lat":"38.908973","lng":"139.861193"},{"town":"東町二丁目","lat":"38.906516","lng":"139.860482"},{"town":"飯森山一丁目","lat":"38.896150","lng":"139.820407"},{"town":"飯森山二丁目","lat":"38.889983","lng":"139.823592"},{"town":"飯森山三丁目","lat":"38.894455","lng":"139.817739"},{"town":"石名坂","lat":"38.883406","lng":"139.941932"},{"town":"石橋","lat":"38.902796","lng":"139.912976"},{"town":"泉興野","lat":"38.896597","lng":"139.920410"},{"town":"泉町","lat":"38.931547","lng":"139.843632"},{"town":"板戸","lat":"38.866367","lng":"139.857561"},{"town":"市条","lat":"38.960674","lng":"139.944273"},{"town":"一番町","lat":"38.915106","lng":"139.842037"},{"town":"入船町","lat":"38.908233","lng":"139.830942"},{"town":"臼ケ沢","lat":"38.827466","lng":"139.985144"},{"town":"漆曽根","lat":"38.929238","lng":"139.884374"},{"town":"駅東一丁目","lat":"38.924911","lng":"139.845833"},{"town":"駅東二丁目","lat":"38.924728","lng":"139.848682"},{"town":"円能寺","lat":"38.939813","lng":"139.908000"},{"town":"生石","lat":"38.923434","lng":"139.946590"},{"town":"大川渡","lat":"38.801432","lng":"139.999323"},{"town":"大久保","lat":"38.976945","lng":"139.918779"},{"town":"大島田","lat":"38.955377","lng":"139.915786"},{"town":"大多新田","lat":"38.918227","lng":"139.868659"},{"town":"大槻新田","lat":"38.915910","lng":"139.920379"},{"town":"大豊田","lat":"38.968757","lng":"139.917421"},{"town":"大沼新田","lat":"38.827113","lng":"139.970728"},{"town":"大野新田","lat":"38.899812","lng":"139.880638"},{"town":"大浜一丁目","lat":"38.926449","lng":"139.821397"},{"town":"大浜二丁目","lat":"38.930680","lng":"139.816540"},{"town":"大町","lat":"38.903880","lng":"139.872008"},{"town":"大宮","lat":"38.892267","lng":"139.863504"},{"town":"大宮町一丁目","lat":"38.889425","lng":"139.857263"},{"town":"大宮町二丁目","lat":"38.885141","lng":"139.853971"},{"town":"大宮町三丁目","lat":"38.883855","lng":"139.860338"},{"town":"大宮町四丁目","lat":"38.886782","lng":"139.862252"},{"town":"大蕨","lat":"38.972057","lng":"139.989005"},{"town":"岡島田","lat":"38.950552","lng":"139.919323"},{"town":"荻島","lat":"38.918312","lng":"139.886674"},{"town":"落野目","lat":"38.881769","lng":"139.844757"},{"town":"御成町","lat":"38.924198","lng":"139.841479"},{"town":"小見","lat":"38.888741","lng":"139.955749"},{"town":"卸町","lat":"38.886499","lng":"139.856332"},{"town":"柏谷沢","lat":"38.782827","lng":"140.040274"},{"town":"勝保関","lat":"38.905003","lng":"139.884082"},{"town":"門田","lat":"38.857607","lng":"139.876278"},{"town":"上青沢","lat":"38.956482","lng":"140.045361"},{"town":"上北目","lat":"38.888797","lng":"139.975453"},{"town":"上黒川","lat":"39.000114","lng":"140.004031"},{"town":"上興野","lat":"38.941403","lng":"139.889787"},{"town":"上野曽根","lat":"38.944394","lng":"139.882697"},{"town":"上本町","lat":"38.911837","lng":"139.841068"},{"town":"上餅山","lat":"38.884177","lng":"139.968483"},{"town":"上安田","lat":"38.950083","lng":"139.905305"},{"town":"上安町一丁目","lat":"38.927679","lng":"139.860405"},{"town":"上安町二丁目","lat":"38.927533","lng":"139.863619"},{"town":"上安町三丁目","lat":"38.929175","lng":"139.866071"},{"town":"亀ケ崎一丁目","lat":"38.908678","lng":"139.841457"},{"town":"亀ケ崎二丁目","lat":"38.907142","lng":"139.845476"},{"town":"亀ケ崎三丁目","lat":"38.903417","lng":"139.845307"},{"town":"亀ケ崎四丁目","lat":"38.900976","lng":"139.842555"},{"town":"亀ケ崎五丁目","lat":"38.899028","lng":"139.849414"},{"town":"亀ケ崎六丁目","lat":"38.898092","lng":"139.845568"},{"town":"亀ケ崎七丁目","lat":"38.897041","lng":"139.849129"},{"town":"刈穂","lat":"38.959374","lng":"139.908372"},{"town":"刈屋","lat":"38.974740","lng":"139.906463"},{"town":"観音寺","lat":"38.972323","lng":"139.939367"},{"town":"木川","lat":"38.864229","lng":"139.878040"},{"town":"北青沢","lat":"38.974081","lng":"140.036578"},{"town":"北今町","lat":"38.924018","lng":"139.834904"},{"town":"北里町","lat":"38.925864","lng":"139.835185"},{"town":"北沢","lat":"38.932415","lng":"139.941774"},{"town":"北仁田","lat":"38.975473","lng":"139.931003"},{"town":"北新橋一丁目","lat":"38.923361","lng":"139.855577"},{"town":"北新橋二丁目","lat":"38.925602","lng":"139.856050"},{"town":"北新町一丁目","lat":"38.924012","lng":"139.832005"},{"town":"北新町二丁目","lat":"38.923648","lng":"139.828464"},{"town":"北千日町","lat":"38.934427","lng":"139.838570"},{"town":"北千日堂前","lat":"38.934447","lng":"139.835457"},{"town":"北平沢","lat":"38.948237","lng":"139.937898"},{"town":"北俣","lat":"38.922740","lng":"140.041146"},{"town":"城輪","lat":"38.962889","lng":"139.905372"},{"town":"京田一丁目","lat":"38.879758","lng":"139.839387"},{"town":"京田二丁目","lat":"38.878187","lng":"139.837070"},{"town":"京田三丁目","lat":"38.876787","lng":"139.834530"},{"town":"京田四丁目","lat":"38.873258","lng":"139.837341"},{"town":"草津","lat":"39.017263","lng":"140.033422"},{"town":"久保田","lat":"38.925428","lng":"139.904096"},{"town":"熊手島","lat":"38.903506","lng":"139.892865"},{"town":"熊野田","lat":"38.914924","lng":"139.891994"},{"town":"黒森","lat":"38.849358","lng":"139.815434"},{"town":"こあら一丁目","lat":"38.915783","lng":"139.862749"},{"town":"こあら二丁目","lat":"38.914572","lng":"139.861456"},{"town":"こあら三丁目","lat":"38.911795","lng":"139.862215"},{"town":"古荒新田","lat":"38.913998","lng":"139.867189"},{"town":"小泉","lat":"38.971194","lng":"139.930974"},{"town":"広栄町一丁目","lat":"38.865855","lng":"139.844703"},{"town":"広栄町二丁目","lat":"38.861969","lng":"139.845487"},{"town":"広栄町三丁目","lat":"38.865058","lng":"139.847425"},{"town":"郡山","lat":"38.906265","lng":"139.925308"},{"town":"こがね町一丁目","lat":"38.902261","lng":"139.858655"},{"town":"こがね町二丁目","lat":"38.897609","lng":"139.856606"},{"town":"寿町","lat":"38.920384","lng":"139.835893"},{"town":"小林","lat":"38.814902","lng":"140.050214"},{"town":"小牧","lat":"38.892697","lng":"139.882582"},{"town":"小牧新田","lat":"38.898977","lng":"139.896093"},{"town":"古湊町","lat":"38.947606","lng":"139.827037"},{"town":"幸町一丁目","lat":"38.923079","lng":"139.845580"},{"town":"幸町二丁目","lat":"38.923714","lng":"139.843655"},{"town":"境興野","lat":"38.940616","lng":"139.918911"},{"town":"酒井新田","lat":"38.938949","lng":"139.841992"},{"town":"栄町","lat":"38.923564","lng":"139.837993"},{"town":"坂野辺新田","lat":"38.872482","lng":"139.818628"},{"town":"桜林","lat":"38.904712","lng":"139.918514"},{"town":"桜林興野","lat":"38.908706","lng":"139.920450"},{"town":"砂越","lat":"38.889419","lng":"139.900037"},{"town":"砂越緑町一丁目","lat":"38.894917","lng":"139.911435"},{"town":"砂越緑町二丁目","lat":"38.894597","lng":"139.911104"},{"town":"砂越緑町三丁目","lat":"38.894176","lng":"139.910788"},{"town":"砂越緑町四丁目","lat":"38.893873","lng":"139.910433"},{"town":"砂越緑町五丁目","lat":"38.893536","lng":"139.910150"},{"town":"砂越緑町六丁目","lat":"38.893221","lng":"139.909853"},{"town":"山居町一丁目","lat":"38.911826","lng":"139.836074"},{"town":"山居町二丁目","lat":"38.910517","lng":"139.833508"},{"town":"三之宮","lat":"38.898643","lng":"139.934377"},{"town":"地見興屋","lat":"38.819027","lng":"139.996581"},{"town":"下青沢","lat":"38.958785","lng":"139.993613"},{"town":"下黒川","lat":"39.000982","lng":"139.985022"},{"town":"下餅山","lat":"38.882501","lng":"139.955009"},{"town":"下安町","lat":"38.928801","lng":"139.856271"},{"town":"十里塚","lat":"38.879968","lng":"139.806349"},{"town":"常禅寺","lat":"38.956650","lng":"139.966829"},{"town":"新出","lat":"38.987542","lng":"139.976691"},{"town":"新橋一丁目","lat":"38.921014","lng":"139.855112"},{"town":"新橋二丁目","lat":"38.918055","lng":"139.854265"},{"town":"新橋三丁目","lat":"38.917078","lng":"139.851657"},{"town":"新橋四丁目","lat":"38.915216","lng":"139.853689"},{"town":"新橋五丁目","lat":"38.914384","lng":"139.856880"},{"town":"新町","lat":"38.934503","lng":"139.832042"},{"town":"末広町","lat":"38.909330","lng":"139.849426"},{"town":"住吉町","lat":"38.928871","lng":"139.835397"},{"town":"関","lat":"38.930091","lng":"139.915740"},{"town":"芹田","lat":"38.981823","lng":"139.926284"},{"town":"千石町一丁目","lat":"38.908328","lng":"139.837681"},{"town":"千石町二丁目","lat":"38.904436","lng":"139.838903"},{"town":"千日町","lat":"38.929185","lng":"139.839451"},{"town":"曽根田","lat":"38.931739","lng":"139.903428"},{"town":"高砂","lat":"38.945764","lng":"139.817298"},{"town":"高砂一丁目","lat":"38.941614","lng":"139.825564"},{"town":"高砂二丁目","lat":"38.941889","lng":"139.822034"},{"town":"高砂三丁目","lat":"38.942706","lng":"139.824279"},{"town":"高砂四丁目","lat":"38.945409","lng":"139.824713"},{"town":"高見台一丁目","lat":"38.902675","lng":"139.820716"},{"town":"高見台二丁目","lat":"38.901064","lng":"139.819686"},{"town":"竹田","lat":"38.857834","lng":"139.946393"},{"town":"田沢","lat":"38.872841","lng":"139.988000"},{"town":"楯山","lat":"38.863948","lng":"140.055561"},{"town":"中央西町","lat":"38.920119","lng":"139.838099"},{"town":"中央東町","lat":"38.919639","lng":"139.839566"},{"town":"千代田","lat":"38.994510","lng":"139.886021"},{"town":"塚渕","lat":"38.980972","lng":"139.912330"},{"town":"土崎","lat":"38.911777","lng":"139.875148"},{"town":"土渕","lat":"38.864301","lng":"139.976199"},{"town":"堤町","lat":"38.905381","lng":"139.832842"},{"town":"局","lat":"38.852332","lng":"139.882832"},{"town":"鶴田","lat":"38.941484","lng":"139.875042"},{"town":"手蔵田","lat":"38.912252","lng":"139.907025"},{"town":"寺田","lat":"38.951330","lng":"139.933383"},{"town":"天神堂","lat":"38.898145","lng":"139.915137"},{"town":"東栄町","lat":"38.914575","lng":"139.847307"},{"town":"飛島","lat":"39.195004","lng":"139.549730"},{"town":"豊里","lat":"38.944685","lng":"139.845652"},{"town":"豊原","lat":"38.963019","lng":"139.895572"},{"town":"泥沢","lat":"38.986999","lng":"140.018514"},{"town":"中北目","lat":"38.892811","lng":"139.964907"},{"town":"中野新田","lat":"38.910859","lng":"139.886037"},{"town":"中野曽根","lat":"38.932446","lng":"139.878017"},{"town":"中野俣","lat":"38.893918","lng":"140.052498"},{"town":"中野目","lat":"38.902531","lng":"139.932049"},{"town":"中牧田","lat":"38.870413","lng":"139.942666"},{"town":"中町一丁目","lat":"38.916342","lng":"139.838187"},{"town":"中町二丁目","lat":"38.916857","lng":"139.835897"},{"town":"中町三丁目","lat":"38.917590","lng":"139.833968"},{"town":"楢橋","lat":"38.893931","lng":"139.946085"},{"town":"成興野","lat":"38.800566","lng":"140.016329"},{"town":"新青渡","lat":"38.926180","lng":"139.895194"},{"town":"新井田町","lat":"38.914513","lng":"139.844503"},{"town":"新堀","lat":"38.873784","lng":"139.879045"},{"town":"錦町一丁目","lat":"38.882279","lng":"139.835527"},{"town":"錦町二丁目","lat":"38.882246","lng":"139.833179"},{"town":"錦町三丁目","lat":"38.883289","lng":"139.831634"},{"town":"錦町四丁目","lat":"38.877617","lng":"139.831147"},{"town":"錦町五丁目","lat":"38.877530","lng":"139.832759"},{"town":"西坂本","lat":"38.847097","lng":"139.995836"},{"town":"西野町","lat":"38.937294","lng":"139.838542"},{"town":"二番町","lat":"38.915599","lng":"139.840044"},{"town":"庭田","lat":"38.957635","lng":"139.887446"},{"town":"布目","lat":"38.936781","lng":"139.898324"},{"town":"橋本","lat":"38.981672","lng":"139.934892"},{"town":"浜田一丁目","lat":"38.917632","lng":"139.846743"},{"town":"浜田二丁目","lat":"38.919959","lng":"139.850266"},{"town":"浜中","lat":"38.833480","lng":"139.796075"},{"town":"浜松町","lat":"38.937068","lng":"139.820851"},{"town":"茨野新田","lat":"38.898914","lng":"139.907492"},{"town":"東泉町一丁目","lat":"38.928833","lng":"139.845197"},{"town":"東泉町二丁目","lat":"38.927978","lng":"139.850480"},{"town":"東泉町三丁目","lat":"38.931368","lng":"139.847753"},{"town":"東泉町四丁目","lat":"38.931476","lng":"139.852534"},{"town":"東泉町五丁目","lat":"38.934225","lng":"139.850831"},{"town":"東泉町六丁目","lat":"38.935677","lng":"139.851919"},{"town":"東大町一丁目","lat":"38.910709","lng":"139.855762"},{"town":"東大町二丁目","lat":"38.907888","lng":"139.855295"},{"town":"東大町三丁目","lat":"38.905003","lng":"139.860792"},{"town":"東中の口町","lat":"38.910926","lng":"139.845415"},{"town":"東両羽町","lat":"38.893863","lng":"139.850401"},{"town":"光ケ丘一丁目","lat":"38.928546","lng":"139.831356"},{"town":"光ケ丘二丁目","lat":"38.926630","lng":"139.828224"},{"town":"光ケ丘三丁目","lat":"38.933149","lng":"139.829307"},{"town":"光ケ丘四丁目","lat":"38.936325","lng":"139.827450"},{"town":"光ケ丘五丁目","lat":"38.935391","lng":"139.824028"},{"town":"引地","lat":"38.870472","lng":"139.950704"},{"town":"日の出町一丁目","lat":"38.917565","lng":"139.860125"},{"town":"日の出町二丁目","lat":"38.917389","lng":"139.863635"},{"town":"日吉町一丁目","lat":"38.920813","lng":"139.832059"},{"town":"日吉町二丁目","lat":"38.918727","lng":"139.830681"},{"town":"広岡新田","lat":"38.825604","lng":"139.806983"},{"town":"広野","lat":"38.849795","lng":"139.844046"},{"town":"広野新田","lat":"38.828571","lng":"139.838027"},{"town":"福岡","lat":"38.831822","lng":"139.855914"},{"town":"福山","lat":"38.988267","lng":"139.952142"},{"town":"藤塚","lat":"38.956834","lng":"139.857087"},{"town":"富士見町一丁目","lat":"38.923977","lng":"139.859691"},{"town":"富士見町二丁目","lat":"38.923198","lng":"139.862245"},{"town":"富士見町三丁目","lat":"38.922004","lng":"139.865252"},{"town":"船場町一丁目","lat":"38.917585","lng":"139.828750"},{"town":"船場町二丁目","lat":"38.915127","lng":"139.829940"},{"town":"麓","lat":"38.976224","lng":"139.948128"},{"town":"古青渡","lat":"38.934653","lng":"139.905666"},{"town":"法連寺","lat":"38.964341","lng":"139.929299"},{"town":"穂積","lat":"38.971770","lng":"139.862008"},{"town":"堀野内","lat":"38.898667","lng":"139.925750"},{"town":"本川","lat":"38.903744","lng":"139.905718"},{"town":"本町一丁目","lat":"38.912458","lng":"139.838693"},{"town":"本町二丁目","lat":"38.913714","lng":"139.836849"},{"town":"本町三丁目","lat":"38.914756","lng":"139.833966"},{"town":"前川","lat":"38.945293","lng":"139.913224"},{"town":"牧曽根","lat":"38.935592","lng":"139.872647"},{"town":"升田","lat":"39.021238","lng":"140.049361"},{"town":"松原南","lat":"38.900289","lng":"139.853628"},{"town":"松美町","lat":"38.941592","lng":"139.830680"},{"town":"丸沼","lat":"38.874673","lng":"139.895743"},{"town":"政所","lat":"38.959603","lng":"139.920704"},{"town":"みずほ一丁目","lat":"38.905671","lng":"139.849007"},{"town":"みずほ二丁目","lat":"38.903104","lng":"139.853129"},{"town":"緑ケ丘一丁目","lat":"38.899699","lng":"139.814764"},{"town":"緑ケ丘二丁目","lat":"38.894083","lng":"139.808718"},{"town":"緑町","lat":"38.912001","lng":"139.852464"},{"town":"南新町一丁目","lat":"38.920400","lng":"139.827684"},{"town":"南新町二丁目","lat":"38.920505","lng":"139.825129"},{"town":"南千日町","lat":"38.925875","lng":"139.838747"},{"town":"南平沢","lat":"38.944399","lng":"139.939907"},{"town":"宮内","lat":"38.985363","lng":"139.878839"},{"town":"宮海","lat":"38.966125","lng":"139.838186"},{"town":"宮野浦","lat":"38.909394","lng":"139.807616"},{"town":"宮野浦一丁目","lat":"38.906637","lng":"139.817202"},{"town":"宮野浦二丁目","lat":"38.906265","lng":"139.813640"},{"town":"宮野浦三丁目","lat":"38.910158","lng":"139.813777"},{"town":"茗ケ沢","lat":"38.874116","lng":"139.971605"},{"town":"本楯","lat":"38.971029","lng":"139.886217"},{"town":"保岡","lat":"38.956539","lng":"139.871871"},{"town":"安田","lat":"38.947611","lng":"139.896528"},{"town":"山楯","lat":"38.904488","lng":"139.945679"},{"town":"山寺","lat":"38.841700","lng":"139.965548"},{"town":"山元","lat":"38.839768","lng":"140.054312"},{"town":"山谷","lat":"38.908695","lng":"139.977802"},{"town":"山谷新田","lat":"38.909784","lng":"139.965697"},{"town":"遊摺部","lat":"38.888443","lng":"139.871656"},{"town":"ゆたか一丁目","lat":"38.934267","lng":"139.843267"},{"town":"ゆたか二丁目","lat":"38.937213","lng":"139.845568"},{"town":"ゆたか三丁目","lat":"38.937413","lng":"139.849600"},{"town":"横代","lat":"38.923758","lng":"139.918354"},{"town":"吉田","lat":"38.948172","lng":"139.873247"},{"town":"吉田新田","lat":"38.936809","lng":"139.861452"},{"town":"四ツ興野","lat":"38.905486","lng":"139.867155"},{"town":"米島","lat":"38.983173","lng":"139.899010"},{"town":"両羽町","lat":"38.894215","lng":"139.844318"},{"town":"若竹町一丁目","lat":"38.906349","lng":"139.835369"},{"town":"若竹町二丁目","lat":"38.901744","lng":"139.837504"},{"town":"若浜町","lat":"38.914016","lng":"139.849926"},{"town":"若原町","lat":"38.898594","lng":"139.840162"},{"town":"若宮町一丁目","lat":"38.901774","lng":"139.813093"},{"town":"若宮町二丁目","lat":"38.899671","lng":"139.810431"},{"town":"北浜町","lat":"38.943775","lng":"139.829130"}]