[{"town":"白子四丁目","lat":"35.794677","lng":"139.63933"},{"town":"諏訪原団地","lat":"35.775198","lng":"139.616835"},{"town":"丸山台一丁目","lat":"35.786374","lng":"139.612706"},{"town":"下新倉一丁目","lat":"35.788597","lng":"139.615222"},{"town":"丸山台三丁目","lat":"35.78349","lng":"139.620532"},{"town":"諏訪","lat":"35.776412","lng":"139.618469"},{"town":"中央一丁目","lat":"35.783349","lng":"139.613006"},{"town":"中央二丁目","lat":"35.780813","lng":"139.617166"},{"town":"西大和団地","lat":"35.779092","lng":"139.607141"},{"town":"新倉四丁目","lat":"35.799997","lng":"139.621593"},{"town":"新倉五丁目","lat":"35.803238","lng":"139.616896"},{"town":"丸山台二丁目","lat":"35.785001","lng":"139.616599"},{"town":"下新倉二丁目","lat":"35.788368","lng":"139.619875"},{"town":"新倉八丁目","lat":"35.800997","lng":"139.628903"},{"town":"新倉七丁目","lat":"35.803267","lng":"139.624136"},{"town":"下新倉六丁目","lat":"35.799357","lng":"139.634707"},{"town":"新倉六丁目","lat":"35.806019","lng":"139.619459"},{"town":"下新倉三丁目","lat":"35.788563","lng":"139.624888"},{"town":"新倉三丁目","lat":"35.79615","lng":"139.627"},{"town":"下新倉四丁目","lat":"35.791971","lng":"139.627223"},{"town":"白子一丁目","lat":"35.771531","lng":"139.622042"},{"town":"下新倉五丁目","lat":"35.795244","lng":"139.634132"},{"town":"大字新倉","lat":"35.8064","lng":"139.626856"},{"town":"白子二丁目","lat":"35.77835","lng":"139.621985"},{"town":"新倉二丁目","lat":"35.79723","lng":"139.619412"},{"town":"白子三丁目","lat":"35.787582","lng":"139.629118"},{"town":"南一丁目","lat":"35.771616","lng":"139.608947"},{"town":"南二丁目","lat":"35.775611","lng":"139.610222"},{"town":"本町","lat":"35.787518","lng":"139.60631"},{"town":"新倉一丁目","lat":"35.792889","lng":"139.611068"},{"town":"大字下新倉","lat":"35.80537","lng":"139.637274"},{"town":"広沢","lat":"35.779974","lng":"139.60131"}]