[{"town":"桑原","koaza":"","lat":34.893716,"lng":135.270444},{"town":"大川瀬","koaza":"","lat":34.943534,"lng":135.112435},{"town":"志手原","koaza":"","lat":34.921884,"lng":135.243815},{"town":"高次","koaza":"","lat":34.895138,"lng":135.236614},{"town":"香下","koaza":"","lat":34.913625,"lng":135.261854},{"town":"山田","koaza":"","lat":34.891331,"lng":135.254675},{"town":"木器","koaza":"","lat":34.928607,"lng":135.278796},{"town":"乙原","koaza":"","lat":34.987583,"lng":135.236692},{"town":"小野","koaza":"","lat":34.950358,"lng":135.237606},{"town":"市之瀬","koaza":"","lat":34.940659,"lng":135.24803},{"town":"小柿","koaza":"","lat":34.989064,"lng":135.264915},{"town":"上内神","koaza":"","lat":34.914706,"lng":135.15466},{"town":"学園二丁目","koaza":"","lat":34.91576,"lng":135.165333},{"town":"中内神","koaza":"","lat":34.926669,"lng":135.173231},{"town":"ゆりのき台六丁目","koaza":"","lat":34.918558,"lng":135.174998},{"town":"下内神","koaza":"","lat":34.925883,"lng":135.183924},{"town":"けやき台六丁目","koaza":"","lat":34.9163,"lng":135.190811},{"town":"下井沢","koaza":"","lat":34.920538,"lng":135.191923},{"town":"加茂","koaza":"","lat":34.927482,"lng":135.209245},{"town":"東野上","koaza":"","lat":34.920392,"lng":135.210004},{"town":"福島","koaza":"","lat":34.916977,"lng":135.219006},{"town":"大原","koaza":"","lat":34.909515,"lng":135.225982},{"town":"尼寺","koaza":"","lat":34.930926,"lng":135.233095},{"town":"つつじが丘南四丁目","koaza":"","lat":34.943741,"lng":135.12407},{"town":"母子","koaza":"","lat":35.020378,"lng":135.215455},{"town":"藍本","koaza":"","lat":34.983997,"lng":135.157726},{"town":"上本庄","koaza":"","lat":34.998467,"lng":135.190947},{"town":"上青野","koaza":"","lat":34.990478,"lng":135.212011},{"town":"永沢寺","koaza":"","lat":35.014587,"lng":135.246551},{"town":"さくら坂","koaza":"","lat":34.894144,"lng":135.187903},{"town":"西山一丁目","koaza":"","lat":34.883835,"lng":135.219915},{"town":"下田中","koaza":"","lat":34.880973,"lng":135.239324},{"town":"寺村町","koaza":"","lat":34.878001,"lng":135.233394},{"town":"対中町","koaza":"","lat":34.880042,"lng":135.22698},{"town":"相生町","koaza":"","lat":34.882719,"lng":135.229126},{"town":"八景町","koaza":"","lat":34.876192,"lng":135.227472},{"town":"横山町","koaza":"","lat":34.877444,"lng":135.222325},{"town":"南が丘二丁目","koaza":"","lat":34.877476,"lng":135.21656},{"town":"南が丘一丁目","koaza":"","lat":34.880512,"lng":135.220725},{"town":"武庫が丘一丁目","koaza":"","lat":34.880957,"lng":135.213777},{"town":"西山二丁目","koaza":"","lat":34.883513,"lng":135.216532},{"town":"武庫が丘二丁目","koaza":"","lat":34.882852,"lng":135.212266},{"town":"狭間が丘一丁目","koaza":"","lat":34.87915,"lng":135.211304},{"town":"武庫が丘三丁目","koaza":"","lat":34.883392,"lng":135.210077},{"town":"狭間が丘二丁目","koaza":"","lat":34.880526,"lng":135.206575},{"town":"狭間が丘五丁目","koaza":"","lat":34.882648,"lng":135.202518},{"town":"狭間が丘三丁目","koaza":"","lat":34.877577,"lng":135.201889},{"town":"狭間が丘四丁目","koaza":"","lat":34.879762,"lng":135.200842},{"town":"弥生が丘二丁目","koaza":"","lat":34.881578,"lng":135.196509},{"town":"弥生が丘三丁目","koaza":"","lat":34.882449,"lng":135.192169},{"town":"弥生が丘五丁目","koaza":"","lat":34.884477,"lng":135.193789},{"town":"弥生が丘四丁目","koaza":"","lat":34.884583,"lng":135.190249},{"town":"中町","koaza":"","lat":34.885138,"lng":135.230565},{"town":"高次一丁目","koaza":"","lat":34.889355,"lng":135.23176},{"town":"駅前町","koaza":"","lat":34.887039,"lng":135.231602},{"town":"中央町","koaza":"","lat":34.887768,"lng":135.226292},{"town":"高次二丁目","koaza":"","lat":34.890243,"lng":135.233412},{"town":"三輪一丁目","koaza":"","lat":34.890932,"lng":135.228483},{"town":"三輪三丁目","koaza":"","lat":34.895223,"lng":135.227129},{"town":"三田町","koaza":"","lat":34.885252,"lng":135.225616},{"town":"屋敷町","koaza":"","lat":34.885196,"lng":135.222341},{"town":"天神一丁目","koaza":"","lat":34.89024,"lng":135.220965},{"town":"天神三丁目","koaza":"","lat":34.887482,"lng":135.215815},{"town":"天神二丁目","koaza":"","lat":34.889526,"lng":135.219492},{"town":"三輪二丁目","koaza":"","lat":34.892084,"lng":135.223939},{"town":"三輪四丁目","koaza":"","lat":34.896668,"lng":135.223764},{"town":"友が丘一丁目","koaza":"","lat":34.901579,"lng":135.224664},{"town":"川除","koaza":"","lat":34.896477,"lng":135.217337},{"town":"武庫が丘四丁目","koaza":"","lat":34.884177,"lng":135.207135},{"town":"武庫が丘六丁目","koaza":"","lat":34.886812,"lng":135.207419},{"town":"武庫が丘八丁目","koaza":"","lat":34.889981,"lng":135.208154},{"town":"下深田","koaza":"","lat":34.890648,"lng":135.210095},{"town":"武庫が丘五丁目","koaza":"","lat":34.88497,"lng":135.204717},{"town":"武庫が丘七丁目","koaza":"","lat":34.887543,"lng":135.203032},{"town":"弥生が丘一丁目","koaza":"","lat":34.884291,"lng":135.200374},{"town":"弥生が丘六丁目","koaza":"","lat":34.88585,"lng":135.197957},{"town":"富士が丘六丁目","koaza":"","lat":34.889274,"lng":135.199933},{"town":"富士が丘五丁目","koaza":"","lat":34.891622,"lng":135.199393},{"town":"富士が丘一丁目","koaza":"","lat":34.888184,"lng":135.195909},{"town":"富士が丘二丁目","koaza":"","lat":34.888039,"lng":135.192226},{"town":"富士が丘四丁目","koaza":"","lat":34.890208,"lng":135.189377},{"town":"上深田","koaza":"","lat":34.893925,"lng":135.199682},{"town":"すずかけ台一丁目","koaza":"","lat":34.899766,"lng":135.197019},{"town":"富士が丘三丁目","koaza":"","lat":34.88833,"lng":135.18762},{"town":"あかしあ台一丁目","koaza":"","lat":34.89718,"lng":135.187349},{"town":"あかしあ台五丁目","koaza":"","lat":34.899986,"lng":135.187253},{"town":"池尻","koaza":"","lat":34.891494,"lng":135.181296},{"town":"三輪","koaza":"","lat":34.901056,"lng":135.235209},{"town":"友が丘三丁目","koaza":"","lat":34.904921,"lng":135.227664},{"town":"成谷","koaza":"","lat":34.909689,"lng":135.238749},{"town":"友が丘二丁目","koaza":"","lat":34.904899,"lng":135.224654},{"town":"貴志","koaza":"","lat":34.901484,"lng":135.205506},{"town":"すずかけ台四丁目","koaza":"","lat":34.904099,"lng":135.197615},{"town":"すずかけ台二丁目","koaza":"","lat":34.901968,"lng":135.193067},{"town":"すずかけ台三丁目","koaza":"","lat":34.904311,"lng":135.192397},{"town":"けやき台二丁目","koaza":"","lat":34.906512,"lng":135.194864},{"town":"西野上","koaza":"","lat":34.912623,"lng":135.202836},{"town":"けやき台三丁目","koaza":"","lat":34.911811,"lng":135.196207},{"town":"けやき台四丁目","koaza":"","lat":34.9096,"lng":135.19167},{"town":"あかしあ台四丁目","koaza":"","lat":34.904929,"lng":135.185184},{"town":"あかしあ台三丁目","koaza":"","lat":34.903466,"lng":135.18205},{"town":"あかしあ台二丁目","koaza":"","lat":34.899052,"lng":135.180559},{"town":"けやき台五丁目","koaza":"","lat":34.913187,"lng":135.18703},{"town":"けやき台一丁目","koaza":"","lat":34.908201,"lng":135.186762},{"town":"ゆりのき台二丁目","koaza":"","lat":34.906633,"lng":135.17537},{"town":"ゆりのき台一丁目","koaza":"","lat":34.910262,"lng":135.180717},{"town":"ゆりのき台四丁目","koaza":"","lat":34.914263,"lng":135.18134},{"town":"ゆりのき台五丁目","koaza":"","lat":34.915998,"lng":135.183704},{"town":"学園八丁目","koaza":"","lat":34.902174,"lng":135.161109},{"town":"学園七丁目","koaza":"","lat":34.902814,"lng":135.163906},{"town":"学園六丁目","koaza":"","lat":34.906644,"lng":135.164932},{"town":"ゆりのき台三丁目","koaza":"","lat":34.914059,"lng":135.174269},{"town":"沢谷","koaza":"","lat":34.9045,"lng":135.169482},{"town":"学園三丁目","koaza":"","lat":34.911237,"lng":135.165264},{"town":"学園四丁目","koaza":"","lat":34.909472,"lng":135.163254},{"town":"馬渡","koaza":"","lat":34.897079,"lng":135.161781},{"town":"学園一丁目","koaza":"","lat":34.914061,"lng":135.160267},{"town":"学園五丁目","koaza":"","lat":34.906463,"lng":135.160969},{"town":"下槻瀬","koaza":"","lat":34.936402,"lng":135.272651},{"town":"鈴鹿","koaza":"","lat":34.955451,"lng":135.276421},{"town":"下里","koaza":"","lat":34.955035,"lng":135.265217},{"town":"上槻瀬","koaza":"","lat":34.945158,"lng":135.264951},{"town":"波豆川","koaza":"","lat":34.950852,"lng":135.293289},{"town":"酒井","koaza":"","lat":34.964286,"lng":135.266259},{"town":"十倉","koaza":"","lat":34.96505,"lng":135.280077},{"town":"田中","koaza":"","lat":34.974169,"lng":135.268547},{"town":"布木","koaza":"","lat":34.980929,"lng":135.27295},{"town":"川原","koaza":"","lat":34.984411,"lng":135.300153},{"town":"末吉","koaza":"","lat":34.985308,"lng":135.288215},{"town":"上井沢","koaza":"","lat":34.926388,"lng":135.192062},{"town":"広沢","koaza":"","lat":34.924206,"lng":135.186987},{"town":"宮脇","koaza":"","lat":34.934792,"lng":135.195992},{"town":"広野","koaza":"","lat":34.931274,"lng":135.18904},{"town":"大畑","koaza":"","lat":34.938771,"lng":135.188923},{"town":"長坂","koaza":"","lat":34.941877,"lng":135.18164},{"town":"テクノパーク","koaza":"","lat":34.928064,"lng":135.159625},{"town":"溝口","koaza":"","lat":34.93696,"lng":135.175348},{"town":"洞","koaza":"","lat":34.939989,"lng":135.171877},{"town":"下相野","koaza":"","lat":34.939313,"lng":135.159262},{"town":"つつじが丘南一丁目","koaza":"","lat":34.947943,"lng":135.136866},{"town":"つつじが丘南二丁目","koaza":"","lat":34.945648,"lng":135.134373},{"town":"つつじが丘南三丁目","koaza":"","lat":34.943383,"lng":135.131392},{"town":"つつじが丘北一丁目","koaza":"","lat":34.94804,"lng":135.13284},{"town":"つつじが丘北二丁目","koaza":"","lat":34.94395,"lng":135.128147},{"town":"つつじが丘北三丁目","koaza":"","lat":34.945628,"lng":135.126313},{"town":"つつじが丘北四丁目","koaza":"","lat":34.948219,"lng":135.129},{"town":"北浦","koaza":"","lat":34.952731,"lng":135.213497},{"town":"末","koaza":"","lat":34.947439,"lng":135.220394},{"town":"東山","koaza":"","lat":34.945513,"lng":135.194404},{"town":"井ノ草","koaza":"","lat":34.949269,"lng":135.183496},{"town":"上相野","koaza":"","lat":34.948534,"lng":135.147598},{"town":"四ツ辻","koaza":"","lat":34.949417,"lng":135.163484},{"town":"西相野","koaza":"","lat":34.959222,"lng":135.144545},{"town":"下青野","koaza":"","lat":34.962246,"lng":135.213093},{"town":"東本庄","koaza":"","lat":34.961862,"lng":135.17946},{"town":"須磨田","koaza":"","lat":34.96849,"lng":135.196996},{"town":"貴志","koaza":"瀬戸","lat":34.902416,"lng":135.206244},{"town":"川除","koaza":"前田","lat":34.896396,"lng":135.219509}]