[{"town":"港島八丁目","koaza":"","lat":34.665691,"lng":135.228664},{"town":"港島七丁目","koaza":"","lat":34.672655,"lng":135.223518},{"town":"港島一丁目","koaza":"","lat":34.665331,"lng":135.204586},{"town":"港島六丁目","koaza":"","lat":34.670968,"lng":135.217411},{"town":"港島中町二丁目","koaza":"","lat":34.671847,"lng":135.214396},{"town":"港島中町三丁目","koaza":"","lat":34.670765,"lng":135.211547},{"town":"港島中町四丁目","koaza":"","lat":34.670202,"lng":135.2083},{"town":"神戸空港","koaza":"","lat":34.637702,"lng":135.224785},{"town":"港島中町七丁目","koaza":"","lat":34.667534,"lng":135.21703},{"town":"港島中町八丁目","koaza":"","lat":34.661571,"lng":135.212025},{"town":"港島中町六丁目","koaza":"","lat":34.665724,"lng":135.212984},{"town":"港島中町五丁目","koaza":"","lat":34.66374,"lng":135.208568},{"town":"港島九丁目","koaza":"","lat":34.653891,"lng":135.234419},{"town":"港島南町六丁目","koaza":"","lat":34.657299,"lng":135.220303},{"town":"港島南町五丁目","koaza":"","lat":34.655679,"lng":135.216956},{"town":"港島南町七丁目","koaza":"","lat":34.653166,"lng":135.221678},{"town":"港島南町四丁目","koaza":"","lat":34.65469,"lng":135.213271},{"town":"港島南町三丁目","koaza":"","lat":34.657825,"lng":135.210175},{"town":"港島南町一丁目","koaza":"","lat":34.660846,"lng":135.218296},{"town":"港島南町二丁目","koaza":"","lat":34.659412,"lng":135.214831},{"town":"脇浜海岸通","koaza":"","lat":34.701149,"lng":135.215668},{"town":"中島通一丁目","koaza":"","lat":34.71342,"lng":135.209769},{"town":"中島通二丁目","koaza":"","lat":34.713135,"lng":135.209013},{"town":"中島通三丁目","koaza":"","lat":34.712705,"lng":135.208125},{"town":"神仙寺通二丁目","koaza":"","lat":34.714242,"lng":135.208615},{"town":"神仙寺通一丁目","koaza":"","lat":34.715138,"lng":135.208164},{"town":"神仙寺通三丁目","koaza":"","lat":34.713402,"lng":135.206944},{"town":"神仙寺通四丁目","koaza":"","lat":34.713108,"lng":135.20569},{"town":"大日通二丁目","koaza":"","lat":34.706074,"lng":135.212168},{"town":"大日通三丁目","koaza":"","lat":34.705791,"lng":135.210953},{"town":"籠池通二丁目","koaza":"","lat":34.711886,"lng":135.209568},{"town":"坂口通七丁目","koaza":"","lat":34.706637,"lng":135.205361},{"town":"熊内橋通一丁目","koaza":"","lat":34.706084,"lng":135.204153},{"town":"神若通四丁目","koaza":"","lat":34.703233,"lng":135.202266},{"town":"中尾町","koaza":"","lat":34.710262,"lng":135.203139},{"town":"若菜通三丁目","koaza":"","lat":34.702047,"lng":135.203949},{"town":"国香通三丁目","koaza":"","lat":34.702557,"lng":135.203626},{"town":"国香通二丁目","koaza":"","lat":34.703061,"lng":135.204508},{"town":"若菜通一丁目","koaza":"","lat":34.70332,"lng":135.205732},{"town":"中島通四丁目","koaza":"","lat":34.711845,"lng":135.206416},{"town":"籠池通一丁目","koaza":"","lat":34.712047,"lng":135.21049},{"town":"坂口通一丁目","koaza":"","lat":34.708325,"lng":135.212445},{"town":"上筒井通一丁目","koaza":"","lat":34.709257,"lng":135.211894},{"town":"野崎通一丁目","koaza":"","lat":34.710302,"lng":135.210434},{"town":"野崎通二丁目","koaza":"","lat":34.709823,"lng":135.208465},{"town":"籠池通三丁目","koaza":"","lat":34.711292,"lng":135.208701},{"town":"野崎通三丁目","koaza":"","lat":34.709574,"lng":135.207367},{"town":"籠池通四丁目","koaza":"","lat":34.711039,"lng":135.207177},{"town":"上筒井通五丁目","koaza":"","lat":34.708179,"lng":135.207602},{"town":"籠池通五丁目","koaza":"","lat":34.710467,"lng":135.20604},{"town":"野崎通四丁目","koaza":"","lat":34.709239,"lng":135.206462},{"town":"籠池通六丁目","koaza":"","lat":34.710064,"lng":135.205339},{"town":"野崎通五丁目","koaza":"","lat":34.708959,"lng":135.205714},{"town":"野崎通七丁目","koaza":"","lat":34.708437,"lng":135.20411},{"town":"野崎通六丁目","koaza":"","lat":34.708725,"lng":135.204962},{"town":"上筒井通七丁目","koaza":"","lat":34.707554,"lng":135.204864},{"town":"坂口通五丁目","koaza":"","lat":34.707276,"lng":135.208029},{"town":"上筒井通六丁目","koaza":"","lat":34.707879,"lng":135.20615},{"town":"坂口通六丁目","koaza":"","lat":34.706963,"lng":135.206689},{"town":"宮本通六丁目","koaza":"","lat":34.705949,"lng":135.207125},{"town":"宮本通五丁目","koaza":"","lat":34.7064,"lng":135.208241},{"town":"上筒井通四丁目","koaza":"","lat":34.708593,"lng":135.208874},{"town":"坂口通四丁目","koaza":"","lat":34.707551,"lng":135.209275},{"town":"宮本通四丁目","koaza":"","lat":34.706535,"lng":135.209612},{"town":"宮本通三丁目","koaza":"","lat":34.706781,"lng":135.210615},{"town":"上筒井通二丁目","koaza":"","lat":34.708875,"lng":135.210914},{"town":"上筒井通三丁目","koaza":"","lat":34.708653,"lng":135.210009},{"town":"坂口通三丁目","koaza":"","lat":34.707794,"lng":135.210287},{"town":"宮本通一丁目","koaza":"","lat":34.70733,"lng":135.212958},{"town":"坂口通二丁目","koaza":"","lat":34.708043,"lng":135.211275},{"town":"宮本通二丁目","koaza":"","lat":34.707058,"lng":135.21172},{"town":"大日通一丁目","koaza":"","lat":34.706372,"lng":135.213544},{"town":"割塚通一丁目","koaza":"","lat":34.705737,"lng":135.21393},{"town":"割塚通五丁目","koaza":"","lat":34.704612,"lng":135.209106},{"town":"大日通五丁目","koaza":"","lat":34.705202,"lng":135.208631},{"town":"割塚通六丁目","koaza":"","lat":34.704352,"lng":135.20792},{"town":"大日通六丁目","koaza":"","lat":34.704957,"lng":135.207609},{"town":"割塚通七丁目","koaza":"","lat":34.703943,"lng":135.206993},{"town":"神若通一丁目","koaza":"","lat":34.704258,"lng":135.205239},{"town":"国香通一丁目","koaza":"","lat":34.703698,"lng":135.205595},{"town":"大日通七丁目","koaza":"","lat":34.704652,"lng":135.206433},{"town":"旗塚通一丁目","koaza":"","lat":34.705045,"lng":135.204694},{"town":"宮本通七丁目","koaza":"","lat":34.705623,"lng":135.205904},{"town":"国香通四丁目","koaza":"","lat":34.702299,"lng":135.202609},{"town":"国香通五丁目","koaza":"","lat":34.701959,"lng":135.201635},{"town":"割塚通二丁目","koaza":"","lat":34.70536,"lng":135.212502},{"town":"割塚通三丁目","koaza":"","lat":34.705084,"lng":135.211197},{"town":"大日通四丁目","koaza":"","lat":34.705554,"lng":135.209953},{"town":"脇浜町一丁目","koaza":"","lat":34.703584,"lng":135.213039},{"town":"割塚通四丁目","koaza":"","lat":34.704864,"lng":135.210195},{"town":"東雲通一丁目","koaza":"","lat":34.702378,"lng":135.20633},{"town":"東雲通二丁目","koaza":"","lat":34.701831,"lng":135.205236},{"town":"若菜通二丁目","koaza":"","lat":34.702605,"lng":135.20475},{"town":"神若通五丁目","koaza":"","lat":34.703013,"lng":135.20135},{"town":"神若通二丁目","koaza":"","lat":34.703854,"lng":135.204137},{"town":"神若通三丁目","koaza":"","lat":34.703545,"lng":135.203203},{"town":"旗塚通三丁目","koaza":"","lat":34.704511,"lng":135.202742},{"town":"旗塚通四丁目","koaza":"","lat":34.70402,"lng":135.20177},{"town":"熊内橋通三丁目","koaza":"","lat":34.705506,"lng":135.20229},{"town":"旗塚通二丁目","koaza":"","lat":34.704822,"lng":135.203465},{"town":"熊内橋通四丁目","koaza":"","lat":34.705148,"lng":135.201336},{"town":"熊内橋通二丁目","koaza":"","lat":34.705865,"lng":135.203015},{"town":"熊内町一丁目","koaza":"","lat":34.70745,"lng":135.203095},{"town":"中島通五丁目","koaza":"","lat":34.71157,"lng":135.205023},{"town":"籠池通七丁目","koaza":"","lat":34.709429,"lng":135.204418},{"town":"神若通六丁目","koaza":"","lat":34.702523,"lng":135.200117},{"town":"旗塚通五丁目","koaza":"","lat":34.703797,"lng":135.200731},{"town":"葺合町","koaza":"","lat":34.720759,"lng":135.194373},{"town":"生田町三丁目","koaza":"","lat":34.701722,"lng":135.197678},{"town":"旗塚通六丁目","koaza":"","lat":34.70345,"lng":135.199676},{"town":"熊内橋通六丁目","koaza":"","lat":34.70447,"lng":135.19919},{"town":"熊内橋通五丁目","koaza":"","lat":34.704827,"lng":135.200232},{"town":"熊内町二丁目","koaza":"","lat":34.706946,"lng":135.201407},{"town":"熊内町三丁目","koaza":"","lat":34.706513,"lng":135.199961},{"town":"布引町一丁目","koaza":"","lat":34.703413,"lng":135.195584},{"town":"加納町一丁目","koaza":"","lat":34.705242,"lng":135.195102},{"town":"熊内橋通七丁目","koaza":"","lat":34.704122,"lng":135.198089},{"town":"熊内町四丁目","koaza":"","lat":34.705879,"lng":135.198345},{"town":"熊内町七丁目","koaza":"","lat":34.706967,"lng":135.197227},{"town":"生田町一丁目","koaza":"","lat":34.704328,"lng":135.196625},{"town":"熊内町五丁目","koaza":"","lat":34.709805,"lng":135.201123},{"town":"熊内町八丁目","koaza":"","lat":34.710539,"lng":135.198548},{"town":"熊内町六丁目","koaza":"","lat":34.70862,"lng":135.199601},{"town":"熊内町九丁目","koaza":"","lat":34.709754,"lng":135.197649},{"town":"旗塚通七丁目","koaza":"","lat":34.703118,"lng":135.198633},{"town":"生田町二丁目","koaza":"","lat":34.70226,"lng":135.196677},{"town":"脇浜海岸通四丁目","koaza":"","lat":34.694454,"lng":135.207922},{"town":"脇浜海岸通一丁目","koaza":"","lat":34.697438,"lng":135.214328},{"town":"国香通六丁目","koaza":"","lat":34.70163,"lng":135.200549},{"town":"脇浜町二丁目","koaza":"","lat":34.701557,"lng":135.213693},{"town":"脇浜海岸通二丁目","koaza":"","lat":34.699384,"lng":135.21408},{"town":"吾妻通二丁目","koaza":"","lat":34.699172,"lng":135.206863},{"town":"八雲通一丁目","koaza":"","lat":34.701308,"lng":135.20699},{"town":"筒井町一丁目","koaza":"","lat":34.702799,"lng":135.210223},{"town":"筒井町二丁目","koaza":"","lat":34.702529,"lng":135.209085},{"town":"東雲通三丁目","koaza":"","lat":34.701353,"lng":135.204343},{"town":"八雲通三丁目","koaza":"","lat":34.700455,"lng":135.20485},{"town":"若菜通四丁目","koaza":"","lat":34.701554,"lng":135.203096},{"town":"八雲通四丁目","koaza":"","lat":34.700087,"lng":135.20391},{"town":"東雲通四丁目","koaza":"","lat":34.700882,"lng":135.203463},{"town":"東雲通五丁目","koaza":"","lat":34.700333,"lng":135.202454},{"town":"若菜通五丁目","koaza":"","lat":34.701048,"lng":135.202084},{"town":"東雲通六丁目","koaza":"","lat":34.699647,"lng":135.201158},{"town":"八雲通五丁目","koaza":"","lat":34.699666,"lng":135.202832},{"town":"八雲通六丁目","koaza":"","lat":34.699118,"lng":135.201494},{"town":"日暮通六丁目","koaza":"","lat":34.698286,"lng":135.202012},{"town":"雲井通一丁目","koaza":"","lat":34.696886,"lng":135.201584},{"town":"日暮通五丁目","koaza":"","lat":34.698835,"lng":135.203316},{"town":"吾妻通五丁目","koaza":"","lat":34.697861,"lng":135.203887},{"town":"日暮通三丁目","koaza":"","lat":34.699634,"lng":135.205325},{"town":"日暮通四丁目","koaza":"","lat":34.699258,"lng":135.204391},{"town":"八雲通二丁目","koaza":"","lat":34.700841,"lng":135.205825},{"town":"日暮通二丁目","koaza":"","lat":34.700031,"lng":135.206322},{"town":"筒井町三丁目","koaza":"","lat":34.702082,"lng":135.20802},{"town":"日暮通一丁目","koaza":"","lat":34.700499,"lng":135.207494},{"town":"脇浜町三丁目","koaza":"","lat":34.699931,"lng":135.210661},{"town":"北本町通二丁目","koaza":"","lat":34.698344,"lng":135.207356},{"town":"吾妻通一丁目","koaza":"","lat":34.699683,"lng":135.207999},{"town":"北本町通一丁目","koaza":"","lat":34.69874,"lng":135.208584},{"town":"南本町通二丁目","koaza":"","lat":34.697259,"lng":135.208061},{"town":"南本町通一丁目","koaza":"","lat":34.697924,"lng":135.208797},{"town":"南本町通三丁目","koaza":"","lat":34.696854,"lng":135.206954},{"town":"北本町通三丁目","koaza":"","lat":34.697702,"lng":135.206335},{"town":"吾妻通三丁目","koaza":"","lat":34.698726,"lng":135.205846},{"town":"北本町通四丁目","koaza":"","lat":34.697386,"lng":135.205476},{"town":"吾妻通四丁目","koaza":"","lat":34.698302,"lng":135.204949},{"town":"南本町通四丁目","koaza":"","lat":34.696327,"lng":135.206089},{"town":"脇浜海岸通三丁目","koaza":"","lat":34.6955,"lng":135.207234},{"town":"北本町通五丁目","koaza":"","lat":34.696997,"lng":135.204416},{"town":"南本町通五丁目","koaza":"","lat":34.696083,"lng":135.204919},{"town":"北本町通六丁目","koaza":"","lat":34.696416,"lng":135.203226},{"town":"吾妻通六丁目","koaza":"","lat":34.697342,"lng":135.20259},{"town":"真砂通一丁目","koaza":"","lat":34.695282,"lng":135.205167},{"town":"浜辺通一丁目","koaza":"","lat":34.692714,"lng":135.202839},{"town":"南本町通六丁目","koaza":"","lat":34.695551,"lng":135.203661},{"town":"磯上通一丁目","koaza":"","lat":34.694063,"lng":135.203231},{"town":"真砂通二丁目","koaza":"","lat":34.694282,"lng":135.204158},{"town":"小野柄通一丁目","koaza":"","lat":34.695971,"lng":135.2021},{"town":"御幸通一丁目","koaza":"","lat":34.695213,"lng":135.202599},{"town":"小野柄通二丁目","koaza":"","lat":34.695523,"lng":135.201071},{"town":"御幸通二丁目","koaza":"","lat":34.694725,"lng":135.201691},{"town":"磯上通二丁目","koaza":"","lat":34.69366,"lng":135.202331},{"town":"二宮町二丁目","koaza":"","lat":34.699851,"lng":135.197159},{"town":"雲井通二丁目","koaza":"","lat":34.696512,"lng":135.200599},{"town":"雲井通四丁目","koaza":"","lat":34.695457,"lng":135.198538},{"town":"中山手通二丁目","koaza":"","lat":34.695658,"lng":135.188978},{"town":"中山手通一丁目","koaza":"","lat":34.696093,"lng":135.19165},{"town":"北野町一丁目","koaza":"","lat":34.701941,"lng":135.192864},{"town":"北野町三丁目","koaza":"","lat":34.7006,"lng":135.189257},{"town":"山本通三丁目","koaza":"","lat":34.697388,"lng":135.186188},{"town":"雲井通三丁目","koaza":"","lat":34.69599,"lng":135.199696},{"town":"磯上通三丁目","koaza":"","lat":34.693201,"lng":135.20128},{"town":"小野柄通三丁目","koaza":"","lat":34.695166,"lng":135.200064},{"town":"御幸通三丁目","koaza":"","lat":34.694368,"lng":135.200553},{"town":"神若通七丁目","koaza":"","lat":34.701959,"lng":135.199278},{"town":"二宮町一丁目","koaza":"","lat":34.700185,"lng":135.198695},{"town":"布引町二丁目","koaza":"","lat":34.700746,"lng":135.194646},{"town":"生田町四丁目","koaza":"","lat":34.700903,"lng":135.195683},{"town":"国香通七丁目","koaza":"","lat":34.701106,"lng":135.199742},{"town":"若菜通六丁目","koaza":"","lat":34.700492,"lng":135.200651},{"town":"八幡通一丁目","koaza":"","lat":34.691947,"lng":135.200623},{"town":"旭通一丁目","koaza":"","lat":34.698259,"lng":135.200631},{"town":"旭通二丁目","koaza":"","lat":34.697754,"lng":135.199834},{"town":"琴ノ緒町一丁目","koaza":"","lat":34.698453,"lng":135.198469},{"town":"二宮町三丁目","koaza":"","lat":34.699352,"lng":135.196028},{"town":"旭通三丁目","koaza":"","lat":34.697275,"lng":135.19873},{"town":"琴ノ緒町二丁目","koaza":"","lat":34.697669,"lng":135.197377},{"town":"旭通四丁目","koaza":"","lat":34.696573,"lng":135.197849},{"town":"琴ノ緒町四丁目","koaza":"","lat":34.696562,"lng":135.195574},{"town":"琴ノ緒町三丁目","koaza":"","lat":34.697076,"lng":135.196321},{"town":"二宮町四丁目","koaza":"","lat":34.698902,"lng":135.195079},{"town":"御幸通四丁目","koaza":"","lat":34.693824,"lng":135.199512},{"town":"磯上通四丁目","koaza":"","lat":34.692839,"lng":135.200134},{"town":"御幸通五丁目","koaza":"","lat":34.693411,"lng":135.198529},{"town":"小野柄通四丁目","koaza":"","lat":34.694728,"lng":135.199088},{"town":"雲井通五丁目","koaza":"","lat":34.695163,"lng":135.197485},{"town":"磯上通五丁目","koaza":"","lat":34.692643,"lng":135.199002},{"town":"小野柄通五丁目","koaza":"","lat":34.69422,"lng":135.198045},{"town":"小野柄通六丁目","koaza":"","lat":34.693883,"lng":135.197231},{"town":"旭通五丁目","koaza":"","lat":34.695878,"lng":135.196956},{"town":"雲井通六丁目","koaza":"","lat":34.694671,"lng":135.196631},{"town":"雲井通七丁目","koaza":"","lat":34.694518,"lng":135.195992},{"town":"琴ノ緒町五丁目","koaza":"","lat":34.696161,"lng":135.194796},{"town":"御幸通六丁目","koaza":"","lat":34.69307,"lng":135.197717},{"town":"小野柄通七丁目","koaza":"","lat":34.693547,"lng":135.19629},{"town":"小野柄通八丁目","koaza":"","lat":34.693085,"lng":135.195211},{"town":"磯上通六丁目","koaza":"","lat":34.692301,"lng":135.198187},{"town":"御幸通八丁目","koaza":"","lat":34.692148,"lng":135.195714},{"town":"磯上通七丁目","koaza":"","lat":34.691923,"lng":135.197283},{"town":"御幸通七丁目","koaza":"","lat":34.6927,"lng":135.19681},{"town":"加納町五丁目","koaza":"","lat":34.692526,"lng":135.194659},{"town":"雲井通八丁目","koaza":"","lat":34.694071,"lng":135.195138},{"town":"加納町四丁目","koaza":"","lat":34.695075,"lng":135.193287},{"town":"布引町四丁目","koaza":"","lat":34.695275,"lng":135.194047},{"town":"布引町三丁目","koaza":"","lat":34.697691,"lng":135.19412},{"town":"加納町三丁目","koaza":"","lat":34.697736,"lng":135.193053},{"town":"加納町二丁目","koaza":"","lat":34.701177,"lng":135.193979},{"town":"北野町二丁目","koaza":"","lat":34.701556,"lng":135.19103},{"town":"山本通一丁目","koaza":"","lat":34.699199,"lng":135.191881},{"town":"北野町四丁目","koaza":"","lat":34.69943,"lng":135.187502},{"town":"山本通二丁目","koaza":"","lat":34.698101,"lng":135.189548},{"town":"北長狭通一丁目","koaza":"","lat":34.693309,"lng":135.192426},{"town":"下山手通一丁目","koaza":"","lat":34.694506,"lng":135.19081},{"town":"下山手通二丁目","koaza":"","lat":34.693408,"lng":135.189925},{"town":"北長狭通二丁目","koaza":"","lat":34.692139,"lng":135.190537},{"town":"中山手通三丁目","koaza":"","lat":34.694519,"lng":135.187081},{"town":"下山手通三丁目","koaza":"","lat":34.692628,"lng":135.188028},{"town":"山本通四丁目","koaza":"","lat":34.695521,"lng":135.183504},{"town":"諏訪山町","koaza":"","lat":34.695874,"lng":135.179146},{"town":"中山手通四丁目","koaza":"","lat":34.693848,"lng":135.184556},{"town":"再度筋町","koaza":"","lat":34.694445,"lng":135.1773},{"town":"山本通五丁目","koaza":"","lat":34.693178,"lng":135.17966},{"town":"神戸港地方","koaza":"","lat":34.709978,"lng":135.177107},{"town":"浜辺通二丁目","koaza":"","lat":34.691763,"lng":135.201757},{"town":"磯上通八丁目","koaza":"","lat":34.691302,"lng":135.196238},{"town":"八幡通四丁目","koaza":"","lat":34.690024,"lng":135.196779},{"town":"海岸通二丁目","koaza":"","lat":34.686174,"lng":135.187875},{"town":"元町通一丁目","koaza":"","lat":34.689056,"lng":135.188685},{"town":"元町通二丁目","koaza":"","lat":34.68871,"lng":135.187122},{"town":"浜辺通三丁目","koaza":"","lat":34.690186,"lng":135.20107},{"town":"小野浜町","koaza":"","lat":34.689192,"lng":135.209057},{"town":"浜辺通六丁目","koaza":"","lat":34.68736,"lng":135.198782},{"town":"新港町","koaza":"","lat":34.682556,"lng":135.201794},{"town":"海岸通","koaza":"","lat":34.686574,"lng":135.192926},{"town":"前町","koaza":"","lat":34.687188,"lng":135.190349},{"town":"海岸通一丁目","koaza":"","lat":34.686415,"lng":135.189156},{"town":"栄町通一丁目","koaza":"","lat":34.687583,"lng":135.188912},{"town":"栄町通二丁目","koaza":"","lat":34.687263,"lng":135.187504},{"town":"海岸通三丁目","koaza":"","lat":34.685844,"lng":135.186339},{"town":"磯辺通一丁目","koaza":"","lat":34.690991,"lng":135.200396},{"town":"浜辺通四丁目","koaza":"","lat":34.688864,"lng":135.200562},{"town":"磯辺通二丁目","koaza":"","lat":34.689978,"lng":135.199619},{"town":"八幡通二丁目","koaza":"","lat":34.691581,"lng":135.199301},{"town":"浜辺通五丁目","koaza":"","lat":34.688244,"lng":135.199761},{"town":"磯辺通三丁目","koaza":"","lat":34.689451,"lng":135.198677},{"town":"八幡通三丁目","koaza":"","lat":34.690928,"lng":135.197766},{"town":"磯辺通四丁目","koaza":"","lat":34.688834,"lng":135.197651},{"town":"加納町六丁目","koaza":"","lat":34.688801,"lng":135.196121},{"town":"東町","koaza":"","lat":34.688552,"lng":135.195268},{"town":"伊藤町","koaza":"","lat":34.687976,"lng":135.194935},{"town":"江戸町","koaza":"","lat":34.688876,"lng":135.194294},{"town":"京町","koaza":"","lat":34.688797,"lng":135.193369},{"town":"三宮町一丁目","koaza":"","lat":34.691756,"lng":135.1933},{"town":"浪花町","koaza":"","lat":34.688569,"lng":135.19263},{"town":"播磨町","koaza":"","lat":34.688383,"lng":135.191853},{"town":"三宮町二丁目","koaza":"","lat":34.690546,"lng":135.191249},{"town":"明石町","koaza":"","lat":34.688216,"lng":135.190918},{"town":"西町","koaza":"","lat":34.688218,"lng":135.190028},{"town":"三宮町三丁目","koaza":"","lat":34.689889,"lng":135.189823},{"town":"北長狭通三丁目","koaza":"","lat":34.691205,"lng":135.188946},{"town":"北長狭通四丁目","koaza":"","lat":34.690444,"lng":135.186818},{"town":"波止場町","koaza":"","lat":34.68268,"lng":135.187021},{"town":"元町通六丁目","koaza":"","lat":34.683759,"lng":135.180352},{"town":"中山手通五丁目","koaza":"","lat":34.692088,"lng":135.18215},{"town":"花隈町","koaza":"","lat":34.688089,"lng":135.181392},{"town":"多聞通二丁目","koaza":"","lat":34.681612,"lng":135.17715},{"town":"下山手通四丁目","koaza":"","lat":34.691691,"lng":135.185434},{"town":"元町通三丁目","koaza":"","lat":34.687904,"lng":135.185225},{"town":"栄町通三丁目","koaza":"","lat":34.686576,"lng":135.185842},{"town":"海岸通四丁目","koaza":"","lat":34.685273,"lng":135.18458},{"town":"栄町通四丁目","koaza":"","lat":34.685829,"lng":135.183871},{"town":"北長狭通五丁目","koaza":"","lat":34.688981,"lng":135.184075},{"town":"海岸通五丁目","koaza":"","lat":34.684323,"lng":135.183415},{"town":"海岸通六丁目","koaza":"","lat":34.683116,"lng":135.182704},{"town":"元町通四丁目","koaza":"","lat":34.686835,"lng":135.183566},{"town":"弁天町","koaza":"","lat":34.681889,"lng":135.183446},{"town":"栄町通五丁目","koaza":"","lat":34.684616,"lng":135.182748},{"town":"元町通五丁目","koaza":"","lat":34.685318,"lng":135.181901},{"town":"栄町通七丁目","koaza":"","lat":34.681829,"lng":135.181108},{"town":"栄町通六丁目","koaza":"","lat":34.683025,"lng":135.181676},{"town":"北長狭通六丁目","koaza":"","lat":34.68699,"lng":135.181628},{"town":"相生町一丁目","koaza":"","lat":34.681967,"lng":135.179533},{"town":"元町通七丁目","koaza":"","lat":34.682858,"lng":135.179074},{"town":"元町高架通","koaza":"","lat":34.686107,"lng":135.181456},{"town":"北長狭通七丁目","koaza":"","lat":34.684986,"lng":135.179385},{"town":"多聞通一丁目","koaza":"","lat":34.682223,"lng":135.177913},{"town":"北長狭通八丁目","koaza":"","lat":34.683561,"lng":135.178011},{"town":"下山手通八丁目","koaza":"","lat":34.686097,"lng":135.178809},{"town":"橘通一丁目","koaza":"","lat":34.683127,"lng":135.177347},{"town":"橘通二丁目","koaza":"","lat":34.682601,"lng":135.176299},{"town":"楠町一丁目","koaza":"","lat":34.684593,"lng":135.176723},{"town":"下山手通九丁目","koaza":"","lat":34.685953,"lng":135.176615},{"town":"中山手通八丁目","koaza":"","lat":34.687921,"lng":135.174189},{"town":"楠町二丁目","koaza":"","lat":34.683557,"lng":135.175493},{"town":"楠町三丁目","koaza":"","lat":34.684455,"lng":135.17479},{"town":"橘通三丁目","koaza":"","lat":34.681277,"lng":135.174194},{"town":"橘通四丁目","koaza":"","lat":34.68092,"lng":135.173321},{"town":"楠町五丁目","koaza":"","lat":34.682299,"lng":135.173449},{"town":"楠町四丁目","koaza":"","lat":34.683531,"lng":135.17309},{"town":"楠町六丁目","koaza":"","lat":34.682777,"lng":135.171486},{"town":"楠町七丁目","koaza":"","lat":34.686148,"lng":135.172114},{"town":"下山手通五丁目","koaza":"","lat":34.69041,"lng":135.183182},{"town":"中山手通六丁目","koaza":"","lat":34.691216,"lng":135.180169},{"town":"下山手通六丁目","koaza":"","lat":34.689906,"lng":135.180661},{"town":"下山手通七丁目","koaza":"","lat":34.688217,"lng":135.178081},{"town":"中山手通七丁目","koaza":"","lat":34.690481,"lng":135.176515},{"town":"楠町八丁目","koaza":"","lat":34.687387,"lng":135.173421},{"town":"港島五丁目","koaza":"","lat":34.677266,"lng":135.219238},{"town":"港島中町一丁目","koaza":"","lat":34.674989,"lng":135.210669},{"town":"港島四丁目","koaza":"","lat":34.680123,"lng":135.216217},{"town":"港島三丁目","koaza":"","lat":34.677513,"lng":135.210099},{"town":"港島二丁目","koaza":"","lat":34.674679,"lng":135.204825},{"town":"東川崎町二丁目","koaza":"","lat":34.673476,"lng":135.186054},{"town":"多聞通五丁目","koaza":"","lat":34.679988,"lng":135.174261},{"town":"東川崎町七丁目","koaza":"","lat":34.67569,"lng":135.178976},{"town":"東川崎町六丁目","koaza":"","lat":34.675364,"lng":135.180067},{"town":"東川崎町三丁目","koaza":"","lat":34.674814,"lng":135.18258},{"town":"東川崎町四丁目","koaza":"","lat":34.67506,"lng":135.181617},{"town":"東川崎町五丁目","koaza":"","lat":34.67528,"lng":135.180921},{"town":"東川崎町一丁目","koaza":"","lat":34.679078,"lng":135.181963},{"town":"相生町三丁目","koaza":"","lat":34.67964,"lng":135.177507},{"town":"相生町二丁目","koaza":"","lat":34.68108,"lng":135.177958},{"town":"相生町四丁目","koaza":"","lat":34.677719,"lng":135.17712},{"town":"古湊通一丁目","koaza":"","lat":34.678234,"lng":135.175941},{"town":"中町通三丁目","koaza":"","lat":34.679027,"lng":135.175192},{"town":"相生町五丁目","koaza":"","lat":34.676286,"lng":135.177213},{"town":"多聞通三丁目","koaza":"","lat":34.681112,"lng":135.175881},{"town":"中町通二丁目","koaza":"","lat":34.679321,"lng":135.176054},{"town":"多聞通四丁目","koaza":"","lat":34.680307,"lng":135.175135},{"town":"古湊通二丁目","koaza":"","lat":34.67751,"lng":135.175152},{"town":"中町通四丁目","koaza":"","lat":34.678376,"lng":135.174312},{"town":"葺合町","koaza":"寺ヶ谷","lat":34.710231,"lng":135.195123}]