[{"town":"桜森町","koaza":"","lat":34.743738,"lng":135.173906},{"town":"山田町東下","koaza":"","lat":34.7614,"lng":135.119754},{"town":"ひよどり台南町四丁目","koaza":"","lat":34.691558,"lng":135.122422},{"town":"ひよどり台南町三丁目","koaza":"","lat":34.689559,"lng":135.12006},{"town":"ひよどり台南町二丁目","koaza":"","lat":34.688913,"lng":135.122732},{"town":"ひよどり台一丁目","koaza":"","lat":34.694667,"lng":135.121441},{"town":"ひよどり台三丁目","koaza":"","lat":34.69812,"lng":135.124268},{"town":"星和台七丁目","koaza":"","lat":34.724092,"lng":135.121072},{"town":"星和台六丁目","koaza":"","lat":34.722671,"lng":135.122708},{"town":"有野町唐櫃","koaza":"","lat":34.781502,"lng":135.225979},{"town":"有馬町","koaza":"","lat":34.789225,"lng":135.255196},{"town":"山田町上谷上","koaza":"","lat":34.759717,"lng":135.192908},{"town":"小倉台三丁目","koaza":"","lat":34.753455,"lng":135.166987},{"town":"小倉台七丁目","koaza":"","lat":34.752045,"lng":135.17109},{"town":"小倉台一丁目","koaza":"","lat":34.754044,"lng":135.16386},{"town":"緑町四丁目","koaza":"","lat":34.752571,"lng":135.149629},{"town":"桂木四丁目","koaza":"","lat":34.753232,"lng":135.147196},{"town":"桂木三丁目","koaza":"","lat":34.753004,"lng":135.143966},{"town":"山田町原野","koaza":"","lat":34.766309,"lng":135.143237},{"town":"日の峰二丁目","koaza":"","lat":34.754715,"lng":135.141953},{"town":"山田町中","koaza":"","lat":34.77234,"lng":135.129498},{"town":"山田町小河","koaza":"","lat":34.749125,"lng":135.100783},{"town":"山田町西下","koaza":"","lat":34.756688,"lng":135.108599},{"town":"山田町坂本","koaza":"","lat":34.780511,"lng":135.114776},{"town":"淡河町野瀬","koaza":"","lat":34.801654,"lng":135.153856},{"town":"淡河町萩原","koaza":"","lat":34.810432,"lng":135.109188},{"town":"淡河町木津","koaza":"","lat":34.810559,"lng":135.118847},{"town":"淡河町行原","koaza":"","lat":34.812832,"lng":135.125174},{"town":"淡河町北畑","koaza":"","lat":34.826978,"lng":135.122753},{"town":"淡河町南僧尾","koaza":"","lat":34.829116,"lng":135.109207},{"town":"淡河町北僧尾","koaza":"","lat":34.836076,"lng":135.116654},{"town":"京地三丁目","koaza":"","lat":34.83723,"lng":135.211364},{"town":"道場町塩田","koaza":"","lat":34.865533,"lng":135.237089},{"town":"道場町生野","koaza":"","lat":34.864133,"lng":135.268285},{"town":"有野町有野","koaza":"","lat":34.816201,"lng":135.223084},{"town":"有野町二郎","koaza":"","lat":34.845818,"lng":135.227001},{"town":"西山一丁目","koaza":"","lat":34.836958,"lng":135.218485},{"town":"京地二丁目","koaza":"","lat":34.837149,"lng":135.214519},{"town":"八多町上小名田","koaza":"","lat":34.835567,"lng":135.196431},{"town":"八多町吉尾","koaza":"","lat":34.827327,"lng":135.209788},{"town":"大沢町神付","koaza":"","lat":34.837034,"lng":135.181061},{"town":"大沢町中大沢","koaza":"","lat":34.847893,"lng":135.161989},{"town":"大沢町上大沢","koaza":"","lat":34.849402,"lng":135.184629},{"town":"八多町西畑","koaza":"","lat":34.828918,"lng":135.170298},{"town":"淡河町神影","koaza":"","lat":34.832175,"lng":135.142093},{"town":"淡河町神田","koaza":"","lat":34.831777,"lng":135.156388},{"town":"ひよどり台南町一丁目","koaza":"","lat":34.689325,"lng":135.124481},{"town":"ひよどり台四丁目","koaza":"","lat":34.698438,"lng":135.128764},{"town":"中里町二丁目","koaza":"","lat":34.714243,"lng":135.154523},{"town":"鈴蘭台南町九丁目","koaza":"","lat":34.717403,"lng":135.146445},{"town":"君影町四丁目","koaza":"","lat":34.715532,"lng":135.140535},{"town":"君影町五丁目","koaza":"","lat":34.717947,"lng":135.140964},{"town":"君影町二丁目","koaza":"","lat":34.715007,"lng":135.137965},{"town":"君影町三丁目","koaza":"","lat":34.717482,"lng":135.138084},{"town":"君影町一丁目","koaza":"","lat":34.716825,"lng":135.13457},{"town":"星和台二丁目","koaza":"","lat":34.716357,"lng":135.13142},{"town":"星和台三丁目","koaza":"","lat":34.718073,"lng":135.124866},{"town":"鈴蘭台北町八丁目","koaza":"","lat":34.72554,"lng":135.157116},{"town":"中里町一丁目","koaza":"","lat":34.718391,"lng":135.156068},{"town":"鈴蘭台東町九丁目","koaza":"","lat":34.72212,"lng":135.157059},{"town":"鈴蘭台東町八丁目","koaza":"","lat":34.7228,"lng":135.153883},{"town":"鈴蘭台東町七丁目","koaza":"","lat":34.724957,"lng":135.154673},{"town":"鈴蘭台東町六丁目","koaza":"","lat":34.723698,"lng":135.152511},{"town":"鈴蘭台東町三丁目","koaza":"","lat":34.722574,"lng":135.150178},{"town":"鈴蘭台東町四丁目","koaza":"","lat":34.723478,"lng":135.149089},{"town":"鈴蘭台北町九丁目","koaza":"","lat":34.728499,"lng":135.158819},{"town":"鈴蘭台北町七丁目","koaza":"","lat":34.727353,"lng":135.156007},{"town":"惣山町四丁目","koaza":"","lat":34.733357,"lng":135.156715},{"town":"鈴蘭台東町五丁目","koaza":"","lat":34.725479,"lng":135.150984},{"town":"鈴蘭台北町五丁目","koaza":"","lat":34.727669,"lng":135.152097},{"town":"鈴蘭台北町六丁目","koaza":"","lat":34.729596,"lng":135.152431},{"town":"鈴蘭台北町四丁目","koaza":"","lat":34.726473,"lng":135.14993},{"town":"鈴蘭台北町三丁目","koaza":"","lat":34.729546,"lng":135.149097},{"town":"惣山町三丁目","koaza":"","lat":34.735019,"lng":135.153976},{"town":"鈴蘭台南町八丁目","koaza":"","lat":34.716991,"lng":135.144969},{"town":"鈴蘭台東町二丁目","koaza":"","lat":34.720506,"lng":135.148887},{"town":"鈴蘭台東町一丁目","koaza":"","lat":34.721841,"lng":135.147119},{"town":"鈴蘭台北町一丁目","koaza":"","lat":34.726001,"lng":135.147259},{"town":"鈴蘭台南町七丁目","koaza":"","lat":34.720191,"lng":135.144879},{"town":"鈴蘭台南町六丁目","koaza":"","lat":34.721932,"lng":135.144029},{"town":"鈴蘭台南町一丁目","koaza":"","lat":34.723792,"lng":135.144121},{"town":"君影町六丁目","koaza":"","lat":34.719308,"lng":135.140998},{"town":"南五葉六丁目","koaza":"","lat":34.720256,"lng":135.139021},{"town":"鈴蘭台南町五丁目","koaza":"","lat":34.721416,"lng":135.141824},{"town":"鈴蘭台南町二丁目","koaza":"","lat":34.724312,"lng":135.140476},{"town":"南五葉四丁目","koaza":"","lat":34.719215,"lng":135.135479},{"town":"南五葉五丁目","koaza":"","lat":34.722,"lng":135.136909},{"town":"鈴蘭台南町四丁目","koaza":"","lat":34.723521,"lng":135.13783},{"town":"鈴蘭台北町二丁目","koaza":"","lat":34.728042,"lng":135.146111},{"town":"鈴蘭台南町三丁目","koaza":"","lat":34.725225,"lng":135.138002},{"town":"鈴蘭台西町一丁目","koaza":"","lat":34.72623,"lng":135.143469},{"town":"鈴蘭台西町六丁目","koaza":"","lat":34.731738,"lng":135.146042},{"town":"鈴蘭台西町四丁目","koaza":"","lat":34.728943,"lng":135.14311},{"town":"鈴蘭台西町五丁目","koaza":"","lat":34.730855,"lng":135.143003},{"town":"鈴蘭台西町二丁目","koaza":"","lat":34.727143,"lng":135.139092},{"town":"鈴蘭台西町三丁目","koaza":"","lat":34.729241,"lng":135.139636},{"town":"北五葉七丁目","koaza":"","lat":34.730401,"lng":135.138744},{"town":"北五葉六丁目","koaza":"","lat":34.73275,"lng":135.139199},{"town":"北五葉三丁目","koaza":"","lat":34.730446,"lng":135.136168},{"town":"南五葉三丁目","koaza":"","lat":34.720771,"lng":135.133236},{"town":"南五葉一丁目","koaza":"","lat":34.724237,"lng":135.134805},{"town":"北五葉一丁目","koaza":"","lat":34.727239,"lng":135.135279},{"town":"鳴子一丁目","koaza":"","lat":34.724081,"lng":135.128978},{"town":"鳴子二丁目","koaza":"","lat":34.722923,"lng":135.126661},{"town":"鳴子三丁目","koaza":"","lat":34.725786,"lng":135.127353},{"town":"南五葉二丁目","koaza":"","lat":34.724199,"lng":135.131665},{"town":"北五葉二丁目","koaza":"","lat":34.728888,"lng":135.131855},{"town":"北五葉五丁目","koaza":"","lat":34.734035,"lng":135.136212},{"town":"北五葉四丁目","koaza":"","lat":34.733451,"lng":135.13305},{"town":"筑紫が丘六丁目","koaza":"","lat":34.741694,"lng":135.164114},{"town":"筑紫が丘五丁目","koaza":"","lat":34.741662,"lng":135.161279},{"town":"筑紫が丘八丁目","koaza":"","lat":34.743879,"lng":135.168314},{"town":"筑紫が丘九丁目","koaza":"","lat":34.745741,"lng":135.16936},{"town":"小倉台六丁目","koaza":"","lat":34.748838,"lng":135.17145},{"town":"小倉台五丁目","koaza":"","lat":34.749345,"lng":135.16892},{"town":"小倉台四丁目","koaza":"","lat":34.751415,"lng":135.168515},{"town":"筑紫が丘七丁目","koaza":"","lat":34.742833,"lng":135.165878},{"town":"筑紫が丘四丁目","koaza":"","lat":34.746037,"lng":135.166254},{"town":"筑紫が丘三丁目","koaza":"","lat":34.744671,"lng":135.16283},{"town":"筑紫が丘一丁目","koaza":"","lat":34.746159,"lng":135.161505},{"town":"筑紫が丘二丁目","koaza":"","lat":34.748339,"lng":135.166062},{"town":"小倉台二丁目","koaza":"","lat":34.750941,"lng":135.165417},{"town":"広陵町五丁目","koaza":"","lat":34.749117,"lng":135.163405},{"town":"広陵町四丁目","koaza":"","lat":34.751399,"lng":135.162759},{"town":"広陵町三丁目","koaza":"","lat":34.750382,"lng":135.161045},{"town":"大脇台","koaza":"","lat":34.7387,"lng":135.161621},{"town":"山田町小部","koaza":"","lat":34.732713,"lng":135.162901},{"town":"惣山町五丁目","koaza":"","lat":34.736601,"lng":135.157265},{"town":"若葉台三丁目","koaza":"","lat":34.738394,"lng":135.157752},{"town":"若葉台二丁目","koaza":"","lat":34.740851,"lng":135.157155},{"town":"惣山町二丁目","koaza":"","lat":34.736878,"lng":135.153968},{"town":"惣山町一丁目","koaza":"","lat":34.73391,"lng":135.151279},{"town":"若葉台四丁目","koaza":"","lat":34.73874,"lng":135.153049},{"town":"若葉台一丁目","koaza":"","lat":34.740855,"lng":135.153727},{"town":"甲栄台五丁目","koaza":"","lat":34.737593,"lng":135.149416},{"town":"甲栄台四丁目","koaza":"","lat":34.739134,"lng":135.149804},{"town":"松宮台一丁目","koaza":"","lat":34.736223,"lng":135.148455},{"town":"広陵町六丁目","koaza":"","lat":34.748059,"lng":135.161489},{"town":"広陵町一丁目","koaza":"","lat":34.749986,"lng":135.157776},{"town":"広陵町二丁目","koaza":"","lat":34.750174,"lng":135.159459},{"town":"甲栄台一丁目","koaza":"","lat":34.741852,"lng":135.151412},{"town":"緑町一丁目","koaza":"","lat":34.746915,"lng":135.153087},{"town":"甲栄台二丁目","koaza":"","lat":34.741806,"lng":135.149737},{"town":"緑町七丁目","koaza":"","lat":34.745354,"lng":135.150811},{"town":"緑町八丁目","koaza":"","lat":34.751249,"lng":135.153304},{"town":"緑町三丁目","koaza":"","lat":34.75015,"lng":135.150341},{"town":"緑町二丁目","koaza":"","lat":34.749223,"lng":135.148664},{"town":"甲栄台三丁目","koaza":"","lat":34.741911,"lng":135.1478},{"town":"松宮台二丁目","koaza":"","lat":34.736193,"lng":135.144993},{"town":"泉台二丁目","koaza":"","lat":34.739355,"lng":135.144786},{"town":"泉台一丁目","koaza":"","lat":34.741026,"lng":135.144758},{"town":"杉尾台一丁目","koaza":"","lat":34.735788,"lng":135.140679},{"town":"泉台三丁目","koaza":"","lat":34.739792,"lng":135.140981},{"town":"泉台四丁目","koaza":"","lat":34.74019,"lng":135.137982},{"town":"緑町六丁目","koaza":"","lat":34.74563,"lng":135.147304},{"town":"緑町五丁目","koaza":"","lat":34.748639,"lng":135.146764},{"town":"桂木一丁目","koaza":"","lat":34.748152,"lng":135.145806},{"town":"桂木二丁目","koaza":"","lat":34.749308,"lng":135.143562},{"town":"大原一丁目","koaza":"","lat":34.744531,"lng":135.143858},{"town":"大原二丁目","koaza":"","lat":34.745212,"lng":135.138198},{"town":"大原三丁目","koaza":"","lat":34.748411,"lng":135.139116},{"town":"杉尾台二丁目","koaza":"","lat":34.736161,"lng":135.138065},{"town":"泉台六丁目","koaza":"","lat":34.736263,"lng":135.134919},{"town":"泉台五丁目","koaza":"","lat":34.738822,"lng":135.13467},{"town":"泉台七丁目","koaza":"","lat":34.737097,"lng":135.131324},{"town":"ひよどり台二丁目","koaza":"","lat":34.697497,"lng":135.118933},{"town":"谷上西町","koaza":"","lat":34.761782,"lng":135.168577},{"town":"谷上南町","koaza":"","lat":34.763301,"lng":135.178887},{"town":"谷上東町","koaza":"","lat":34.763322,"lng":135.175715},{"town":"有野中町二丁目","koaza":"","lat":34.825463,"lng":135.225371},{"town":"花山中尾台二丁目","koaza":"","lat":34.766285,"lng":135.195054},{"town":"幸陽町三丁目","koaza":"","lat":34.765227,"lng":135.191546},{"town":"幸陽町二丁目","koaza":"","lat":34.767081,"lng":135.19019},{"town":"花山東町","koaza":"","lat":34.765359,"lng":135.185496},{"town":"松が枝町一丁目","koaza":"","lat":34.757048,"lng":135.151754},{"town":"松が枝町二丁目","koaza":"","lat":34.759256,"lng":135.150855},{"town":"松が枝町三丁目","koaza":"","lat":34.760514,"lng":135.150834},{"town":"日の峰一丁目","koaza":"","lat":34.758448,"lng":135.147525},{"town":"日の峰三丁目","koaza":"","lat":34.75829,"lng":135.14443},{"town":"日の峰四丁目","koaza":"","lat":34.762174,"lng":135.145693},{"town":"日の峰五丁目","koaza":"","lat":34.760518,"lng":135.141828},{"town":"唐櫃六甲台","koaza":"","lat":34.782871,"lng":135.207807},{"town":"東大池三丁目","koaza":"","lat":34.776217,"lng":135.201078},{"town":"東大池二丁目","koaza":"","lat":34.780799,"lng":135.201657},{"town":"幸陽町一丁目","koaza":"","lat":34.768442,"lng":135.188143},{"town":"花山中尾台三丁目","koaza":"","lat":34.76881,"lng":135.196871},{"town":"花山中尾台一丁目","koaza":"","lat":34.768893,"lng":135.191693},{"town":"大池見山台","koaza":"","lat":34.774331,"lng":135.191494},{"town":"西大池二丁目","koaza":"","lat":34.774106,"lng":135.198057},{"town":"東大池一丁目","koaza":"","lat":34.778002,"lng":135.199429},{"town":"西大池一丁目","koaza":"","lat":34.777969,"lng":135.1971},{"town":"花山台","koaza":"","lat":34.769503,"lng":135.184592},{"town":"青葉台","koaza":"","lat":34.766144,"lng":135.152369},{"town":"柏尾台","koaza":"","lat":34.77131,"lng":135.148013},{"town":"山田町福地","koaza":"","lat":34.774554,"lng":135.136551},{"town":"唐櫃台一丁目","koaza":"","lat":34.792324,"lng":135.216526},{"town":"唐櫃台二丁目","koaza":"","lat":34.790294,"lng":135.213289},{"town":"唐櫃台四丁目","koaza":"","lat":34.785376,"lng":135.213823},{"town":"唐櫃台三丁目","koaza":"","lat":34.787525,"lng":135.213565},{"town":"山田町与左衛門新田","koaza":"","lat":34.785655,"lng":135.161947},{"town":"東有野台四丁目","koaza":"","lat":34.807574,"lng":135.237218},{"town":"東有野台三丁目","koaza":"","lat":34.808117,"lng":135.239985},{"town":"東有野台五丁目","koaza":"","lat":34.805854,"lng":135.237509},{"town":"東有野台二丁目","koaza":"","lat":34.810825,"lng":135.23455},{"town":"東有野台一丁目","koaza":"","lat":34.808734,"lng":135.233839},{"town":"有野台七丁目","koaza":"","lat":34.809364,"lng":135.228411},{"town":"有野台六丁目","koaza":"","lat":34.811989,"lng":135.230983},{"town":"有野台五丁目","koaza":"","lat":34.814441,"lng":135.231314},{"town":"有野台四丁目","koaza":"","lat":34.816786,"lng":135.230805},{"town":"有野台三丁目","koaza":"","lat":34.815374,"lng":135.227202},{"town":"有野台二丁目","koaza":"","lat":34.812452,"lng":135.226059},{"town":"有野台八丁目","koaza":"","lat":34.807962,"lng":135.227122},{"town":"有野台一丁目","koaza":"","lat":34.810857,"lng":135.224335},{"town":"有野台九丁目","koaza":"","lat":34.808177,"lng":135.22052},{"town":"藤原台中町八丁目","koaza":"","lat":34.816837,"lng":135.220617},{"town":"藤原台南町一丁目","koaza":"","lat":34.812644,"lng":135.209691},{"town":"藤原台中町七丁目","koaza":"","lat":34.81435,"lng":135.212507},{"town":"藤原台中町六丁目","koaza":"","lat":34.816095,"lng":135.215025},{"town":"藤原台南町四丁目","koaza":"","lat":34.81399,"lng":135.205516},{"town":"藤原台南町三丁目","koaza":"","lat":34.810775,"lng":135.20774},{"town":"藤原台南町二丁目","koaza":"","lat":34.80989,"lng":135.211562},{"town":"藤原台南町五丁目","koaza":"","lat":34.815266,"lng":135.202774},{"town":"八多町柳谷","koaza":"","lat":34.812183,"lng":135.199086},{"town":"有野中町三丁目","koaza":"","lat":34.830097,"lng":135.226025},{"town":"藤原台中町二丁目","koaza":"","lat":34.819572,"lng":135.220175},{"town":"藤原台中町三丁目","koaza":"","lat":34.819135,"lng":135.217124},{"town":"藤原台中町四丁目","koaza":"","lat":34.819527,"lng":135.214768},{"town":"藤原台中町一丁目","koaza":"","lat":34.82226,"lng":135.218861},{"town":"藤原台中町五丁目","koaza":"","lat":34.819951,"lng":135.21241},{"town":"有野中町一丁目","koaza":"","lat":34.820326,"lng":135.222714},{"town":"藤原台北町一丁目","koaza":"","lat":34.825414,"lng":135.222498},{"town":"藤原台北町二丁目","koaza":"","lat":34.825281,"lng":135.219155},{"town":"藤原台北町三丁目","koaza":"","lat":34.827975,"lng":135.220458},{"town":"藤原台北町六丁目","koaza":"","lat":34.831724,"lng":135.223712},{"town":"藤原台北町五丁目","koaza":"","lat":34.831435,"lng":135.221293},{"town":"有野中町四丁目","koaza":"","lat":34.834359,"lng":135.227834},{"town":"藤原台北町四丁目","koaza":"","lat":34.828795,"lng":135.217674},{"town":"藤原台北町七丁目","koaza":"","lat":34.834615,"lng":135.222026},{"town":"京地四丁目","koaza":"","lat":34.834581,"lng":135.211514},{"town":"京地一丁目","koaza":"","lat":34.834217,"lng":135.215778},{"town":"八多町附物","koaza":"","lat":34.804502,"lng":135.184578},{"town":"八多町屏風","koaza":"","lat":34.804936,"lng":135.172695},{"town":"八多町深谷","koaza":"","lat":34.823178,"lng":135.181929},{"town":"淡河町中山","koaza":"","lat":34.812149,"lng":135.139818},{"town":"淡河町東畑","koaza":"","lat":34.816293,"lng":135.131193},{"town":"山田町衝原","koaza":"","lat":34.773259,"lng":135.092761},{"town":"淡河町勝雄","koaza":"","lat":34.803575,"lng":135.088581},{"town":"淡河町淡河","koaza":"","lat":34.81002,"lng":135.09751},{"town":"上津台八丁目","koaza":"","lat":34.859139,"lng":135.194506},{"town":"上津台五丁目","koaza":"","lat":34.86992,"lng":135.19201},{"town":"上津台七丁目","koaza":"","lat":34.861548,"lng":135.191465},{"town":"上津台四丁目","koaza":"","lat":34.868182,"lng":135.197607},{"town":"上津台六丁目","koaza":"","lat":34.867253,"lng":135.191531},{"town":"上津台九丁目","koaza":"","lat":34.85995,"lng":135.198213},{"town":"上津台一丁目","koaza":"","lat":34.864188,"lng":135.201342},{"town":"鹿の子台南町六丁目","koaza":"","lat":34.857058,"lng":135.207703},{"town":"上津台二丁目","koaza":"","lat":34.863572,"lng":135.194998},{"town":"上津台三丁目","koaza":"","lat":34.867196,"lng":135.195893},{"town":"赤松台一丁目","koaza":"","lat":34.877279,"lng":135.184151},{"town":"赤松台二丁目","koaza":"","lat":34.877489,"lng":135.177082},{"town":"西山二丁目","koaza":"","lat":34.838918,"lng":135.221725},{"town":"菖蒲が丘三丁目","koaza":"","lat":34.841947,"lng":135.224536},{"town":"菖蒲が丘一丁目","koaza":"","lat":34.840277,"lng":135.218306},{"town":"菖蒲が丘二丁目","koaza":"","lat":34.842311,"lng":135.221203},{"town":"八多町下小名田","koaza":"","lat":34.844028,"lng":135.20991},{"town":"道場町平田","koaza":"","lat":34.852823,"lng":135.237274},{"town":"道場町道場","koaza":"","lat":34.864108,"lng":135.22932},{"town":"八多町中","koaza":"","lat":34.850463,"lng":135.218014},{"town":"鹿の子台南町二丁目","koaza":"","lat":34.849256,"lng":135.209001},{"town":"鹿の子台南町一丁目","koaza":"","lat":34.852533,"lng":135.215539},{"town":"鹿の子台南町四丁目","koaza":"","lat":34.853946,"lng":135.213839},{"town":"道場町日下部","koaza":"","lat":34.860988,"lng":135.227316},{"town":"鹿の子台北町三丁目","koaza":"","lat":34.859503,"lng":135.221763},{"town":"鹿の子台北町四丁目","koaza":"","lat":34.860221,"lng":135.21989},{"town":"鹿の子台北町二丁目","koaza":"","lat":34.864566,"lng":135.224454},{"town":"鹿の子台北町五丁目","koaza":"","lat":34.86422,"lng":135.221333},{"town":"鹿の子台北町一丁目","koaza":"","lat":34.867733,"lng":135.223269},{"town":"鹿の子台北町六丁目","koaza":"","lat":34.862598,"lng":135.217689},{"town":"鹿の子台北町八丁目","koaza":"","lat":34.860105,"lng":135.216297},{"town":"鹿の子台南町五丁目","koaza":"","lat":34.859509,"lng":135.21338},{"town":"鹿の子台南町三丁目","koaza":"","lat":34.853018,"lng":135.210511},{"town":"大沢町日西原","koaza":"","lat":34.861132,"lng":135.169126},{"town":"鹿の子台北町七丁目","koaza":"","lat":34.867567,"lng":135.218272},{"town":"長尾町宅原","koaza":"","lat":34.862575,"lng":135.206702},{"town":"大沢町市原","koaza":"","lat":34.873953,"lng":135.171835},{"town":"大沢町簾","koaza":"","lat":34.870787,"lng":135.160841},{"town":"長尾町上津","koaza":"","lat":34.876491,"lng":135.193979},{"town":"ひよどり台五丁目","koaza":"","lat":34.701192,"lng":135.120992},{"town":"ひよどり北町一丁目","koaza":"","lat":34.704457,"lng":135.11981},{"town":"ひよどり北町二丁目","koaza":"","lat":34.705641,"lng":135.119916},{"town":"ひよどり北町三丁目","koaza":"","lat":34.708477,"lng":135.120008},{"town":"山田町下谷上","koaza":"","lat":34.725645,"lng":135.173837},{"town":"星和台四丁目","koaza":"","lat":34.719199,"lng":135.122739},{"town":"星和台五丁目","koaza":"","lat":34.719088,"lng":135.119811},{"town":"しあわせの村","koaza":"","lat":34.711657,"lng":135.114707},{"town":"山田町藍那","koaza":"","lat":34.731305,"lng":135.11473},{"town":"星和台一丁目","koaza":"","lat":34.719007,"lng":135.130003},{"town":"山田町小河","koaza":"辻","lat":34.751679,"lng":135.092813},{"town":"山田町小河","koaza":"下キトラ","lat":34.752213,"lng":135.099778},{"town":"山田町小河","koaza":"西ノ山","lat":34.749162,"lng":135.097092},{"town":"山田町下谷上","koaza":"中一里山","lat":34.714613,"lng":135.145074},{"town":"山田町衝原","koaza":"道南","lat":34.76953,"lng":135.104162},{"town":"山田町小河","koaza":"前田","lat":34.747136,"lng":135.096781},{"town":"山田町小河","koaza":"西ン谷","lat":34.74795,"lng":135.09702},{"town":"山田町西下","koaza":"押部道","lat":34.7578,"lng":135.105192},{"town":"山田町小河","koaza":"梅木谷奥","lat":34.756593,"lng":135.097674},{"town":"山田町小河","koaza":"中ノ溜","lat":34.748837,"lng":135.097951},{"town":"山田町小河","koaza":"平五郎","lat":34.745297,"lng":135.09908},{"town":"山田町小河","koaza":"上ノ山","lat":34.745659,"lng":135.100866},{"town":"山田町小河","koaza":"川長","lat":34.742746,"lng":135.105118},{"town":"山田町西下","koaza":"狼谷","lat":34.761503,"lng":135.107294},{"town":"山田町藍那","koaza":"傳庫","lat":34.731093,"lng":135.10644},{"town":"山田町衝原","koaza":"中ノ瀬","lat":34.768508,"lng":135.105232},{"town":"山田町西下","koaza":"上灰床","lat":34.7572,"lng":135.107152},{"town":"山田町西下","koaza":"西谷","lat":34.755542,"lng":135.105794},{"town":"山田町坂本","koaza":"文垣","lat":34.765598,"lng":135.10884},{"town":"山田町西下","koaza":"下比良記","lat":34.757798,"lng":135.109934},{"town":"山田町西下","koaza":"才谷","lat":34.763074,"lng":135.109182},{"town":"山田町藍那","koaza":"平山","lat":34.734996,"lng":135.109761},{"town":"山田町坂本","koaza":"原","lat":34.764423,"lng":135.110142},{"town":"山田町藍那","koaza":"田代","lat":34.718589,"lng":135.111805},{"town":"山田町西下","koaza":"下津井","lat":34.76301,"lng":135.11079},{"town":"山田町坂本","koaza":"東","lat":34.768836,"lng":135.113663},{"town":"山田町藍那","koaza":"下ノ町","lat":34.732148,"lng":135.11377},{"town":"山田町坂本","koaza":"下津井","lat":34.764411,"lng":135.111203},{"town":"山田町西下","koaza":"大道下","lat":34.762123,"lng":135.112277},{"town":"山田町藍那","koaza":"西谷","lat":34.731742,"lng":135.110928},{"town":"山田町西下","koaza":"廣畑","lat":34.760889,"lng":135.11513},{"town":"山田町東下","koaza":"下津井","lat":34.764606,"lng":135.111897},{"town":"山田町坂本","koaza":"中大道","lat":34.765487,"lng":135.113317},{"town":"山田町坂本","koaza":"清水","lat":34.766202,"lng":135.112109},{"town":"山田町西下","koaza":"石橋","lat":34.763468,"lng":135.115544},{"town":"山田町東下","koaza":"岡所西","lat":34.762431,"lng":135.116345},{"town":"山田町藍那","koaza":"東谷","lat":34.731261,"lng":135.113332},{"town":"山田町西下","koaza":"比恵畑","lat":34.750971,"lng":135.112907},{"town":"山田町西下","koaza":"野田","lat":34.762704,"lng":135.114656},{"town":"山田町東下","koaza":"水口田","lat":34.764384,"lng":135.113587},{"town":"山田町藍那","koaza":"北ノ町","lat":34.735966,"lng":135.116277},{"town":"山田町東下","koaza":"野田北","lat":34.763467,"lng":135.117357},{"town":"山田町東下","koaza":"峠東","lat":34.749749,"lng":135.118759},{"town":"山田町西下","koaza":"中岳","lat":34.762457,"lng":135.115249},{"town":"山田町坂本","koaza":"川原","lat":34.767236,"lng":135.116258},{"town":"山田町東下","koaza":"後ケ市","lat":34.765104,"lng":135.117528},{"town":"山田町藍那","koaza":"清水","lat":34.734196,"lng":135.120103},{"town":"山田町西下","koaza":"五反田","lat":34.763634,"lng":135.116296},{"town":"山田町東下","koaza":"下氷谷","lat":34.765401,"lng":135.121071},{"town":"山田町藍那","koaza":"下手","lat":34.731066,"lng":135.119851},{"town":"山田町藍那","koaza":"桑坂","lat":34.74068,"lng":135.122726},{"town":"山田町坂本","koaza":"下垣内","lat":34.769033,"lng":135.119048},{"town":"山田町東下","koaza":"東所","lat":34.763227,"lng":135.121218},{"town":"山田町坂本","koaza":"山花尾崎","lat":34.772596,"lng":135.120482},{"town":"山田町坂本","koaza":"長谷","lat":34.770288,"lng":135.121309},{"town":"山田町坂本","koaza":"桾原","lat":34.772463,"lng":135.122806},{"town":"山田町東下","koaza":"翁ケ谷","lat":34.762749,"lng":135.122053},{"town":"山田町東下","koaza":"熊谷","lat":34.756578,"lng":135.121046},{"town":"山田町東下","koaza":"中ノ池下","lat":34.755127,"lng":135.121465},{"town":"山田町藍那","koaza":"中畑","lat":34.726025,"lng":135.122287},{"town":"山田町藍那","koaza":"手垣","lat":34.713977,"lng":135.120874},{"town":"山田町東下","koaza":"山ノ越","lat":34.763802,"lng":135.123351},{"town":"山田町中","koaza":"城ケ谷","lat":34.761413,"lng":135.123184},{"town":"山田町坂本","koaza":"氷谷","lat":34.766444,"lng":135.123971},{"town":"山田町藍那","koaza":"太々谷","lat":34.730289,"lng":135.125827},{"town":"山田町中","koaza":"大沢","lat":34.765101,"lng":135.126189},{"town":"山田町中","koaza":"北山","lat":34.791927,"lng":135.129133},{"town":"山田町中","koaza":"宮ノ片","lat":34.767244,"lng":135.128216},{"town":"山田町中","koaza":"新五郎","lat":34.770842,"lng":135.128655},{"town":"山田町中","koaza":"金場","lat":34.771206,"lng":135.129391},{"town":"山田町東下","koaza":"大畑田","lat":34.763975,"lng":135.125631},{"town":"山田町藍那","koaza":"瀬戸","lat":34.715605,"lng":135.12692},{"town":"山田町福地","koaza":"城ケ越","lat":34.763771,"lng":135.126223},{"town":"山田町中","koaza":"廣戸","lat":34.754795,"lng":135.128248},{"town":"山田町中","koaza":"林","lat":34.763844,"lng":135.127054},{"town":"山田町中","koaza":"西岡","lat":34.763511,"lng":135.126739},{"town":"山田町福地","koaza":"北ノクボ","lat":34.765824,"lng":135.127577},{"town":"山田町中","koaza":"長尾サ","lat":34.765261,"lng":135.13023},{"town":"山田町原野","koaza":"シモツイ","lat":34.763513,"lng":135.129017},{"town":"山田町福地","koaza":"クロモ","lat":34.765169,"lng":135.12883},{"town":"山田町福地","koaza":"池ノ谷","lat":34.76821,"lng":135.130091},{"town":"山田町原野","koaza":"合ノ本","lat":34.763994,"lng":135.130349},{"town":"山田町原野","koaza":"長尾曾","lat":34.765597,"lng":135.129805},{"town":"山田町福地","koaza":"宮ノ方","lat":34.766579,"lng":135.130368},{"town":"山田町藍那","koaza":"下ノ切","lat":34.71218,"lng":135.131793},{"town":"山田町中","koaza":"岡ノ上","lat":34.764386,"lng":135.131652},{"town":"山田町中","koaza":"森","lat":34.764635,"lng":135.133105},{"town":"山田町福地","koaza":"ヲチエ","lat":34.768101,"lng":135.132349},{"town":"山田町福地","koaza":"前田","lat":34.766137,"lng":135.134312},{"town":"山田町原野","koaza":"前田","lat":34.76657,"lng":135.133261},{"town":"山田町福地","koaza":"三京","lat":34.770263,"lng":135.134655},{"town":"山田町福地","koaza":"大畑ケ","lat":34.76685,"lng":135.134812},{"town":"山田町中","koaza":"東畑","lat":34.764966,"lng":135.134253},{"town":"山田町原野","koaza":"西脇山","lat":34.763773,"lng":135.137603},{"town":"山田町福地","koaza":"向イ林","lat":34.764757,"lng":135.135622},{"town":"山田町福地","koaza":"上ノ山","lat":34.768232,"lng":135.136092},{"town":"山田町福地","koaza":"新池","lat":34.771604,"lng":135.136148},{"town":"山田町原野","koaza":"湯廼尾","lat":34.76683,"lng":135.137097},{"town":"山田町福地","koaza":"室ノ谷","lat":34.768616,"lng":135.137321},{"town":"山田町原野","koaza":"シンダノ下","lat":34.765568,"lng":135.138966},{"town":"山田町原野","koaza":"馬場","lat":34.766263,"lng":135.13853},{"town":"山田町原野","koaza":"谷寺口","lat":34.768266,"lng":135.138848},{"town":"山田町原野","koaza":"ドンド川","lat":34.77181,"lng":135.138742},{"town":"山田町原野","koaza":"火打石","lat":34.77033,"lng":135.140002},{"town":"山田町原野","koaza":"結場","lat":34.764604,"lng":135.140713},{"town":"山田町原野","koaza":"犬上","lat":34.767476,"lng":135.139159},{"town":"山田町原野","koaza":"寺前","lat":34.768481,"lng":135.142662},{"town":"山田町原野","koaza":"芦谷山","lat":34.772069,"lng":135.143573},{"town":"山田町原野","koaza":"中ノ株","lat":34.765771,"lng":135.140819},{"town":"山田町原野","koaza":"天神","lat":34.768926,"lng":135.144737},{"town":"山田町原野","koaza":"蔵ノ本","lat":34.765016,"lng":135.141573},{"town":"山田町小部","koaza":"大谷","lat":34.733322,"lng":135.141612},{"town":"山田町小部","koaza":"北ノ谷","lat":34.734586,"lng":135.142692},{"town":"山田町原野","koaza":"札場","lat":34.765753,"lng":135.142265},{"town":"山田町原野","koaza":"クノ木","lat":34.766584,"lng":135.142693},{"town":"山田町原野","koaza":"木戸口","lat":34.763529,"lng":135.143938},{"town":"山田町原野","koaza":"樋詰","lat":34.767301,"lng":135.144161},{"town":"山田町原野","koaza":"舟田","lat":34.765278,"lng":135.147606},{"town":"山田町原野","koaza":"丸岡","lat":34.765465,"lng":135.144746},{"town":"山田町原野","koaza":"エンド","lat":34.764034,"lng":135.146341},{"town":"山田町小部","koaza":"東ノ谷","lat":34.73307,"lng":135.144555},{"town":"山田町原野","koaza":"沢","lat":34.767303,"lng":135.145146},{"town":"山田町原野","koaza":"中曽根","lat":34.766022,"lng":135.146435},{"town":"山田町原野","koaza":"元戎","lat":34.768075,"lng":135.146642},{"town":"山田町原野","koaza":"北子","lat":34.7671,"lng":135.147087},{"town":"山田町小部","koaza":"西ノ岡谷","lat":34.730176,"lng":135.146787},{"town":"山田町小部","koaza":"松宮山","lat":34.733008,"lng":135.147204},{"town":"山田町小部","koaza":"大歳馬場","lat":34.73174,"lng":135.148983},{"town":"山田町原野","koaza":"八王子","lat":34.768415,"lng":135.148212},{"town":"山田町原野","koaza":"大滝口","lat":34.764282,"lng":135.148768},{"town":"山田町小部","koaza":"藤木谷","lat":34.733591,"lng":135.149085},{"town":"山田町小部","koaza":"宮ノ前","lat":34.731088,"lng":135.15099},{"town":"山田町原野","koaza":"城ケ岡","lat":34.764646,"lng":135.149404},{"town":"山田町小部","koaza":"向井","lat":34.7321,"lng":135.151081},{"town":"山田町下谷上","koaza":"梅木谷","lat":34.753741,"lng":135.153856},{"town":"山田町小部","koaza":"南山","lat":34.721001,"lng":135.152038},{"town":"山田町小部","koaza":"向井谷","lat":34.730463,"lng":135.15454},{"town":"山田町小部","koaza":"茶畑","lat":34.731769,"lng":135.150848},{"town":"山田町下谷上","koaza":"かんじゃ","lat":34.762422,"lng":135.154094},{"town":"山田町下谷上","koaza":"奥谷","lat":34.75597,"lng":135.152751},{"town":"山田町小部","koaza":"大東","lat":34.731771,"lng":135.153668},{"town":"山田町下谷上","koaza":"門口","lat":34.75117,"lng":135.156002},{"town":"山田町下谷上","koaza":"西畑","lat":34.759824,"lng":135.153538},{"town":"山田町下谷上","koaza":"砂川","lat":34.763636,"lng":135.155513},{"town":"山田町小部","koaza":"一ツ鍬山","lat":34.730753,"lng":135.155244},{"town":"山田町下谷上","koaza":"猪ころび","lat":34.746876,"lng":135.157174},{"town":"山田町下谷上","koaza":"西向","lat":34.756256,"lng":135.154528},{"town":"山田町下谷上","koaza":"鷹之子","lat":34.759178,"lng":135.154813},{"town":"山田町下谷上","koaza":"箕の谷","lat":34.757804,"lng":135.15583},{"town":"山田町下谷上","koaza":"小橋","lat":34.760868,"lng":135.155994},{"town":"山田町下谷上","koaza":"五池谷","lat":34.756016,"lng":135.158654},{"town":"山田町下谷上","koaza":"宮ノ前","lat":34.762597,"lng":135.156625},{"town":"山田町下谷上","koaza":"六地蔵","lat":34.759186,"lng":135.156336},{"town":"山田町下谷上","koaza":"前浦","lat":34.755284,"lng":135.156073},{"town":"山田町小部","koaza":"惣山","lat":34.738301,"lng":135.156092},{"town":"山田町下谷上","koaza":"今草口","lat":34.74771,"lng":135.156357},{"town":"山田町下谷上","koaza":"池之内","lat":34.76028,"lng":135.157807},{"town":"山田町下谷上","koaza":"久保","lat":34.761247,"lng":135.1581},{"town":"山田町小部","koaza":"ヲモ谷","lat":34.725772,"lng":135.157817},{"town":"山田町下谷上","koaza":"下の勝","lat":34.74787,"lng":135.157389},{"town":"山田町下谷上","koaza":"五朗本","lat":34.762581,"lng":135.157687},{"town":"山田町小部","koaza":"法殿之下","lat":34.729129,"lng":135.160395},{"town":"山田町小部","koaza":"惣六畑山","lat":34.736246,"lng":135.160185},{"town":"山田町下谷上","koaza":"上の勝","lat":34.746118,"lng":135.159602},{"town":"山田町下谷上","koaza":"沢","lat":34.760283,"lng":135.159723},{"town":"山田町小部","koaza":"廣刈","lat":34.727342,"lng":135.159582},{"town":"山田町小部","koaza":"妙賀","lat":34.733808,"lng":135.159203},{"town":"山田町小部","koaza":"大阪山","lat":34.731933,"lng":135.158198},{"town":"山田町小部","koaza":"大平","lat":34.726551,"lng":135.160257},{"town":"山田町下谷上","koaza":"大正坊","lat":34.744284,"lng":135.159851},{"town":"山田町小部","koaza":"綾ケ谷","lat":34.740328,"lng":135.159398},{"town":"山田町小部","koaza":"妙賀山","lat":34.735605,"lng":135.164169},{"town":"山田町小部","koaza":"東山","lat":34.740321,"lng":135.165594},{"town":"山田町小部","koaza":"戸口谷","lat":34.730379,"lng":135.159936},{"town":"山田町下谷上","koaza":"芝","lat":34.760562,"lng":135.16136},{"town":"山田町下谷上","koaza":"二ツ樋","lat":34.761656,"lng":135.161401},{"town":"山田町小部","koaza":"堂の前","lat":34.729938,"lng":135.161124},{"town":"山田町小部","koaza":"大平山","lat":34.729114,"lng":135.165781},{"town":"山田町小部","koaza":"杉ノ木","lat":34.728853,"lng":135.161399},{"town":"山田町下谷上","koaza":"芝床","lat":34.762701,"lng":135.165577},{"town":"山田町小部","koaza":"大ツエ","lat":34.729788,"lng":135.164302},{"town":"山田町下谷上","koaza":"北勝","lat":34.762061,"lng":135.162737},{"town":"山田町下谷上","koaza":"大橋","lat":34.760439,"lng":135.1625},{"town":"山田町小部","koaza":"上辰ノ口","lat":34.726666,"lng":135.162903},{"town":"山田町下谷上","koaza":"中段","lat":34.762224,"lng":135.164066},{"town":"山田町下谷上","koaza":"東向","lat":34.760584,"lng":135.170991},{"town":"山田町下谷上","koaza":"小畑","lat":34.7688,"lng":135.171809},{"town":"山田町下谷上","koaza":"芝床ノ上","lat":34.765184,"lng":135.167318},{"town":"山田町小部","koaza":"口長谷","lat":34.731202,"lng":135.169399},{"town":"山田町下谷上","koaza":"天神","lat":34.763618,"lng":135.166531},{"town":"山田町下谷上","koaza":"芝山","lat":34.763149,"lng":135.167113},{"town":"山田町下谷上","koaza":"南山","lat":34.742187,"lng":135.170573},{"town":"山田町下谷上","koaza":"志く志く","lat":34.764529,"lng":135.168315},{"town":"山田町下谷上","koaza":"中上","lat":34.762781,"lng":135.169291},{"town":"山田町小部","koaza":"コチ脇山","lat":34.737988,"lng":135.170233},{"town":"山田町上谷上","koaza":"登り尾","lat":34.765169,"lng":135.172955},{"town":"山田町上谷上","koaza":"山口谷","lat":34.765649,"lng":135.173604},{"town":"山田町上谷上","koaza":"福浄寺","lat":34.761098,"lng":135.173656},{"town":"山田町上谷上","koaza":"鍛冶屋ノ上","lat":34.76457,"lng":135.17474},{"town":"山田町上谷上","koaza":"坂口","lat":34.76362,"lng":135.17258},{"town":"山田町上谷上","koaza":"中ノ手","lat":34.764917,"lng":135.17527},{"town":"山田町下谷上","koaza":"西丸山","lat":34.746566,"lng":135.173814},{"town":"山田町上谷上","koaza":"上ノ山","lat":34.766284,"lng":135.175234},{"town":"山田町下谷上","koaza":"小峠","lat":34.754441,"lng":135.176012},{"town":"山田町上谷上","koaza":"長尾","lat":34.737983,"lng":135.177374},{"town":"山田町上谷上","koaza":"畑開地","lat":34.766373,"lng":135.178432},{"town":"山田町上谷上","koaza":"久保","lat":34.765269,"lng":135.17857},{"town":"山田町上谷上","koaza":"木戸上","lat":34.770313,"lng":135.18005},{"town":"山田町上谷上","koaza":"宮開地","lat":34.767017,"lng":135.180648},{"town":"山田町上谷上","koaza":"カジガ谷","lat":34.77234,"lng":135.187969},{"town":"山田町上谷上","koaza":"森田","lat":34.767025,"lng":135.183688},{"town":"山田町上谷上","koaza":"古々谷","lat":34.769497,"lng":135.188242},{"town":"山田町上谷上","koaza":"おつき原","lat":34.777533,"lng":135.189568},{"town":"山田町上谷上","koaza":"古々山","lat":34.778,"lng":135.195717},{"town":"山田町上谷上","koaza":"見山口","lat":34.771293,"lng":135.192018},{"town":"山田町上谷上","koaza":"ヤンゲン","lat":34.777826,"lng":135.194406},{"town":"山田町上谷上","koaza":"ヒコバ","lat":34.765043,"lng":135.195647},{"town":"山田町上谷上","koaza":"藤垣","lat":34.764191,"lng":135.196178},{"town":"山田町上谷上","koaza":"堺山","lat":34.76944,"lng":135.201527},{"town":"山田町上谷上","koaza":"黒岩","lat":34.770426,"lng":135.201661},{"town":"有馬町","koaza":"山田山","lat":34.79544,"lng":135.264122},{"town":"山田町衝原","koaza":"畑阪","lat":34.77458,"lng":135.104634},{"town":"山田町藍那","koaza":"蛇谷","lat":34.735205,"lng":135.113085},{"town":"山田町小部","koaza":"大阪","lat":34.731538,"lng":135.15609},{"town":"山田町小部","koaza":"高橋","lat":34.731452,"lng":135.157666},{"town":"山田町東下","koaza":"神田","lat":34.762508,"lng":135.1237},{"town":"山田町福地","koaza":"大蔵","lat":34.764812,"lng":135.125653}]