[{"town":"ゆめみ野三丁目","lat":"35.920304","lng":"139.821673"},{"town":"松葉二丁目","lat":"35.927619","lng":"139.825289"},{"town":"ゆめみ野二丁目","lat":"35.922257","lng":"139.820935"},{"town":"田島東","lat":"35.929611","lng":"139.838927"},{"town":"ゆめみ野東一丁目","lat":"35.926022","lng":"139.826131"},{"town":"ゆめみ野一丁目","lat":"35.924022","lng":"139.820328"},{"town":"松葉一丁目","lat":"35.92631","lng":"139.821427"},{"town":"ゆめみ野六丁目","lat":"35.925084","lng":"139.823297"},{"town":"ゆめみ野五丁目","lat":"35.92311","lng":"139.823954"},{"town":"ゆめみ野四丁目","lat":"35.921079","lng":"139.824749"},{"town":"ゆめみ野東二丁目","lat":"35.92463","lng":"139.828448"},{"town":"ゆめみ野東四丁目","lat":"35.920124","lng":"139.83035"},{"town":"田中一丁目","lat":"35.924396","lng":"139.812635"},{"town":"ゆめみ野東三丁目","lat":"35.922412","lng":"139.829499"},{"town":"田中三丁目","lat":"35.921321","lng":"139.807298"},{"town":"田中二丁目","lat":"35.925637","lng":"139.810127"},{"town":"大字田島","lat":"35.932927","lng":"139.832851"},{"town":"大字下赤岩","lat":"35.912091","lng":"139.837975"},{"town":"大字魚沼","lat":"35.958394","lng":"139.820373"},{"town":"大字上赤岩","lat":"35.915423","lng":"139.826592"},{"town":"大字金杉","lat":"35.944569","lng":"139.831329"},{"town":"大字松伏","lat":"35.926189","lng":"139.833793"},{"town":"大字築比地","lat":"35.956053","lng":"139.832425"},{"town":"大字大川戸","lat":"35.944217","lng":"139.815206"}]