[{"town":"美原町四丁目","lat":"35.814929","lng":"139.461329"},{"town":"美原町五丁目","lat":"35.81019","lng":"139.457101"},{"town":"美原町三丁目","lat":"35.812819","lng":"139.459924"},{"town":"美原町一丁目","lat":"35.80864","lng":"139.460511"},{"town":"西住吉","lat":"35.785525","lng":"139.46665"},{"town":"美原町二丁目","lat":"35.811211","lng":"139.459622"},{"town":"くすのき台三丁目","lat":"35.78706","lng":"139.477636"},{"town":"並木七丁目","lat":"35.807948","lng":"139.478069"},{"town":"花園三丁目","lat":"35.815014","lng":"139.458718"},{"town":"花園四丁目","lat":"35.816414","lng":"139.461019"},{"town":"喜多町","lat":"35.798933","lng":"139.462932"},{"town":"くすのき台二丁目","lat":"35.789236","lng":"139.478701"},{"town":"並木二丁目","lat":"35.800639","lng":"139.464304"},{"town":"小手指南六丁目","lat":"35.782684","lng":"139.427666"},{"town":"御幸町","lat":"35.792398","lng":"139.470617"},{"town":"小手指町五丁目","lat":"35.795134","lng":"139.437464"},{"town":"星の宮二丁目","lat":"35.786414","lng":"139.460994"},{"town":"星の宮一丁目","lat":"35.787121","lng":"139.462942"},{"town":"大字新郷","lat":"35.803134","lng":"139.506058"},{"town":"小手指南一丁目","lat":"35.787427","lng":"139.440269"},{"town":"有楽町","lat":"35.793631","lng":"139.466797"},{"town":"金山町","lat":"35.790807","lng":"139.461496"},{"town":"東町","lat":"35.790365","lng":"139.471482"},{"town":"寿町","lat":"35.789207","lng":"139.467517"},{"town":"中富南一丁目","lat":"35.810041","lng":"139.490606"},{"town":"榎町","lat":"35.805848","lng":"139.44476"},{"town":"くすのき台一丁目","lat":"35.787673","lng":"139.475048"},{"town":"小手指南二丁目","lat":"35.789408","lng":"139.430535"},{"town":"中富南二丁目","lat":"35.811323","lng":"139.494087"},{"town":"和ケ原二丁目","lat":"35.808619","lng":"139.407672"},{"town":"中富南三丁目","lat":"35.81319","lng":"139.493019"},{"town":"緑町二丁目","lat":"35.803565","lng":"139.456082"},{"town":"北有楽町","lat":"35.79626","lng":"139.465848"},{"town":"花園二丁目","lat":"35.814444","lng":"139.456819"},{"town":"旭町","lat":"35.791167","lng":"139.475849"},{"town":"花園一丁目","lat":"35.814068","lng":"139.453953"},{"town":"西所沢二丁目","lat":"35.792962","lng":"139.455805"},{"town":"中新井三丁目","lat":"35.816307","lng":"139.475224"},{"town":"中新井五丁目","lat":"35.816574","lng":"139.477582"},{"town":"並木五丁目","lat":"35.81111","lng":"139.463432"},{"town":"弥生町","lat":"35.804218","lng":"139.460828"},{"town":"日吉町","lat":"35.787257","lng":"139.471101"},{"town":"東所沢五丁目","lat":"35.79567","lng":"139.518172"},{"town":"宮本町一丁目","lat":"35.793452","lng":"139.461583"},{"town":"中新井二丁目","lat":"35.817266","lng":"139.468817"},{"town":"小手指台","lat":"35.791662","lng":"139.442006"},{"town":"松葉町","lat":"35.807568","lng":"139.457675"},{"town":"東住吉","lat":"35.784193","lng":"139.47053"},{"town":"こぶし町","lat":"35.799488","lng":"139.484095"},{"town":"中新井四丁目","lat":"35.813769","lng":"139.474444"},{"town":"中新井一丁目","lat":"35.815261","lng":"139.466774"},{"town":"小手指元町一丁目","lat":"35.792733","lng":"139.437718"},{"town":"東所沢四丁目","lat":"35.801013","lng":"139.521561"},{"town":"泉町","lat":"35.801001","lng":"139.460051"},{"town":"宮本町二丁目","lat":"35.79661","lng":"139.461295"},{"town":"和ケ原三丁目","lat":"35.80464","lng":"139.403907"},{"town":"小手指南五丁目","lat":"35.785752","lng":"139.431943"},{"town":"小手指元町二丁目","lat":"35.793394","lng":"139.434046"},{"town":"上新井一丁目","lat":"35.789928","lng":"139.450791"},{"town":"元町","lat":"35.789209","lng":"139.465026"},{"town":"西狭山ケ丘一丁目","lat":"35.804593","lng":"139.407712"},{"town":"狭山ケ丘二丁目","lat":"35.811222","lng":"139.410762"},{"town":"大字中新井","lat":"35.819248","lng":"139.471283"},{"town":"北野南一丁目","lat":"35.784795","lng":"139.42586"},{"town":"西所沢一丁目","lat":"35.789437","lng":"139.457927"},{"town":"北所沢町","lat":"35.810594","lng":"139.453908"},{"town":"東狭山ケ丘三丁目","lat":"35.812644","lng":"139.423538"},{"town":"南住吉","lat":"35.782203","lng":"139.468801"},{"town":"東狭山ケ丘四丁目","lat":"35.809311","lng":"139.427335"},{"town":"緑町一丁目","lat":"35.805384","lng":"139.453489"},{"town":"小手指町四丁目","lat":"35.798182","lng":"139.434319"},{"town":"若狭三丁目","lat":"35.802231","lng":"139.417753"},{"town":"若狭四丁目","lat":"35.805326","lng":"139.416037"},{"town":"東狭山ケ丘二丁目","lat":"35.809387","lng":"139.422348"},{"town":"狭山ケ丘一丁目","lat":"35.809326","lng":"139.415729"},{"town":"けやき台二丁目","lat":"35.798354","lng":"139.457366"},{"town":"並木八丁目","lat":"35.810606","lng":"139.476621"},{"town":"北野南三丁目","lat":"35.786375","lng":"139.418238"},{"town":"けやき台一丁目","lat":"35.79966","lng":"139.453344"},{"town":"西新井町","lat":"35.794024","lng":"139.474307"},{"town":"青葉台","lat":"35.806944","lng":"139.441303"},{"town":"小手指南四丁目","lat":"35.787462","lng":"139.430323"},{"town":"小手指南三丁目","lat":"35.787084","lng":"139.437247"},{"town":"小手指町三丁目","lat":"35.799622","lng":"139.436786"},{"town":"北野新町一丁目","lat":"35.800615","lng":"139.430793"},{"town":"林三丁目","lat":"35.808193","lng":"139.402525"},{"town":"西狭山ケ丘二丁目","lat":"35.801781","lng":"139.4072"},{"town":"東所沢一丁目","lat":"35.797784","lng":"139.51774"},{"town":"和ケ原一丁目","lat":"35.806866","lng":"139.410672"},{"town":"小手指元町三丁目","lat":"35.792742","lng":"139.430489"},{"town":"東新井町","lat":"35.795172","lng":"139.480034"},{"town":"若狭二丁目","lat":"35.80366","lng":"139.423849"},{"town":"北中三丁目","lat":"35.811072","lng":"139.441638"},{"town":"緑町三丁目","lat":"35.801686","lng":"139.448844"},{"town":"若狭一丁目","lat":"35.805742","lng":"139.420424"},{"town":"東所沢三丁目","lat":"35.802672","lng":"139.518265"},{"town":"並木四丁目","lat":"35.806899","lng":"139.464978"},{"town":"若松町","lat":"35.802187","lng":"139.483754"},{"town":"東所沢和田三丁目","lat":"35.796443","lng":"139.507597"},{"town":"東所沢和田二丁目","lat":"35.793546","lng":"139.508331"},{"town":"向陽町","lat":"35.810958","lng":"139.447856"},{"town":"上新井四丁目","lat":"35.800433","lng":"139.444686"},{"town":"北中一丁目","lat":"35.808367","lng":"139.432236"},{"town":"上新井三丁目","lat":"35.795872","lng":"139.442167"},{"town":"中富南四丁目","lat":"35.814906","lng":"139.499025"},{"town":"東狭山ケ丘一丁目","lat":"35.813739","lng":"139.418401"},{"town":"小手指町二丁目","lat":"35.804984","lng":"139.432507"},{"town":"松が丘一丁目","lat":"35.775038","lng":"139.464772"},{"town":"北野南二丁目","lat":"35.785924","lng":"139.422397"},{"town":"松が丘二丁目","lat":"35.771929","lng":"139.456069"},{"town":"東狭山ケ丘六丁目","lat":"35.816836","lng":"139.423358"},{"town":"三ケ島四丁目","lat":"35.799809","lng":"139.414567"},{"town":"緑町四丁目","lat":"35.806888","lng":"139.4495"},{"town":"東所沢和田一丁目","lat":"35.791244","lng":"139.510627"},{"town":"北野一丁目","lat":"35.792985","lng":"139.426433"},{"town":"東所沢二丁目","lat":"35.801359","lng":"139.514112"},{"town":"小手指町一丁目","lat":"35.803317","lng":"139.439215"},{"town":"上新井二丁目","lat":"35.793903","lng":"139.447841"},{"town":"並木三丁目","lat":"35.802875","lng":"139.467515"},{"town":"北中四丁目","lat":"35.817367","lng":"139.437211"},{"town":"岩岡町","lat":"35.816978","lng":"139.442325"},{"town":"上新井五丁目","lat":"35.796781","lng":"139.450347"},{"town":"北中二丁目","lat":"35.811071","lng":"139.43455"},{"town":"三ケ島二丁目","lat":"35.785933","lng":"139.402018"},{"town":"北野新町二丁目","lat":"35.801112","lng":"139.425873"},{"town":"所沢新町","lat":"35.81928","lng":"139.460852"},{"town":"三ケ島三丁目","lat":"35.794377","lng":"139.409404"},{"town":"東狭山ケ丘五丁目","lat":"35.816436","lng":"139.430414"},{"town":"北野二丁目","lat":"35.793807","lng":"139.421579"},{"town":"北野三丁目","lat":"35.794577","lng":"139.415809"},{"town":"大字下新井","lat":"35.805188","lng":"139.489825"},{"town":"北原町","lat":"35.807532","lng":"139.485353"},{"town":"林二丁目","lat":"35.803991","lng":"139.398095"},{"town":"林一丁目","lat":"35.801849","lng":"139.391764"},{"town":"堀之内","lat":"35.787716","lng":"139.395279"},{"town":"大字亀ケ谷","lat":"35.808143","lng":"139.518267"},{"town":"並木一丁目","lat":"35.798465","lng":"139.473012"},{"town":"糀谷","lat":"35.791992","lng":"139.391724"},{"town":"三ケ島一丁目","lat":"35.787308","lng":"139.411237"},{"town":"大字本郷","lat":"35.794637","lng":"139.523769"},{"town":"大字松郷","lat":"35.797405","lng":"139.501878"},{"town":"大字北秋津","lat":"35.781794","lng":"139.480129"},{"town":"大字神米金","lat":"35.823751","lng":"139.465719"},{"town":"大字日比田","lat":"35.806167","lng":"139.505519"},{"town":"三ケ島五丁目","lat":"35.793905","lng":"139.401066"},{"town":"大字城","lat":"35.800709","lng":"139.528878"},{"town":"並木六丁目","lat":"35.807965","lng":"139.472055"},{"town":"大字牛沼","lat":"35.795678","lng":"139.489477"},{"town":"大字久米","lat":"35.780351","lng":"139.46313"},{"town":"大字上安松","lat":"35.78598","lng":"139.4899"},{"town":"大字下安松","lat":"35.787864","lng":"139.504527"},{"town":"大字坂之下","lat":"35.811834","lng":"139.537801"},{"town":"大字北岩岡","lat":"35.82195","lng":"139.445813"},{"town":"大字荒幡","lat":"35.776004","lng":"139.447185"},{"town":"大字上山口","lat":"35.774956","lng":"139.421171"},{"town":"大字南永井","lat":"35.816795","lng":"139.524933"},{"town":"大字中富","lat":"35.821038","lng":"139.485979"},{"town":"大字山口","lat":"35.778544","lng":"139.435301"},{"town":"大字勝楽寺","lat":"35.773236","lng":"139.397635"},{"town":"大字下富","lat":"35.833131","lng":"139.462623"}]