[{"town":"大字恵久美","lat":"33.793632","lng":"132.728400"},{"town":"大字大溝","lat":"33.782901","lng":"132.725452"},{"town":"大字上高柳","lat":"33.798934","lng":"132.731295"},{"town":"大字神崎","lat":"33.789132","lng":"132.741114"},{"town":"大字北川原","lat":"33.801752","lng":"132.702067"},{"town":"大字北黒田","lat":"33.781156","lng":"132.711217"},{"town":"大字出作","lat":"33.789567","lng":"132.751819"},{"town":"大字昌農内","lat":"33.800268","lng":"132.720447"},{"town":"大字大間","lat":"33.800070","lng":"132.739031"},{"town":"大字筒井","lat":"33.790916","lng":"132.699561"},{"town":"大字鶴吉","lat":"33.782538","lng":"132.738795"},{"town":"大字徳丸","lat":"33.792518","lng":"132.760613"},{"town":"大字中川原","lat":"33.799982","lng":"132.753524"},{"town":"大字永田","lat":"33.788627","lng":"132.726055"},{"town":"大字西古泉","lat":"33.794521","lng":"132.713929"},{"town":"大字西高柳","lat":"33.804920","lng":"132.721432"},{"town":"大字浜","lat":"33.789199","lng":"132.701735"},{"town":"大字東古泉","lat":"33.787475","lng":"132.720514"},{"town":"大字南黒田","lat":"33.774073","lng":"132.712713"},{"town":"大字横田","lat":"33.776557","lng":"132.729227"}]