[{"town":"泉尾一丁目","koaza":"","lat":34.661987,"lng":135.473082},{"town":"泉尾二丁目","koaza":"","lat":34.659969,"lng":135.472762},{"town":"泉尾三丁目","koaza":"","lat":34.65824,"lng":135.471524},{"town":"泉尾四丁目","koaza":"","lat":34.656443,"lng":135.470572},{"town":"泉尾五丁目","koaza":"","lat":34.65423,"lng":135.469649},{"town":"泉尾六丁目","koaza":"","lat":34.661419,"lng":135.46802},{"town":"泉尾七丁目","koaza":"","lat":34.657745,"lng":135.465715},{"town":"北恩加島一丁目","koaza":"","lat":34.65353,"lng":135.464701},{"town":"北恩加島二丁目","koaza":"","lat":34.649586,"lng":135.461519},{"town":"北村一丁目","koaza":"","lat":34.651833,"lng":135.46883},{"town":"北村二丁目","koaza":"","lat":34.652453,"lng":135.466904},{"town":"北村三丁目","koaza":"","lat":34.649694,"lng":135.466292},{"town":"小林西一丁目","koaza":"","lat":34.645688,"lng":135.466169},{"town":"小林西二丁目","koaza":"","lat":34.643862,"lng":135.468418},{"town":"小林東一丁目","koaza":"","lat":34.645738,"lng":135.477854},{"town":"小林東二丁目","koaza":"","lat":34.64509,"lng":135.47509},{"town":"小林東三丁目","koaza":"","lat":34.645389,"lng":135.472097},{"town":"三軒家西一丁目","koaza":"","lat":34.665574,"lng":135.477231},{"town":"三軒家西二丁目","koaza":"","lat":34.665043,"lng":135.47488},{"town":"三軒家西三丁目","koaza":"","lat":34.664975,"lng":135.472249},{"town":"三軒家東一丁目","koaza":"","lat":34.665744,"lng":135.480051},{"town":"三軒家東二丁目","koaza":"","lat":34.660753,"lng":135.480421},{"town":"三軒家東三丁目","koaza":"","lat":34.654904,"lng":135.479654},{"town":"三軒家東四丁目","koaza":"","lat":34.661665,"lng":135.477567},{"town":"三軒家東五丁目","koaza":"","lat":34.659509,"lng":135.476651},{"town":"三軒家東六丁目","koaza":"","lat":34.657015,"lng":135.475352},{"town":"千島一丁目","koaza":"","lat":34.652171,"lng":135.476207},{"town":"千島二丁目","koaza":"","lat":34.650528,"lng":135.473653},{"town":"千島三丁目","koaza":"","lat":34.650306,"lng":135.470625},{"town":"鶴町一丁目","koaza":"","lat":34.634543,"lng":135.458621},{"town":"鶴町二丁目","koaza":"","lat":34.636684,"lng":135.452541},{"town":"鶴町三丁目","koaza":"","lat":34.641536,"lng":135.452567},{"town":"鶴町四丁目","koaza":"","lat":34.644432,"lng":135.454599},{"town":"鶴町五丁目","koaza":"","lat":34.640317,"lng":135.459507},{"town":"平尾一丁目","koaza":"","lat":34.640287,"lng":135.477473},{"town":"平尾二丁目","koaza":"","lat":34.641464,"lng":135.474649},{"town":"平尾三丁目","koaza":"","lat":34.639274,"lng":135.474241},{"town":"平尾四丁目","koaza":"","lat":34.641975,"lng":135.471234},{"town":"平尾五丁目","koaza":"","lat":34.639714,"lng":135.471083},{"town":"船町一丁目","koaza":"","lat":34.629233,"lng":135.468323},{"town":"船町二丁目","koaza":"","lat":34.629157,"lng":135.455767},{"town":"南恩加島一丁目","koaza":"","lat":34.635513,"lng":135.474672},{"town":"南恩加島二丁目","koaza":"","lat":34.637704,"lng":135.470699},{"town":"南恩加島三丁目","koaza":"","lat":34.635258,"lng":135.470194},{"town":"南恩加島四丁目","koaza":"","lat":34.63241,"lng":135.472069},{"town":"南恩加島五丁目","koaza":"","lat":34.640619,"lng":135.467607},{"town":"南恩加島六丁目","koaza":"","lat":34.636808,"lng":135.46508},{"town":"南恩加島七丁目","koaza":"","lat":34.633401,"lng":135.465789}]