[{"town":"鴨島町粟島","lat":"34.072038","lng":"134.331353"},{"town":"鴨島町飯尾","lat":"34.052439","lng":"134.354537"},{"town":"鴨島町牛島","lat":"34.081502","lng":"134.387529"},{"town":"鴨島町内原","lat":"34.069726","lng":"134.368660"},{"town":"鴨島町麻植塚","lat":"34.070584","lng":"134.379189"},{"town":"鴨島町上浦","lat":"34.063073","lng":"134.395865"},{"town":"鴨島町鴨島","lat":"34.070982","lng":"134.355530"},{"town":"鴨島町喜来","lat":"34.075624","lng":"134.365588"},{"town":"鴨島町山路","lat":"34.053759","lng":"134.382369"},{"town":"鴨島町敷地","lat":"34.047500","lng":"134.341155"},{"town":"鴨島町上下島","lat":"34.068612","lng":"134.349686"},{"town":"鴨島町知恵島","lat":"34.079423","lng":"134.347819"},{"town":"鴨島町中島","lat":"34.066051","lng":"134.367242"},{"town":"鴨島町西麻植","lat":"34.066853","lng":"134.338130"},{"town":"鴨島町樋山地","lat":"34.039893","lng":"134.336663"},{"town":"鴨島町森藤","lat":"34.046090","lng":"134.365626"},{"town":"川島町学","lat":"34.055050","lng":"134.283847"},{"town":"川島町川島","lat":"34.065097","lng":"134.321837"},{"town":"川島町桑村","lat":"34.055754","lng":"134.313476"},{"town":"川島町児島","lat":"34.060325","lng":"134.289064"},{"town":"川島町三ツ島","lat":"34.062521","lng":"134.277421"},{"town":"川島町宮島","lat":"34.061552","lng":"134.315911"},{"town":"川島町山田","lat":"34.050131","lng":"134.331964"},{"town":"美郷","lat":"34.014110","lng":"134.287550"},{"town":"山川町青木","lat":"34.052944","lng":"134.242233"},{"town":"山川町赤岩","lat":"34.042583","lng":"134.245519"},{"town":"山川町赤刎","lat":"34.054295","lng":"134.205818"},{"town":"山川町朝日","lat":"34.045951","lng":"134.239943"},{"town":"山川町安楽寺","lat":"34.056203","lng":"134.245599"},{"town":"山川町石堂","lat":"34.040557","lng":"134.231257"},{"town":"山川町伊瑞穂","lat":"34.039436","lng":"134.200599"},{"town":"山川町市久保","lat":"34.063153","lng":"134.209396"},{"town":"山川町一里塚","lat":"34.063029","lng":"134.189943"},{"town":"山川町井上","lat":"34.041041","lng":"134.223204"},{"town":"山川町井傍","lat":"34.053659","lng":"134.207294"},{"town":"山川町忌部","lat":"34.059762","lng":"134.267303"},{"town":"山川町川田忌部山","lat":"34.054970","lng":"134.194378"},{"town":"山川町忌部山","lat":"34.051316","lng":"134.268636"},{"town":"山川町岩戸","lat":"34.057604","lng":"134.265656"},{"town":"山川町牛ノ子尾","lat":"34.040483","lng":"134.205215"},{"town":"山川町浦山","lat":"34.047726","lng":"134.260284"},{"town":"山川町恵下","lat":"34.039044","lng":"134.229897"},{"town":"山川町榎谷","lat":"34.015187","lng":"134.225822"},{"town":"山川町大内","lat":"34.026557","lng":"134.214685"},{"town":"山川町大塚","lat":"34.061990","lng":"134.229051"},{"town":"山川町大藤谷","lat":"34.051064","lng":"134.193667"},{"town":"山川町大峯","lat":"34.047828","lng":"134.210231"},{"town":"山川町大室","lat":"34.036234","lng":"134.212884"},{"town":"山川町麻掛","lat":"34.058917","lng":"134.193229"},{"town":"山川町翁喜台","lat":"34.052230","lng":"134.228989"},{"town":"山川町奥川田","lat":"34.038495","lng":"134.227079"},{"town":"山川町奥野井","lat":"34.004621","lng":"134.202514"},{"town":"山川町奥原","lat":"34.042514","lng":"134.216520"},{"town":"山川町皆瀬","lat":"34.022231","lng":"134.238432"},{"town":"山川町槻原","lat":"34.063573","lng":"134.203358"},{"town":"山川町柿木谷","lat":"34.050083","lng":"134.207219"},{"town":"山川町楮本","lat":"34.048362","lng":"134.197464"},{"town":"山川町春日","lat":"34.064478","lng":"134.232384"},{"town":"山川町片岸","lat":"34.053494","lng":"134.220878"},{"town":"山川町川田","lat":"34.061248","lng":"134.218831"},{"town":"山川町川田赤岩","lat":"34.042348","lng":"134.243032"},{"town":"山川町川田市","lat":"34.063402","lng":"134.207182"},{"town":"山川町川田北島","lat":"34.062008","lng":"134.224607"},{"town":"山川町川田天神","lat":"34.058196","lng":"134.219283"},{"town":"山川町川田八幡","lat":"34.046502","lng":"134.218146"},{"town":"山川町川東","lat":"34.044348","lng":"134.229494"},{"town":"山川町祇園","lat":"34.057859","lng":"134.249328"},{"town":"山川町北島","lat":"34.060411","lng":"134.230755"},{"town":"山川町北須賀","lat":"34.065606","lng":"134.255104"},{"town":"山川町木戸口","lat":"34.047249","lng":"134.194790"},{"town":"山川町楠根地","lat":"34.017216","lng":"134.210570"},{"town":"山川町雲宮","lat":"34.058047","lng":"134.258927"},{"town":"山川町黒岩","lat":"34.044298","lng":"134.204740"},{"town":"山川町桑内","lat":"34.021211","lng":"134.245539"},{"town":"山川町桑ノ峯","lat":"34.052551","lng":"134.215090"},{"town":"山川町高頭","lat":"34.049561","lng":"134.203122"},{"town":"山川町御饌免","lat":"34.045162","lng":"134.221485"},{"town":"山川町御旅館","lat":"34.048876","lng":"134.200580"},{"town":"山川町権現谷","lat":"34.054217","lng":"134.212424"},{"town":"山川町境谷","lat":"34.049192","lng":"134.243318"},{"town":"山川町坂口","lat":"34.054186","lng":"134.211174"},{"town":"山川町坂田","lat":"34.053739","lng":"134.251029"},{"town":"山川町貞田","lat":"34.056056","lng":"134.204129"},{"town":"山川町小路","lat":"34.044729","lng":"134.199752"},{"town":"山川町新田谷","lat":"34.047069","lng":"134.242913"},{"town":"山川町季邦","lat":"34.052392","lng":"134.234665"},{"town":"山川町住吉","lat":"34.049056","lng":"134.231442"},{"town":"山川町諏訪","lat":"34.064945","lng":"134.249489"},{"town":"山川町瀬津","lat":"34.057253","lng":"134.211326"},{"town":"山川町建石","lat":"34.047605","lng":"134.228049"},{"town":"山川町田ノ浦","lat":"34.043724","lng":"134.216467"},{"town":"山川町塚穴","lat":"34.051443","lng":"134.212504"},{"town":"山川町土仏西向","lat":"34.046778","lng":"134.213137"},{"town":"山川町鼓山","lat":"34.061606","lng":"134.192529"},{"town":"山川町津由谷","lat":"34.040426","lng":"134.239959"},{"town":"山川町堤外","lat":"34.064728","lng":"134.261941"},{"town":"山川町堤内","lat":"34.061448","lng":"134.256746"},{"town":"山川町天王原","lat":"34.050391","lng":"134.218668"},{"town":"山川町天神","lat":"34.062511","lng":"134.269057"},{"town":"山川町天神佐古","lat":"34.054774","lng":"134.216990"},{"town":"山川町土橋","lat":"34.055615","lng":"134.220178"},{"town":"山川町土橋ノ上","lat":"34.054486","lng":"134.213796"},{"town":"山川町中須賀","lat":"34.063009","lng":"134.266054"},{"town":"山川町中ノ郷","lat":"34.028407","lng":"134.207571"},{"town":"山川町流","lat":"34.057138","lng":"134.259519"},{"town":"山川町鍋倉","lat":"34.036807","lng":"134.201713"},{"town":"山川町西久保","lat":"34.059925","lng":"134.255669"},{"town":"山川町西ノ原","lat":"34.049528","lng":"134.234390"},{"town":"山川町西野峯","lat":"34.002385","lng":"134.234530"},{"town":"山川町西麓","lat":"34.056750","lng":"134.253692"},{"town":"山川町野宮谷","lat":"34.052884","lng":"134.209181"},{"town":"山川町旗見","lat":"34.036279","lng":"134.234158"},{"town":"山川町八ヶ久保","lat":"34.049813","lng":"134.205232"},{"town":"山川町八幡","lat":"34.062854","lng":"134.241988"},{"town":"山川町馬場崎","lat":"34.047982","lng":"134.224951"},{"town":"山川町榛木原","lat":"34.052016","lng":"134.216673"},{"town":"山川町東麓","lat":"34.051351","lng":"134.260737"},{"town":"山川町東麦原","lat":"34.047181","lng":"134.237771"},{"town":"山川町引地","lat":"34.056556","lng":"134.200858"},{"town":"山川町久宗","lat":"34.033584","lng":"134.224146"},{"town":"山川町日知利子","lat":"34.054727","lng":"134.198688"},{"town":"山川町一ツ石","lat":"34.041106","lng":"134.210279"},{"town":"山川町平山","lat":"34.055031","lng":"134.209372"},{"town":"山川町日鷲谷","lat":"34.030656","lng":"134.203415"},{"town":"山川町藤生","lat":"34.059902","lng":"134.197961"},{"town":"山川町舟戸","lat":"34.063296","lng":"134.197475"},{"town":"山川町古城","lat":"34.053456","lng":"134.244616"},{"town":"山川町町","lat":"34.048384","lng":"134.223137"},{"town":"山川町馬見尾","lat":"34.025401","lng":"134.231800"},{"town":"山川町丸山","lat":"34.042638","lng":"134.239390"},{"town":"山川町三島","lat":"34.064738","lng":"134.239754"},{"town":"山川町宮北","lat":"34.062321","lng":"134.261240"},{"town":"山川町宮地","lat":"34.052422","lng":"134.238551"},{"town":"山川町宮島","lat":"34.059946","lng":"134.261461"},{"town":"山川町宮谷","lat":"34.044054","lng":"134.214215"},{"town":"山川町迎坂","lat":"34.032593","lng":"134.238531"},{"town":"山川町麦原","lat":"34.045401","lng":"134.234275"},{"town":"山川町向坂","lat":"34.034589","lng":"134.247579"},{"town":"山川町向原","lat":"34.065251","lng":"134.212076"},{"town":"山川町村雲","lat":"34.056144","lng":"134.224422"},{"town":"山川町茂草","lat":"34.053254","lng":"134.202886"},{"town":"山川町矢落","lat":"34.043922","lng":"134.209813"},{"town":"山川町山路","lat":"34.057558","lng":"134.256188"},{"town":"山川町山ノ神","lat":"34.041018","lng":"134.234583"},{"town":"山川町木綿麻山","lat":"34.017348","lng":"134.193511"},{"town":"山川町湯立","lat":"34.057475","lng":"134.231133"},{"town":"山川町横走","lat":"34.037825","lng":"134.238409"},{"town":"山川町若宮","lat":"34.062122","lng":"134.245778"},{"town":"山川町大須賀","lat":"34.061523","lng":"134.233664"},{"town":"山川町前川","lat":"34.059430","lng":"134.241550"}]