[{"town":"大字芦検","koaza":"","lat":28.291686,"lng":129.266775},{"town":"大字阿室","koaza":"","lat":28.251736,"lng":129.193308},{"town":"大字生勝","koaza":"","lat":28.286325,"lng":129.244777},{"town":"大字宇検","koaza":"","lat":28.30676,"lng":129.239679},{"town":"大字久志","koaza":"","lat":28.287318,"lng":129.233644},{"town":"大字須古","koaza":"","lat":28.255489,"lng":129.306743},{"town":"大字田検","koaza":"","lat":28.296318,"lng":129.296834},{"town":"大字平田","koaza":"","lat":28.255801,"lng":129.220198},{"town":"大字屋鈍","koaza":"","lat":28.26041,"lng":129.182882},{"town":"大字湯湾","koaza":"","lat":28.265136,"lng":129.338375},{"town":"大字部連","koaza":"","lat":28.258046,"lng":129.276081},{"town":"大字名柄","koaza":"","lat":28.246856,"lng":129.242017},{"town":"大字佐念","koaza":"","lat":28.260168,"lng":129.232091}]