[{"town":"大字秋徳","koaza":"","lat":28.083171,"lng":129.275021},{"town":"大字阿木名","koaza":"","lat":28.174981,"lng":129.327276},{"town":"大字阿多地","koaza":"","lat":28.154569,"lng":129.20216},{"town":"大字阿鉄","koaza":"","lat":28.191963,"lng":129.297768},{"town":"大字網野子","koaza":"","lat":28.175792,"lng":129.365278},{"town":"大字阿室釜","koaza":"","lat":28.202655,"lng":129.27453},{"town":"大字池地","koaza":"","lat":28.036669,"lng":129.218379},{"town":"大字生間","koaza":"","lat":28.105199,"lng":129.327025},{"town":"大字伊子茂","koaza":"","lat":28.107553,"lng":129.239889},{"town":"大字伊須","koaza":"","lat":28.153425,"lng":129.343515},{"town":"大字請阿室","koaza":"","lat":28.022893,"lng":129.255495},{"town":"大字於斉","koaza":"","lat":28.11036,"lng":129.257603},{"town":"大字押角","koaza":"","lat":28.122434,"lng":129.27001},{"town":"大字勝浦","koaza":"","lat":28.185445,"lng":129.342557},{"town":"大字勝能","koaza":"","lat":28.110437,"lng":129.283978},{"town":"大字嘉鉄","koaza":"","lat":28.141426,"lng":129.343276},{"town":"大字嘉徳","koaza":"","lat":28.194998,"lng":129.407969},{"town":"大字嘉入","koaza":"","lat":28.137567,"lng":129.225399},{"town":"大字木慈","koaza":"","lat":28.160045,"lng":129.216831},{"town":"大字久慈","koaza":"","lat":28.234061,"lng":129.248919},{"town":"大字管鈍","koaza":"","lat":28.23109,"lng":129.19398},{"town":"大字久根津","koaza":"","lat":28.169444,"lng":129.306219},{"town":"大字花天","koaza":"","lat":28.222681,"lng":129.233692},{"town":"大字花富","koaza":"","lat":28.092054,"lng":129.227163},{"town":"大字小名瀬","koaza":"","lat":28.194752,"lng":129.285999},{"town":"大字古仁屋","koaza":"","lat":28.152178,"lng":129.318086},{"town":"大字薩川","koaza":"","lat":28.177416,"lng":129.202474},{"town":"大字実久","koaza":"","lat":28.173931,"lng":129.190371},{"town":"大字篠川","koaza":"","lat":28.230422,"lng":129.299669},{"town":"大字芝","koaza":"","lat":28.192516,"lng":129.20212},{"town":"大字諸数","koaza":"","lat":28.111061,"lng":129.304205},{"town":"大字諸鈍","koaza":"","lat":28.082242,"lng":129.329761},{"town":"大字須子茂","koaza":"","lat":28.148467,"lng":129.212853},{"town":"大字清水","koaza":"","lat":28.141168,"lng":129.33017},{"town":"大字瀬相","koaza":"","lat":28.124255,"lng":129.240487},{"town":"大字節子","koaza":"","lat":28.182149,"lng":129.387082},{"town":"大字蘇刈","koaza":"","lat":28.130217,"lng":129.369478},{"town":"大字武名","koaza":"","lat":28.159411,"lng":129.263584},{"town":"大字手安","koaza":"","lat":28.15686,"lng":129.30168},{"town":"大字渡連","koaza":"","lat":28.10686,"lng":129.341529},{"town":"大字西阿室","koaza":"","lat":28.117948,"lng":129.226396},{"town":"大字西古見","koaza":"","lat":28.238477,"lng":129.156939},{"town":"大字野見山","koaza":"","lat":28.093658,"lng":129.299926},{"town":"大字俵","koaza":"","lat":28.137211,"lng":129.236929},{"town":"大字三浦","koaza":"","lat":28.156831,"lng":129.271328},{"town":"大字油井","koaza":"","lat":28.18303,"lng":129.300818},{"town":"大字与路","koaza":"","lat":28.041459,"lng":129.15724},{"town":"古仁屋瀬久井西","koaza":"","lat":28.144403,"lng":129.319506},{"town":"古仁屋瀬久井東","koaza":"","lat":28.143206,"lng":129.32028},{"town":"大字古志","koaza":"","lat":28.232125,"lng":129.283118},{"town":"大字瀬武","koaza":"","lat":28.167186,"lng":129.206529},{"town":"大字古仁屋","koaza":"春日","lat":28.148747,"lng":129.31128}]