[{"town":"池島町","koaza":"","lat":31.717551,"lng":130.614762},{"town":"大山","koaza":"","lat":31.765215,"lng":130.626532},{"town":"加治木町朝日町","koaza":"","lat":31.734945,"lng":130.668879},{"town":"加治木町仮屋町","koaza":"","lat":31.74117,"lng":130.664827},{"town":"加治木町木田","koaza":"","lat":31.74001,"lng":130.645416},{"town":"加治木町錦江町","koaza":"","lat":31.735334,"lng":130.661147},{"town":"加治木町小山田","koaza":"","lat":31.77697,"lng":130.67756},{"town":"加治木町新生町","koaza":"","lat":31.739198,"lng":130.655412},{"town":"加治木町新富町","koaza":"","lat":31.741435,"lng":130.66918},{"town":"加治木町諏訪町","koaza":"","lat":31.737656,"lng":130.669699},{"town":"加治木町反土","koaza":"","lat":31.741457,"lng":130.659847},{"town":"加治木町西別府","koaza":"","lat":31.788185,"lng":130.640065},{"town":"加治木町日木山","koaza":"","lat":31.745601,"lng":130.677473},{"town":"加治木町辺川","koaza":"","lat":31.791633,"lng":130.655472},{"town":"加治木町港町","koaza":"","lat":31.731935,"lng":130.664407},{"town":"加治木町本町","koaza":"","lat":31.737402,"lng":130.664589},{"town":"上名","koaza":"","lat":31.808459,"lng":130.624599},{"town":"蒲生町漆","koaza":"","lat":31.832088,"lng":130.549712},{"town":"蒲生町上久徳","koaza":"","lat":31.766546,"lng":130.578594},{"town":"蒲生町北","koaza":"","lat":31.777521,"lng":130.547721},{"town":"蒲生町下久徳","koaza":"","lat":31.751609,"lng":130.585811},{"town":"蒲生町白男","koaza":"","lat":31.760454,"lng":130.510485},{"town":"蒲生町西浦","koaza":"","lat":31.809056,"lng":130.537748},{"town":"蒲生町久末","koaza":"","lat":31.754698,"lng":130.540992},{"town":"蒲生町米丸","koaza":"","lat":31.787738,"lng":130.570608},{"town":"北山","koaza":"","lat":31.838625,"lng":130.603191},{"town":"木津志","koaza":"","lat":31.822693,"lng":130.582699},{"town":"三拾町","koaza":"","lat":31.750483,"lng":130.621851},{"town":"下名","koaza":"","lat":31.768008,"lng":130.613033},{"town":"住吉","koaza":"","lat":31.765586,"lng":130.592304},{"town":"寺師","koaza":"","lat":31.779134,"lng":130.594723},{"town":"豊留","koaza":"","lat":31.75506,"lng":130.613662},{"town":"永池町","koaza":"","lat":31.716028,"lng":130.61185},{"town":"永瀬","koaza":"","lat":31.757379,"lng":130.597611},{"town":"中津野","koaza":"","lat":31.751901,"lng":130.609264},{"town":"鍋倉","koaza":"","lat":31.748078,"lng":130.632447},{"town":"西姶良一丁目","koaza":"","lat":31.729201,"lng":130.604102},{"town":"西姶良二丁目","koaza":"","lat":31.731805,"lng":130.603415},{"town":"西姶良三丁目","koaza":"","lat":31.731128,"lng":130.598345},{"town":"西姶良四丁目","koaza":"","lat":31.734223,"lng":130.600329},{"town":"西宮島町","koaza":"","lat":31.725194,"lng":130.621419},{"town":"西餅田","koaza":"","lat":31.727597,"lng":130.617151},{"town":"東餅田","koaza":"","lat":31.726143,"lng":130.635031},{"town":"平松","koaza":"","lat":31.713483,"lng":130.588212},{"town":"深水","koaza":"","lat":31.758644,"lng":130.619428},{"town":"船津","koaza":"","lat":31.743272,"lng":130.602235},{"town":"増田","koaza":"","lat":31.754602,"lng":130.603037},{"town":"松原町一丁目","koaza":"","lat":31.719189,"lng":130.63044},{"town":"松原町二丁目","koaza":"","lat":31.721842,"lng":130.63248},{"town":"松原町三丁目","koaza":"","lat":31.723883,"lng":130.634011},{"town":"宮島町","koaza":"","lat":31.726787,"lng":130.62662},{"town":"脇元","koaza":"","lat":31.693821,"lng":130.610326},{"town":"脇元","koaza":"橋ノ口","lat":31.706365,"lng":130.615396},{"town":"西餅田","koaza":"上椨木","lat":31.737789,"lng":130.624225},{"town":"加治木町木田","koaza":"松原添","lat":31.750607,"lng":130.664082}]