[{"town":"あけぼの町","koaza":"","lat":31.264994,"lng":130.359852,"zip":"8980080"},{"town":"旭町","koaza":"","lat":31.265717,"lng":130.300901,"zip":"8980008"},{"town":"泉町","koaza":"","lat":31.267132,"lng":130.302417,"zip":"8980006"},{"town":"板敷西町","koaza":"","lat":31.265647,"lng":130.323232,"zip":"8980084"},{"town":"板敷本町","koaza":"","lat":31.267439,"lng":130.33608,"zip":"8980082"},{"town":"板敷南町","koaza":"","lat":31.258813,"lng":130.3272,"zip":"8980083"},{"town":"岩崎町","koaza":"","lat":31.280351,"lng":130.287395,"zip":"8980052"},{"town":"岩戸町","koaza":"","lat":31.263393,"lng":130.313919,"zip":"8980058"},{"town":"恵比須町","koaza":"","lat":31.262644,"lng":130.296923,"zip":"8980009"},{"town":"大塚北町","koaza":"","lat":31.275334,"lng":130.270915,"zip":"8980026"},{"town":"大塚中町","koaza":"","lat":31.269777,"lng":130.269021,"zip":"8980028"},{"town":"大塚西町","koaza":"","lat":31.277187,"lng":130.254256,"zip":"8980027"},{"town":"大塚南町","koaza":"","lat":31.266311,"lng":130.27112,"zip":"8980029"},{"town":"折口町","koaza":"","lat":31.268692,"lng":130.296776,"zip":"8980003"},{"town":"鹿篭麓町","koaza":"","lat":31.287712,"lng":130.289582,"zip":"8980054"},{"town":"春日町","koaza":"","lat":31.270298,"lng":130.25835,"zip":"8980044"},{"town":"茅野町","koaza":"","lat":31.30029,"lng":130.34629,"zip":"8980098"},{"town":"木原町","koaza":"","lat":31.272832,"lng":130.312272,"zip":"8980057"},{"town":"清水町","koaza":"","lat":31.304294,"lng":130.315073,"zip":"8980066"},{"town":"金山町","koaza":"","lat":31.310932,"lng":130.289253,"zip":"8980076"},{"town":"金山西町","koaza":"","lat":31.311403,"lng":130.278093,"zip":"8980074"},{"town":"国見町","koaza":"","lat":31.285834,"lng":130.344552,"zip":"8980088"},{"town":"小塚町","koaza":"","lat":31.30717,"lng":130.340717,"zip":"8980099"},{"town":"寿町","koaza":"","lat":31.286398,"lng":130.295603,"zip":"8980062"},{"town":"木場町","koaza":"","lat":31.282564,"lng":130.283121,"zip":"8980053"},{"town":"駒水町","koaza":"","lat":31.308164,"lng":130.37166,"zip":"8980094"},{"town":"栄中町","koaza":"","lat":31.275879,"lng":130.308201,"zip":"8980038"},{"town":"栄本町","koaza":"","lat":31.27155,"lng":130.307043,"zip":"8980037"},{"town":"桜木町","koaza":"","lat":31.275126,"lng":130.290867,"zip":"8980018"},{"town":"桜山上町","koaza":"","lat":31.307234,"lng":130.262341,"zip":"8980073"},{"town":"桜山町","koaza":"","lat":31.293756,"lng":130.286832,"zip":"8980061"},{"town":"桜山西町","koaza":"","lat":31.291742,"lng":130.282359,"zip":"8980055"},{"town":"桜山東町","koaza":"","lat":31.298862,"lng":130.306413,"zip":"8980065"},{"town":"桜山本町","koaza":"","lat":31.297213,"lng":130.297209,"zip":"8980064"},{"town":"里町","koaza":"","lat":31.282605,"lng":130.362178,"zip":"8980097"},{"town":"汐見町","koaza":"","lat":31.270054,"lng":130.292947,"zip":"8980002"},{"town":"塩屋北町","koaza":"","lat":31.265346,"lng":130.278391,"zip":"8980041"},{"town":"塩屋南町","koaza":"","lat":31.261425,"lng":130.277957,"zip":"8980042"},{"town":"下松町","koaza":"","lat":31.303815,"lng":130.356166,"zip":"8980095"},{"town":"白沢北町","koaza":"","lat":31.264126,"lng":130.347482,"zip":"8980089"},{"town":"白沢西町","koaza":"","lat":31.254715,"lng":130.35469,"zip":"8980092"},{"town":"白沢東町","koaza":"","lat":31.255335,"lng":130.364411,"zip":"8980091"},{"town":"新町","koaza":"","lat":31.266758,"lng":130.30463,"zip":"8980007"},{"town":"住吉町","koaza":"","lat":31.271959,"lng":130.296589,"zip":"8980017"},{"town":"瀬戸町","koaza":"","lat":31.284113,"lng":130.336617,"zip":"8980087"},{"town":"園見西町","koaza":"","lat":31.280429,"lng":130.265295,"zip":"8980047"},{"town":"園見本町","koaza":"","lat":31.281299,"lng":130.275205,"zip":"8980046"},{"town":"高見町","koaza":"","lat":31.27121,"lng":130.293313,"zip":"8980016"},{"town":"立神北町","koaza":"","lat":31.276437,"lng":130.277367,"zip":"8980045"},{"town":"立神本町","koaza":"","lat":31.269537,"lng":130.282196,"zip":"8980025"},{"town":"田布川町","koaza":"","lat":31.316331,"lng":130.28612,"zip":"8980075"},{"town":"中央町","koaza":"","lat":31.275069,"lng":130.284676,"zip":"8980051"},{"town":"千代田町","koaza":"","lat":31.274263,"lng":130.296938,"zip":"8980012"},{"town":"豊留町","koaza":"","lat":31.271908,"lng":130.335029,"zip":"8980081"},{"town":"中町","koaza":"","lat":31.267886,"lng":130.300527,"zip":"8980005"},{"town":"西鹿篭","koaza":"","lat":31.297007,"lng":130.266182,"zip":"8980024"},{"town":"西本町","koaza":"","lat":31.2704,"lng":130.297077,"zip":"8980015"},{"town":"仁田浦町","koaza":"","lat":31.258289,"lng":130.3421,"zip":"8980093"},{"town":"東鹿篭","koaza":"","lat":31.31187,"lng":130.31707,"zip":"8980021"},{"town":"東本町","koaza":"","lat":31.271776,"lng":130.299224,"zip":"8980014"},{"town":"火之神北町","koaza":"","lat":31.260649,"lng":130.268845,"zip":"8980043"},{"town":"火之神町","koaza":"","lat":31.255289,"lng":130.278184,"zip":"8980048"},{"town":"火之神岬町","koaza":"","lat":31.253236,"lng":130.271956,"zip":"8980049"},{"town":"日之出町","koaza":"","lat":31.272228,"lng":130.303487,"zip":"8980034"},{"town":"平田町","koaza":"","lat":31.280151,"lng":130.292468,"zip":"8980035"},{"town":"別府","koaza":"","lat":31.289397,"lng":130.352722,"zip":"8980032"},{"town":"別府西町","koaza":"","lat":31.275686,"lng":130.342416,"zip":"8980086"},{"town":"別府東町","koaza":"","lat":31.275746,"lng":130.350934,"zip":"8980085"},{"town":"まかや町","koaza":"","lat":31.295051,"lng":130.357353,"zip":"8980096"},{"town":"枕崎","koaza":"","lat":31.279195,"lng":130.326629,"zip":"8980031"},{"town":"松之尾町","koaza":"","lat":31.266578,"lng":130.289806,"zip":"8980001"},{"town":"道野町","koaza":"","lat":31.301441,"lng":130.275475,"zip":"8980072"},{"town":"緑町","koaza":"","lat":31.276165,"lng":130.294866,"zip":"8980011"},{"town":"港町","koaza":"","lat":31.267686,"lng":130.298344,"zip":"8980004"},{"town":"美原町","koaza":"","lat":31.2809,"lng":130.311662,"zip":"8980056"},{"town":"宮田町","koaza":"","lat":31.27809,"lng":130.298865,"zip":"8980022"},{"town":"宮前町","koaza":"","lat":31.269694,"lng":130.303832,"zip":"8980033"},{"town":"美山町","koaza":"","lat":31.313626,"lng":130.307725,"zip":"8980071"},{"town":"妙見町","koaza":"","lat":31.28782,"lng":130.302826,"zip":"8980063"},{"town":"明和町","koaza":"","lat":31.279058,"lng":130.29631,"zip":"8980036"},{"town":"山手町","koaza":"","lat":31.272221,"lng":130.300771,"zip":"8980013"},{"town":"若葉町","koaza":"","lat":31.277597,"lng":130.301096,"zip":"8980023"}]