[{"town":"赤瀬川","koaza":"","lat":32.035026,"lng":130.208909},{"town":"大川","koaza":"","lat":31.955115,"lng":130.241358},{"town":"大丸町","koaza":"","lat":32.015805,"lng":130.196911},{"town":"折口","koaza":"","lat":32.060287,"lng":130.216888},{"town":"琴平町","koaza":"","lat":32.021213,"lng":130.194896},{"town":"栄町","koaza":"","lat":32.0211,"lng":130.196807},{"town":"塩鶴町一丁目","koaza":"","lat":32.009369,"lng":130.196003},{"town":"塩鶴町二丁目","koaza":"","lat":32.009778,"lng":130.193982},{"town":"塩浜町一丁目","koaza":"","lat":32.004064,"lng":130.195246},{"town":"塩浜町二丁目","koaza":"","lat":32.003981,"lng":130.19306},{"town":"新町","koaza":"","lat":32.024182,"lng":130.195481},{"town":"高松町","koaza":"","lat":32.018218,"lng":130.19822},{"town":"多田","koaza":"","lat":32.053927,"lng":130.236771},{"town":"鶴川内","koaza":"","lat":31.999444,"lng":130.278452},{"town":"鶴見町","koaza":"","lat":32.013834,"lng":130.195036},{"town":"西目","koaza":"","lat":31.989157,"lng":130.210809},{"town":"浜町","koaza":"","lat":32.019132,"lng":130.193606},{"town":"波留","koaza":"","lat":32.010145,"lng":130.204615},{"town":"晴海町","koaza":"","lat":32.024797,"lng":130.19366},{"town":"本町","koaza":"","lat":32.018435,"lng":130.195255},{"town":"丸尾町","koaza":"","lat":32.024415,"lng":130.196532},{"town":"港町","koaza":"","lat":32.017194,"lng":130.193683},{"town":"山下","koaza":"","lat":31.995193,"lng":130.240315},{"town":"脇本","koaza":"","lat":32.095394,"lng":130.202959}]