[{"town":"希望ヶ丘町","koaza":"","lat":31.538097,"lng":130.515474},{"town":"五ヶ別府町","koaza":"","lat":31.578253,"lng":130.474214},{"town":"桜ヶ丘一丁目","koaza":"","lat":31.55923,"lng":130.512774},{"town":"自由ヶ丘一丁目","koaza":"","lat":31.541189,"lng":130.513136},{"town":"星ヶ峯一丁目","koaza":"","lat":31.571808,"lng":130.503837},{"town":"花野光ヶ丘一丁目","koaza":"","lat":31.650888,"lng":130.528853},{"town":"花野光ヶ丘二丁目","koaza":"","lat":31.649886,"lng":130.526496},{"town":"桜ヶ丘二丁目","koaza":"","lat":31.553995,"lng":130.512446},{"town":"自由ヶ丘二丁目","koaza":"","lat":31.542098,"lng":130.51101},{"town":"星ヶ峯二丁目","koaza":"","lat":31.574424,"lng":130.496516},{"town":"桜ヶ丘三丁目","koaza":"","lat":31.55047,"lng":130.512816},{"town":"星ヶ峯三丁目","koaza":"","lat":31.581483,"lng":130.492959},{"town":"桜ヶ丘四丁目","koaza":"","lat":31.552341,"lng":130.51666},{"town":"星ヶ峯四丁目","koaza":"","lat":31.578893,"lng":130.489718},{"town":"桜ヶ丘五丁目","koaza":"","lat":31.548917,"lng":130.517932},{"town":"星ヶ峯五丁目","koaza":"","lat":31.576057,"lng":130.484432},{"town":"桜ヶ丘六丁目","koaza":"","lat":31.546646,"lng":130.521477},{"town":"星ヶ峯六丁目","koaza":"","lat":31.573184,"lng":130.489828},{"town":"桜ヶ丘七丁目","koaza":"","lat":31.553607,"lng":130.522228},{"town":"桜ヶ丘八丁目","koaza":"","lat":31.54647,"lng":130.527637},{"town":"荒田一丁目","koaza":"","lat":31.57545,"lng":130.550582},{"town":"荒田二丁目","koaza":"","lat":31.571219,"lng":130.549504},{"town":"有村町","koaza":"","lat":31.552074,"lng":130.681045},{"town":"有屋田町","koaza":"","lat":31.665059,"lng":130.445704},{"town":"池之上町","koaza":"","lat":31.61051,"lng":130.56144},{"town":"伊敷一丁目","koaza":"","lat":31.618313,"lng":130.525651},{"town":"伊敷二丁目","koaza":"","lat":31.619362,"lng":130.531208},{"town":"伊敷三丁目","koaza":"","lat":31.62447,"lng":130.529645},{"town":"伊敷四丁目","koaza":"","lat":31.630774,"lng":130.533169},{"town":"伊敷五丁目","koaza":"","lat":31.627066,"lng":130.52815},{"town":"伊敷六丁目","koaza":"","lat":31.622157,"lng":130.524044},{"town":"伊敷七丁目","koaza":"","lat":31.629769,"lng":130.518894},{"town":"伊敷八丁目","koaza":"","lat":31.631391,"lng":130.523863},{"town":"伊敷台一丁目","koaza":"","lat":31.623425,"lng":130.535063},{"town":"伊敷台二丁目","koaza":"","lat":31.625495,"lng":130.5338},{"town":"伊敷台三丁目","koaza":"","lat":31.629143,"lng":130.533394},{"town":"伊敷台四丁目","koaza":"","lat":31.630822,"lng":130.540546},{"town":"伊敷台五丁目","koaza":"","lat":31.628444,"lng":130.539849},{"town":"伊敷台六丁目","koaza":"","lat":31.627451,"lng":130.543702},{"town":"伊敷台七丁目","koaza":"","lat":31.627936,"lng":130.550148},{"town":"伊敷町","koaza":"","lat":31.63436,"lng":130.516965},{"town":"石谷町","koaza":"","lat":31.611432,"lng":130.459438},{"town":"泉町","koaza":"","lat":31.593117,"lng":130.560048},{"town":"稲荷町","koaza":"","lat":31.61263,"lng":130.569355},{"town":"犬迫町","koaza":"","lat":31.629108,"lng":130.488146},{"town":"入佐町","koaza":"","lat":31.578561,"lng":130.401047},{"town":"上荒田町","koaza":"","lat":31.575102,"lng":130.542044},{"town":"上之園町","koaza":"","lat":31.580984,"lng":130.546399},{"town":"魚見町","koaza":"","lat":31.541029,"lng":130.52464},{"town":"宇宿一丁目","koaza":"","lat":31.548263,"lng":130.541288},{"town":"宇宿二丁目","koaza":"","lat":31.540864,"lng":130.542789},{"town":"宇宿三丁目","koaza":"","lat":31.542408,"lng":130.537239},{"town":"宇宿四丁目","koaza":"","lat":31.54666,"lng":130.536172},{"town":"宇宿五丁目","koaza":"","lat":31.544758,"lng":130.53344},{"town":"宇宿六丁目","koaza":"","lat":31.550544,"lng":130.52852},{"town":"宇宿七丁目","koaza":"","lat":31.553012,"lng":130.528512},{"town":"宇宿八丁目","koaza":"","lat":31.556719,"lng":130.524634},{"town":"宇宿九丁目","koaza":"","lat":31.555713,"lng":130.522437},{"town":"宇宿町","koaza":"","lat":31.554126,"lng":130.519109},{"town":"岡之原町","koaza":"","lat":31.660718,"lng":130.539481},{"town":"小川町","koaza":"","lat":31.599105,"lng":130.561413},{"town":"小野一丁目","koaza":"","lat":31.610448,"lng":130.52988},{"town":"小野二丁目","koaza":"","lat":31.615945,"lng":130.525036},{"town":"小野三丁目","koaza":"","lat":31.615522,"lng":130.510406},{"town":"小野四丁目","koaza":"","lat":31.607836,"lng":130.518836},{"town":"小野町","koaza":"","lat":31.606555,"lng":130.50591},{"town":"小原町","koaza":"","lat":31.542884,"lng":130.5247},{"town":"卸本町","koaza":"","lat":31.515447,"lng":130.521335},{"town":"加治屋町","koaza":"","lat":31.586127,"lng":130.549524},{"town":"春日町","koaza":"","lat":31.605897,"lng":130.565586},{"town":"上竜尾町","koaza":"","lat":31.609371,"lng":130.557638},{"town":"上谷口町","koaza":"","lat":31.595681,"lng":130.438236},{"town":"上福元町","koaza":"","lat":31.527834,"lng":130.498506},{"town":"上本町","koaza":"","lat":31.602345,"lng":130.560922},{"town":"鴨池一丁目","koaza":"","lat":31.565719,"lng":130.548198},{"town":"鴨池二丁目","koaza":"","lat":31.564766,"lng":130.553148},{"town":"鴨池新町","koaza":"","lat":31.554768,"lng":130.558263},{"town":"川上町","koaza":"","lat":31.659065,"lng":130.562447},{"town":"川田町","koaza":"","lat":31.672439,"lng":130.503502},{"town":"喜入瀬々串町","koaza":"","lat":31.416676,"lng":130.510316},{"town":"喜入町","koaza":"","lat":31.363983,"lng":130.540214},{"town":"喜入中名町","koaza":"","lat":31.38676,"lng":130.533203},{"town":"喜入生見町","koaza":"","lat":31.309994,"lng":130.552105},{"town":"喜入一倉町","koaza":"","lat":31.353295,"lng":130.513105},{"town":"喜入前之浜町","koaza":"","lat":31.335428,"lng":130.541134},{"town":"錦江台一丁目","koaza":"","lat":31.503717,"lng":130.495796},{"town":"錦江台二丁目","koaza":"","lat":31.503053,"lng":130.498868},{"town":"錦江台三丁目","koaza":"","lat":31.499378,"lng":130.496493},{"town":"錦江町","koaza":"","lat":31.576119,"lng":130.566431},{"town":"金生町","koaza":"","lat":31.592935,"lng":130.557497},{"town":"祇園之洲町","koaza":"","lat":31.605714,"lng":130.573081},{"town":"黒神町","koaza":"","lat":31.581158,"lng":130.677101},{"town":"甲突町","koaza":"","lat":31.580296,"lng":130.558996},{"town":"皇徳寺台一丁目","koaza":"","lat":31.56027,"lng":130.498265},{"town":"皇徳寺台二丁目","koaza":"","lat":31.557924,"lng":130.494201},{"town":"皇徳寺台三丁目","koaza":"","lat":31.560852,"lng":130.48883},{"town":"皇徳寺台四丁目","koaza":"","lat":31.56261,"lng":130.483093},{"town":"皇徳寺台五丁目","koaza":"","lat":31.56538,"lng":130.47936},{"town":"高免町","koaza":"","lat":31.614342,"lng":130.6955},{"town":"向陽一丁目","koaza":"","lat":31.559378,"lng":130.516835},{"town":"向陽二丁目","koaza":"","lat":31.556846,"lng":130.517759},{"town":"高麗町","koaza":"","lat":31.580847,"lng":130.551025},{"town":"郡元一丁目","koaza":"","lat":31.568395,"lng":130.543462},{"town":"郡元二丁目","koaza":"","lat":31.562007,"lng":130.546634},{"town":"郡元三丁目","koaza":"","lat":31.560082,"lng":130.548629},{"town":"郡元町","koaza":"","lat":31.561691,"lng":130.542711},{"town":"郡山岳町","koaza":"","lat":31.702792,"lng":130.433334},{"town":"郡山町","koaza":"","lat":31.69759,"lng":130.462161},{"town":"小松原一丁目","koaza":"","lat":31.535585,"lng":130.531457},{"town":"小松原二丁目","koaza":"","lat":31.529342,"lng":130.525898},{"town":"小山田町","koaza":"","lat":31.658676,"lng":130.484997},{"town":"呉服町","koaza":"","lat":31.59044,"lng":130.556855},{"town":"坂之上一丁目","koaza":"","lat":31.502266,"lng":130.512618},{"town":"坂之上二丁目","koaza":"","lat":31.505609,"lng":130.506486},{"town":"坂之上三丁目","koaza":"","lat":31.503002,"lng":130.502465},{"town":"坂之上四丁目","koaza":"","lat":31.499628,"lng":130.5046},{"town":"坂之上五丁目","koaza":"","lat":31.498848,"lng":130.50997},{"town":"坂之上六丁目","koaza":"","lat":31.494895,"lng":130.502764},{"town":"坂之上七丁目","koaza":"","lat":31.490009,"lng":130.5016},{"town":"坂之上八丁目","koaza":"","lat":31.495325,"lng":130.49624},{"town":"坂元町","koaza":"","lat":31.619163,"lng":130.553833},{"town":"桜島赤水町","koaza":"","lat":31.573594,"lng":130.614036},{"town":"桜島赤生原町","koaza":"","lat":31.60346,"lng":130.611877},{"town":"桜島小池町","koaza":"","lat":31.596511,"lng":130.604296},{"town":"桜島西道町","koaza":"","lat":31.618204,"lng":130.644173},{"town":"桜島白浜町","koaza":"","lat":31.62392,"lng":130.668456},{"town":"桜島武町","koaza":"","lat":31.612032,"lng":130.619473},{"town":"桜島藤野町","koaza":"","lat":31.616968,"lng":130.627643},{"town":"桜島二俣町","koaza":"","lat":31.623209,"lng":130.658064},{"town":"桜島松浦町","koaza":"","lat":31.60995,"lng":130.648267},{"town":"桜島横山町","koaza":"","lat":31.584061,"lng":130.595269},{"town":"三和町","koaza":"","lat":31.55008,"lng":130.554298},{"town":"清水町","koaza":"","lat":31.607477,"lng":130.57023},{"town":"下荒田一丁目","koaza":"","lat":31.577922,"lng":130.557091},{"town":"下荒田二丁目","koaza":"","lat":31.573647,"lng":130.556942},{"town":"下荒田三丁目","koaza":"","lat":31.570617,"lng":130.553928},{"town":"下荒田四丁目","koaza":"","lat":31.568864,"lng":130.557074},{"town":"下伊敷一丁目","koaza":"","lat":31.612414,"lng":130.534318},{"town":"下伊敷二丁目","koaza":"","lat":31.618922,"lng":130.538345},{"town":"下伊敷三丁目","koaza":"","lat":31.62149,"lng":130.537544},{"town":"下伊敷町","koaza":"","lat":31.625831,"lng":130.554594},{"town":"下田町","koaza":"","lat":31.639056,"lng":130.548456},{"town":"下竜尾町","koaza":"","lat":31.605291,"lng":130.560333},{"town":"下福元町","koaza":"","lat":31.497981,"lng":130.470285},{"town":"松陽台町","koaza":"","lat":31.598025,"lng":130.455274},{"town":"城山一丁目","koaza":"","lat":31.605011,"lng":130.545392},{"town":"城山二丁目","koaza":"","lat":31.605472,"lng":130.546761},{"town":"城山町","koaza":"","lat":31.598068,"lng":130.552127},{"town":"新栄町","koaza":"","lat":31.548257,"lng":130.544828},{"town":"新照院町","koaza":"","lat":31.595819,"lng":130.544676},{"town":"新島町","koaza":"","lat":31.618258,"lng":130.723174},{"town":"新町","koaza":"","lat":31.589302,"lng":130.559144},{"town":"新屋敷町","koaza":"","lat":31.582838,"lng":130.555739},{"town":"慈眼寺町","koaza":"","lat":31.512623,"lng":130.503935},{"town":"城西一丁目","koaza":"","lat":31.594292,"lng":130.540421},{"town":"城西二丁目","koaza":"","lat":31.596197,"lng":130.539318},{"town":"城西三丁目","koaza":"","lat":31.595477,"lng":130.535763},{"town":"城南町","koaza":"","lat":31.583783,"lng":130.564134},{"town":"住吉町","koaza":"","lat":31.590073,"lng":130.561974},{"town":"西陵一丁目","koaza":"","lat":31.582002,"lng":130.516125},{"town":"西陵二丁目","koaza":"","lat":31.578541,"lng":130.511513},{"town":"西陵三丁目","koaza":"","lat":31.583551,"lng":130.512619},{"town":"西陵四丁目","koaza":"","lat":31.58231,"lng":130.509361},{"town":"西陵五丁目","koaza":"","lat":31.582214,"lng":130.506313},{"town":"西陵六丁目","koaza":"","lat":31.580176,"lng":130.505086},{"town":"西陵七丁目","koaza":"","lat":31.585151,"lng":130.505524},{"town":"西陵八丁目","koaza":"","lat":31.583711,"lng":130.501335},{"town":"清和一丁目","koaza":"","lat":31.535824,"lng":130.514684},{"town":"清和二丁目","koaza":"","lat":31.538856,"lng":130.509985},{"town":"清和三丁目","koaza":"","lat":31.537213,"lng":130.50673},{"town":"清和四丁目","koaza":"","lat":31.533007,"lng":130.511447},{"town":"千日町","koaza":"","lat":31.589107,"lng":130.55577},{"town":"千年一丁目","koaza":"","lat":31.63683,"lng":130.522752},{"town":"千年二丁目","koaza":"","lat":31.641085,"lng":130.526078},{"town":"草牟田一丁目","koaza":"","lat":31.600106,"lng":130.542851},{"town":"草牟田二丁目","koaza":"","lat":31.606286,"lng":130.539946},{"town":"草牟田町","koaza":"","lat":31.607376,"lng":130.536743},{"town":"鷹師一丁目","koaza":"","lat":31.590411,"lng":130.54426},{"town":"鷹師二丁目","koaza":"","lat":31.590993,"lng":130.542709},{"town":"田上一丁目","koaza":"","lat":31.577456,"lng":130.531066},{"town":"田上二丁目","koaza":"","lat":31.573988,"lng":130.53206},{"town":"田上三丁目","koaza":"","lat":31.574333,"lng":130.528482},{"town":"田上四丁目","koaza":"","lat":31.573612,"lng":130.524257},{"town":"田上五丁目","koaza":"","lat":31.577526,"lng":130.52105},{"town":"田上六丁目","koaza":"","lat":31.581991,"lng":130.526939},{"town":"田上七丁目","koaza":"","lat":31.584658,"lng":130.520927},{"town":"田上八丁目","koaza":"","lat":31.5916,"lng":130.508931},{"town":"田上台一丁目","koaza":"","lat":31.569553,"lng":130.52693},{"town":"田上台二丁目","koaza":"","lat":31.570439,"lng":130.52348},{"town":"田上台三丁目","koaza":"","lat":31.569705,"lng":130.519198},{"town":"田上台四丁目","koaza":"","lat":31.573746,"lng":130.518536},{"town":"田上町","koaza":"","lat":31.571183,"lng":130.511107},{"town":"武一丁目","koaza":"","lat":31.580455,"lng":130.539548},{"town":"武二丁目","koaza":"","lat":31.582499,"lng":130.535984},{"town":"武三丁目","koaza":"","lat":31.580525,"lng":130.531731},{"town":"武岡一丁目","koaza":"","lat":31.588699,"lng":130.522274},{"town":"武岡二丁目","koaza":"","lat":31.593094,"lng":130.516237},{"town":"武岡三丁目","koaza":"","lat":31.589791,"lng":130.513775},{"town":"武岡四丁目","koaza":"","lat":31.59355,"lng":130.510919},{"town":"武岡五丁目","koaza":"","lat":31.597478,"lng":130.508693},{"town":"武岡六丁目","koaza":"","lat":31.596015,"lng":130.515208},{"town":"谷山港一丁目","koaza":"","lat":31.500528,"lng":130.524326},{"town":"谷山港二丁目","koaza":"","lat":31.494971,"lng":130.520678},{"town":"谷山港三丁目","koaza":"","lat":31.490961,"lng":130.528511},{"town":"谷山中央一丁目","koaza":"","lat":31.524613,"lng":130.516907},{"town":"谷山中央二丁目","koaza":"","lat":31.524938,"lng":130.522698},{"town":"谷山中央三丁目","koaza":"","lat":31.518209,"lng":130.519346},{"town":"谷山中央四丁目","koaza":"","lat":31.51855,"lng":130.516302},{"town":"谷山中央五丁目","koaza":"","lat":31.51676,"lng":130.513197},{"town":"谷山中央六丁目","koaza":"","lat":31.51622,"lng":130.509169},{"town":"谷山中央七丁目","koaza":"","lat":31.521865,"lng":130.512285},{"town":"谷山中央八丁目","koaza":"","lat":31.524787,"lng":130.511316},{"town":"玉里団地一丁目","koaza":"","lat":31.619594,"lng":130.543162},{"town":"玉里団地二丁目","koaza":"","lat":31.617097,"lng":130.549162},{"town":"玉里団地三丁目","koaza":"","lat":31.621381,"lng":130.547588},{"town":"玉里町","koaza":"","lat":31.612595,"lng":130.542117},{"town":"大黒町","koaza":"","lat":31.59087,"lng":130.558246},{"town":"大明丘一丁目","koaza":"","lat":31.629277,"lng":130.565297},{"town":"大明丘二丁目","koaza":"","lat":31.62924,"lng":130.568443},{"town":"大明丘三丁目","koaza":"","lat":31.632749,"lng":130.566913},{"town":"大竜町","koaza":"","lat":31.6054,"lng":130.562248},{"town":"中央港新町","koaza":"","lat":31.537075,"lng":130.552171},{"town":"中央町","koaza":"","lat":31.58268,"lng":130.543783},{"town":"中山一丁目","koaza":"","lat":31.548416,"lng":130.511561},{"town":"中山二丁目","koaza":"","lat":31.548416,"lng":130.507807},{"town":"中山町","koaza":"","lat":31.541668,"lng":130.478206},{"town":"皷川町","koaza":"","lat":31.61443,"lng":130.564348},{"town":"樋之口町","koaza":"","lat":31.585859,"lng":130.554968},{"town":"照国町","koaza":"","lat":31.593883,"lng":130.549521},{"town":"天保山町","koaza":"","lat":31.57405,"lng":130.563663},{"town":"東開町","koaza":"","lat":31.530472,"lng":130.53602},{"town":"常盤一丁目","koaza":"","lat":31.587685,"lng":130.529899},{"town":"常盤二丁目","koaza":"","lat":31.588968,"lng":130.530868},{"town":"常盤町","koaza":"","lat":31.591607,"lng":130.526968},{"town":"唐湊一丁目","koaza":"","lat":31.57218,"lng":130.535634},{"town":"唐湊二丁目","koaza":"","lat":31.569595,"lng":130.532175},{"town":"唐湊三丁目","koaza":"","lat":31.56638,"lng":130.533852},{"town":"唐湊四丁目","koaza":"","lat":31.566855,"lng":130.539521},{"town":"直木町","koaza":"","lat":31.579548,"lng":130.421803},{"town":"中町","koaza":"","lat":31.592674,"lng":130.556113},{"town":"長田町","koaza":"","lat":31.602334,"lng":130.554069},{"town":"永吉一丁目","koaza":"","lat":31.600584,"lng":130.535749},{"town":"永吉二丁目","koaza":"","lat":31.606175,"lng":130.53477},{"town":"永吉三丁目","koaza":"","lat":31.603953,"lng":130.531845},{"town":"七ツ島一丁目","koaza":"","lat":31.475677,"lng":130.514118},{"town":"七ツ島二丁目","koaza":"","lat":31.468165,"lng":130.524555},{"town":"南栄一丁目","koaza":"","lat":31.52244,"lng":130.526585},{"town":"南栄二丁目","koaza":"","lat":31.520631,"lng":130.531561},{"town":"南栄三丁目","koaza":"","lat":31.516035,"lng":130.530139},{"town":"南栄四丁目","koaza":"","lat":31.511203,"lng":130.528111},{"town":"南栄五丁目","koaza":"","lat":31.507161,"lng":130.51771},{"town":"南栄六丁目","koaza":"","lat":31.500118,"lng":130.516699},{"town":"南林寺町","koaza":"","lat":31.584689,"lng":130.560038},{"town":"西伊敷一丁目","koaza":"","lat":31.633114,"lng":130.528673},{"town":"西伊敷二丁目","koaza":"","lat":31.635847,"lng":130.529744},{"town":"西伊敷三丁目","koaza":"","lat":31.639784,"lng":130.529468},{"town":"西伊敷四丁目","koaza":"","lat":31.641057,"lng":130.533338},{"town":"西伊敷五丁目","koaza":"","lat":31.643823,"lng":130.538997},{"town":"西伊敷六丁目","koaza":"","lat":31.64469,"lng":130.535052},{"town":"西伊敷七丁目","koaza":"","lat":31.648487,"lng":130.537363},{"town":"西坂元町","koaza":"","lat":31.611832,"lng":130.549398},{"town":"西佐多町","koaza":"","lat":31.738289,"lng":130.540461},{"town":"西千石町","koaza":"","lat":31.588824,"lng":130.54842},{"town":"西谷山一丁目","koaza":"","lat":31.52499,"lng":130.507297},{"town":"西谷山二丁目","koaza":"","lat":31.521507,"lng":130.507977},{"town":"西田一丁目","koaza":"","lat":31.587403,"lng":130.544222},{"town":"西田二丁目","koaza":"","lat":31.586718,"lng":130.540733},{"town":"西田三丁目","koaza":"","lat":31.586945,"lng":130.53714},{"town":"西別府町","koaza":"","lat":31.598085,"lng":130.490248},{"town":"西俣町","koaza":"","lat":31.689715,"lng":130.454011},{"town":"西紫原町","koaza":"","lat":31.556092,"lng":130.529262},{"town":"野尻町","koaza":"","lat":31.569074,"lng":130.621744},{"town":"花尾町","koaza":"","lat":31.711414,"lng":130.491152},{"town":"浜町","koaza":"","lat":31.602096,"lng":130.565613},{"town":"原良一丁目","koaza":"","lat":31.598779,"lng":130.537884},{"town":"原良二丁目","koaza":"","lat":31.59767,"lng":130.53469},{"town":"原良三丁目","koaza":"","lat":31.597602,"lng":130.53258},{"town":"原良四丁目","koaza":"","lat":31.594939,"lng":130.53081},{"town":"原良五丁目","koaza":"","lat":31.597685,"lng":130.530783},{"town":"原良六丁目","koaza":"","lat":31.598832,"lng":130.52449},{"town":"原良七丁目","koaza":"","lat":31.596939,"lng":130.52393},{"town":"原良町","koaza":"","lat":31.594754,"lng":130.524647},{"town":"春山町","koaza":"","lat":31.561896,"lng":130.456924},{"town":"光山一丁目","koaza":"","lat":31.493619,"lng":130.509415},{"town":"光山二丁目","koaza":"","lat":31.490805,"lng":130.508385},{"town":"東郡元町","koaza":"","lat":31.554757,"lng":130.54826},{"town":"東坂元一丁目","koaza":"","lat":31.617351,"lng":130.560235},{"town":"東坂元二丁目","koaza":"","lat":31.622394,"lng":130.555581},{"town":"東坂元三丁目","koaza":"","lat":31.618852,"lng":130.563786},{"town":"東坂元四丁目","koaza":"","lat":31.622755,"lng":130.559623},{"town":"東桜島町","koaza":"","lat":31.556073,"lng":130.638091},{"town":"東佐多町","koaza":"","lat":31.733092,"lng":130.572752},{"town":"東千石町","koaza":"","lat":31.591898,"lng":130.553517},{"town":"東谷山一丁目","koaza":"","lat":31.537241,"lng":130.52899},{"town":"東谷山二丁目","koaza":"","lat":31.531374,"lng":130.522192},{"town":"東谷山三丁目","koaza":"","lat":31.529427,"lng":130.519169},{"town":"東谷山四丁目","koaza":"","lat":31.534348,"lng":130.522376},{"town":"東谷山五丁目","koaza":"","lat":31.530582,"lng":130.516016},{"town":"東谷山六丁目","koaza":"","lat":31.537244,"lng":130.521429},{"town":"東谷山七丁目","koaza":"","lat":31.541351,"lng":130.517506},{"town":"東俣町","koaza":"","lat":31.688032,"lng":130.502377},{"town":"日之出町","koaza":"","lat":31.550569,"lng":130.539143},{"town":"冷水町","koaza":"","lat":31.607885,"lng":130.550522},{"town":"平川町","koaza":"","lat":31.451266,"lng":130.499852},{"town":"平田町","koaza":"","lat":31.552181,"lng":130.430491},{"town":"平之町","koaza":"","lat":31.591293,"lng":130.54696},{"town":"広木一丁目","koaza":"","lat":31.564325,"lng":130.52228},{"town":"広木二丁目","koaza":"","lat":31.563189,"lng":130.519368},{"town":"広木三丁目","koaza":"","lat":31.562282,"lng":130.514504},{"town":"福山町","koaza":"","lat":31.610896,"lng":130.44089},{"town":"船津町","koaza":"","lat":31.588788,"lng":130.557793},{"town":"古里町","koaza":"","lat":31.552236,"lng":130.65146},{"town":"堀江町","koaza":"","lat":31.589835,"lng":130.560361},{"town":"本港新町","koaza":"","lat":31.593617,"lng":130.562801},{"town":"本城町","koaza":"","lat":31.712333,"lng":130.55395},{"town":"本名町","koaza":"","lat":31.70961,"lng":130.529488},{"town":"真砂町","koaza":"","lat":31.560177,"lng":130.552468},{"town":"真砂本町","koaza":"","lat":31.555352,"lng":130.552997},{"town":"松原町","koaza":"","lat":31.58723,"lng":130.558811},{"town":"緑ヶ丘町","koaza":"","lat":31.656454,"lng":130.546199},{"town":"南郡元町","koaza":"","lat":31.555931,"lng":130.544651},{"town":"南新町","koaza":"","lat":31.55497,"lng":130.541083},{"town":"皆与志町","koaza":"","lat":31.667523,"lng":130.521149},{"town":"宮之浦町","koaza":"","lat":31.682464,"lng":130.567925},{"town":"紫原一丁目","koaza":"","lat":31.559765,"lng":130.54009},{"town":"紫原二丁目","koaza":"","lat":31.558611,"lng":130.536879},{"town":"紫原三丁目","koaza":"","lat":31.552952,"lng":130.535412},{"town":"紫原四丁目","koaza":"","lat":31.557939,"lng":130.532097},{"town":"紫原五丁目","koaza":"","lat":31.561503,"lng":130.528284},{"town":"紫原六丁目","koaza":"","lat":31.563942,"lng":130.530749},{"town":"紫原七丁目","koaza":"","lat":31.566596,"lng":130.524759},{"town":"牟礼岡一丁目","koaza":"","lat":31.675323,"lng":130.584246},{"town":"牟礼岡二丁目","koaza":"","lat":31.676005,"lng":130.586775},{"town":"牟礼岡三丁目","koaza":"","lat":31.671844,"lng":130.584881},{"town":"名山町","koaza":"","lat":31.595294,"lng":130.559117},{"town":"明和一丁目","koaza":"","lat":31.601657,"lng":130.526582},{"town":"明和二丁目","koaza":"","lat":31.599853,"lng":130.519476},{"town":"明和三丁目","koaza":"","lat":31.605552,"lng":130.521153},{"town":"明和四丁目","koaza":"","lat":31.60477,"lng":130.525675},{"town":"明和五丁目","koaza":"","lat":31.607618,"lng":130.530231},{"town":"持木町","koaza":"","lat":31.561867,"lng":130.62819},{"town":"薬師一丁目","koaza":"","lat":31.591347,"lng":130.540626},{"town":"薬師二丁目","koaza":"","lat":31.591479,"lng":130.537055},{"town":"易居町","koaza":"","lat":31.597089,"lng":130.559956},{"town":"柳町","koaza":"","lat":31.603523,"lng":130.563735},{"town":"山下町","koaza":"","lat":31.596716,"lng":130.55643},{"town":"山田町","koaza":"","lat":31.564461,"lng":130.501049},{"town":"山田町","koaza":"上野","lat":31.554543,"lng":130.504873},{"town":"山之口町","koaza":"","lat":31.588207,"lng":130.553351},{"town":"油須木町","koaza":"","lat":31.692887,"lng":130.47953},{"town":"吉野一丁目","koaza":"","lat":31.651916,"lng":130.56874},{"town":"吉野二丁目","koaza":"","lat":31.658383,"lng":130.567811},{"town":"吉野町","koaza":"","lat":31.64538,"lng":130.585516},{"town":"吉野町一丁目","koaza":"","lat":31.649285,"lng":130.567864},{"town":"吉野町二丁目","koaza":"","lat":31.656164,"lng":130.566616},{"town":"与次郎一丁目","koaza":"","lat":31.570088,"lng":130.564197},{"town":"与次郎二丁目","koaza":"","lat":31.561468,"lng":130.561701},{"town":"四元町","koaza":"","lat":31.571549,"lng":130.44378},{"town":"若葉町","koaza":"","lat":31.625376,"lng":130.546851},{"town":"和田一丁目","koaza":"","lat":31.512924,"lng":130.511329},{"town":"和田二丁目","koaza":"","lat":31.508657,"lng":130.508869},{"town":"和田三丁目","koaza":"","lat":31.510804,"lng":130.514857}]