[{"town":"吾平町上名","koaza":"","lat":"31.307682","lng":"130.898314"},{"town":"吾平町下名","koaza":"","lat":"31.272196","lng":"130.878506"},{"town":"吾平町麓","koaza":"","lat":"31.257294","lng":"130.914106"},{"town":"旭原町","koaza":"","lat":"31.406851","lng":"130.882786"},{"town":"朝日町","koaza":"","lat":"31.382786","lng":"130.853746"},{"town":"有武町","koaza":"","lat":"31.430852","lng":"130.800926"},{"town":"飯隈町","koaza":"","lat":"31.337912","lng":"130.875810"},{"town":"今坂町","koaza":"","lat":"31.377981","lng":"130.822719"},{"town":"上野町","koaza":"","lat":"31.378519","lng":"130.811465"},{"town":"打馬一丁目","koaza":"","lat":"31.394025","lng":"130.850592"},{"town":"打馬二丁目","koaza":"","lat":"31.397414","lng":"130.853360"},{"town":"王子町","koaza":"","lat":"31.396369","lng":"130.861511"},{"town":"大姶良町","koaza":"","lat":"31.325734","lng":"130.825785"},{"town":"大浦町","koaza":"","lat":"31.408583","lng":"130.831684"},{"town":"大手町","koaza":"","lat":"31.390173","lng":"130.851043"},{"town":"小薄町","koaza":"","lat":"31.411780","lng":"130.793047"},{"town":"小野原町","koaza":"","lat":"31.378104","lng":"130.796472"},{"town":"海道町","koaza":"","lat":"31.405112","lng":"130.786849"},{"town":"笠之原町","koaza":"","lat":"31.389203","lng":"130.888267"},{"town":"上高隈町","koaza":"","lat":"31.499809","lng":"130.863862"},{"town":"上谷町","koaza":"","lat":"31.393978","lng":"130.837568"},{"town":"上祓川町","koaza":"","lat":"31.446677","lng":"130.848072"},{"town":"川西町","koaza":"","lat":"31.360530","lng":"130.874596"},{"town":"川東町","koaza":"","lat":"31.366887","lng":"130.892976"},{"town":"北田町","koaza":"","lat":"31.390396","lng":"130.846676"},{"town":"輝北町市成","koaza":"","lat":"31.575146","lng":"130.859196"},{"town":"輝北町上百引","koaza":"","lat":"31.550573","lng":"130.851582"},{"town":"輝北町下百引","koaza":"","lat":"31.519847","lng":"130.893914"},{"town":"輝北町諏訪原","koaza":"","lat":"31.583466","lng":"130.892308"},{"town":"輝北町平房","koaza":"","lat":"31.542782","lng":"130.903801"},{"town":"共栄町","koaza":"","lat":"31.378543","lng":"130.852721"},{"town":"串良町有里","koaza":"","lat":"31.415580","lng":"130.924293"},{"town":"串良町岡崎","koaza":"","lat":"31.379416","lng":"130.957219"},{"town":"串良町上小原","koaza":"","lat":"31.382035","lng":"130.920260"},{"town":"串良町下小原","koaza":"","lat":"31.383664","lng":"130.940589"},{"town":"串良町細山田","koaza":"","lat":"31.452333","lng":"130.919241"},{"town":"郷之原町","koaza":"","lat":"31.395677","lng":"130.818531"},{"town":"古前城町","koaza":"","lat":"31.389019","lng":"130.853356"},{"town":"寿一丁目","koaza":"","lat":"31.388085","lng":"130.858525"},{"town":"寿二丁目","koaza":"","lat":"31.390957","lng":"130.863317"},{"town":"寿三丁目","koaza":"","lat":"31.388710","lng":"130.869417"},{"town":"寿四丁目","koaza":"","lat":"31.390265","lng":"130.877074"},{"town":"寿五丁目","koaza":"","lat":"31.383979","lng":"130.861417"},{"town":"寿六丁目","koaza":"","lat":"31.380527","lng":"130.862697"},{"town":"寿七丁目","koaza":"","lat":"31.384486","lng":"130.869604"},{"town":"寿八丁目","koaza":"","lat":"31.382942","lng":"130.877263"},{"town":"獅子目町","koaza":"","lat":"31.319855","lng":"130.844308"},{"town":"下高隈町","koaza":"","lat":"31.474822","lng":"130.863435"},{"town":"下祓川町","koaza":"","lat":"31.408089","lng":"130.863009"},{"town":"白崎町","koaza":"","lat":"31.378078","lng":"130.857002"},{"town":"白水町","koaza":"","lat":"31.395151","lng":"130.789956"},{"town":"新栄町","koaza":"","lat":"31.375532","lng":"130.848896"},{"town":"新川町","koaza":"","lat":"31.376277","lng":"130.869444"},{"town":"新生町","koaza":"","lat":"31.381384","lng":"130.844376"},{"town":"曽田町","koaza":"","lat":"31.383819","lng":"130.855155"},{"town":"高須町","koaza":"","lat":"31.353281","lng":"130.797077"},{"town":"高牧町","koaza":"","lat":"31.416514","lng":"130.808901"},{"town":"田崎町","koaza":"","lat":"31.365173","lng":"130.853796"},{"town":"天神町","koaza":"","lat":"31.372899","lng":"130.785793"},{"town":"永小原町","koaza":"","lat":"31.310804","lng":"130.804184"},{"town":"永野田町","koaza":"","lat":"31.348913","lng":"130.884737"},{"town":"西大手町","koaza":"","lat":"31.391048","lng":"130.849105"},{"town":"西原一丁目","koaza":"","lat":"31.387228","lng":"130.839443"},{"town":"西原二丁目","koaza":"","lat":"31.387407","lng":"130.831195"},{"town":"西原三丁目","koaza":"","lat":"31.373065","lng":"130.835362"},{"town":"西原四丁目","koaza":"","lat":"31.381239","lng":"130.828537"},{"town":"西祓川町","koaza":"","lat":"31.408035","lng":"130.848429"},{"town":"根木原町","koaza":"","lat":"31.424228","lng":"130.770017"},{"town":"野里町","koaza":"","lat":"31.361232","lng":"130.815897"},{"town":"花岡町","koaza":"","lat":"31.414204","lng":"130.782334"},{"town":"花里町","koaza":"","lat":"31.427325","lng":"130.786042"},{"town":"浜田町","koaza":"","lat":"31.331907","lng":"130.808218"},{"town":"祓川町","koaza":"","lat":"31.424733","lng":"130.849990"},{"town":"東原町","koaza":"","lat":"31.426111","lng":"130.883365"},{"town":"札元一丁目","koaza":"","lat":"31.394576","lng":"130.871732"},{"town":"札元二丁目","koaza":"","lat":"31.402019","lng":"130.871397"},{"town":"船間町","koaza":"","lat":"31.388974","lng":"130.774007"},{"town":"古江町","koaza":"","lat":"31.407372","lng":"130.769151"},{"town":"古里町","koaza":"","lat":"31.394390","lng":"130.778783"},{"town":"本町","koaza":"","lat":"31.386455","lng":"130.854050"},{"town":"南町","koaza":"","lat":"31.316959","lng":"130.862643"},{"town":"向江町","koaza":"","lat":"31.383266","lng":"130.850295"},{"town":"横山町","koaza":"","lat":"31.345427","lng":"130.829220"},{"town":"田淵町","koaza":"","lat":"31.336520","lng":"130.841900"},{"town":"下堀町","koaza":"","lat":"31.351444","lng":"130.846910"},{"town":"名貫町","koaza":"","lat":"31.346747","lng":"130.869127"},{"town":"池園町","koaza":"","lat":"31.334794","lng":"130.864862"},{"town":"星塚町","koaza":"","lat":"31.343237","lng":"130.853260"},{"town":"萩塚町","koaza":"","lat":"31.338118","lng":"130.866844"}]