[{"town":"有明三丁目","koaza":"","lat":35.629417,"lng":139.796671},{"town":"若洲三丁目","koaza":"","lat":35.622388,"lng":139.83617},{"town":"若洲二丁目","koaza":"","lat":35.624033,"lng":139.833357},{"town":"若洲一丁目","koaza":"","lat":35.626769,"lng":139.828714},{"town":"夢の島三丁目","koaza":"","lat":35.651447,"lng":139.833841},{"town":"夢の島二丁目","koaza":"","lat":35.651588,"lng":139.827802},{"town":"夢の島一丁目","koaza":"","lat":35.651132,"lng":139.822368},{"town":"青海四丁目","koaza":"","lat":35.615344,"lng":139.785832},{"town":"青海三丁目","koaza":"","lat":35.608994,"lng":139.784844},{"town":"南砂六丁目","koaza":"","lat":35.671933,"lng":139.83502},{"town":"富岡二丁目","koaza":"","lat":35.671002,"lng":139.801459},{"town":"牡丹三丁目","koaza":"","lat":35.668816,"lng":139.799479},{"town":"南砂二丁目","koaza":"","lat":35.672862,"lng":139.822903},{"town":"南砂七丁目","koaza":"","lat":35.668823,"lng":139.835551},{"town":"東砂七丁目","koaza":"","lat":35.67265,"lng":139.838844},{"town":"東砂六丁目","koaza":"","lat":35.672298,"lng":139.843767},{"town":"南砂三丁目","koaza":"","lat":35.670909,"lng":139.830018},{"town":"東陽四丁目","koaza":"","lat":35.671936,"lng":139.817849},{"town":"木場五丁目","koaza":"","lat":35.670671,"lng":139.807544},{"town":"東陽三丁目","koaza":"","lat":35.669582,"lng":139.812579},{"town":"木場二丁目","koaza":"","lat":35.67058,"lng":139.804051},{"town":"牡丹二丁目","koaza":"","lat":35.670123,"lng":139.796002},{"town":"牡丹一丁目","koaza":"","lat":35.670547,"lng":139.793901},{"town":"富岡一丁目","koaza":"","lat":35.671463,"lng":139.798098},{"town":"越中島一丁目","koaza":"","lat":35.670718,"lng":139.790286},{"town":"古石場一丁目","koaza":"","lat":35.668858,"lng":139.795062},{"town":"新木場二丁目","koaza":"","lat":35.638361,"lng":139.826659},{"town":"有明四丁目","koaza":"","lat":35.620798,"lng":139.792118},{"town":"青海二丁目","koaza":"","lat":35.618849,"lng":139.777172},{"town":"青海一丁目","koaza":"","lat":35.625058,"lng":139.778725},{"town":"有明二丁目","koaza":"","lat":35.636322,"lng":139.789974},{"town":"新木場三丁目","koaza":"","lat":35.635637,"lng":139.835057},{"town":"新木場四丁目","koaza":"","lat":35.640845,"lng":139.838904},{"town":"豊洲六丁目","koaza":"","lat":35.646684,"lng":139.786093},{"town":"辰巳三丁目","koaza":"","lat":35.64359,"lng":139.81579},{"town":"新木場一丁目","koaza":"","lat":35.643729,"lng":139.826503},{"town":"辰巳一丁目","koaza":"","lat":35.648179,"lng":139.809024},{"town":"東雲一丁目","koaza":"","lat":35.648418,"lng":139.801826},{"town":"枝川二丁目","koaza":"","lat":35.657715,"lng":139.807178},{"town":"豊洲五丁目","koaza":"","lat":35.6511,"lng":139.796476},{"town":"東雲二丁目","koaza":"","lat":35.640503,"lng":139.802348},{"town":"有明一丁目","koaza":"","lat":35.640906,"lng":139.789578},{"town":"豊洲二丁目","koaza":"","lat":35.655271,"lng":139.792777},{"town":"新砂三丁目","koaza":"","lat":35.658814,"lng":139.837095},{"town":"東砂八丁目","koaza":"","lat":35.667763,"lng":139.84213},{"town":"辰巳二丁目","koaza":"","lat":35.650034,"lng":139.816497},{"town":"潮見一丁目","koaza":"","lat":35.65574,"lng":139.811361},{"town":"枝川三丁目","koaza":"","lat":35.658999,"lng":139.810602},{"town":"潮見二丁目","koaza":"","lat":35.658076,"lng":139.817748},{"town":"新砂一丁目","koaza":"","lat":35.662142,"lng":139.822203},{"town":"塩浜二丁目","koaza":"","lat":35.662879,"lng":139.811664},{"town":"東陽二丁目","koaza":"","lat":35.66714,"lng":139.816591},{"town":"東陽一丁目","koaza":"","lat":35.666833,"lng":139.81094},{"town":"木場六丁目","koaza":"","lat":35.667252,"lng":139.806803},{"town":"新砂二丁目","koaza":"","lat":35.662567,"lng":139.826169},{"town":"枝川一丁目","koaza":"","lat":35.656617,"lng":139.803432},{"town":"木場一丁目","koaza":"","lat":35.666717,"lng":139.803659},{"town":"古石場二丁目","koaza":"","lat":35.66704,"lng":139.798908},{"town":"古石場三丁目","koaza":"","lat":35.666227,"lng":139.801354},{"town":"塩浜一丁目","koaza":"","lat":35.661278,"lng":139.800011},{"town":"越中島三丁目","koaza":"","lat":35.664328,"lng":139.798384},{"town":"越中島二丁目","koaza":"","lat":35.666465,"lng":139.792464},{"town":"豊洲一丁目","koaza":"","lat":35.661813,"lng":139.792044},{"town":"豊洲四丁目","koaza":"","lat":35.653798,"lng":139.800664},{"town":"豊洲三丁目","koaza":"","lat":35.658936,"lng":139.79692},{"town":"南砂五丁目","koaza":"","lat":35.675323,"lng":139.831974},{"town":"平野一丁目","koaza":"","lat":35.678264,"lng":139.799487},{"town":"永代二丁目","koaza":"","lat":35.673549,"lng":139.791586},{"town":"深川二丁目","koaza":"","lat":35.675651,"lng":139.797915},{"town":"永代一丁目","koaza":"","lat":35.674691,"lng":139.789097},{"town":"東砂五丁目","koaza":"","lat":35.676048,"lng":139.843688},{"town":"東砂四丁目","koaza":"","lat":35.677662,"lng":139.839452},{"town":"南砂四丁目","koaza":"","lat":35.673631,"lng":139.82968},{"town":"北砂七丁目","koaza":"","lat":35.678181,"lng":139.836018},{"town":"北砂四丁目","koaza":"","lat":35.678143,"lng":139.830705},{"town":"北砂六丁目","koaza":"","lat":35.683105,"lng":139.837393},{"town":"海辺","koaza":"","lat":35.681075,"lng":139.818882},{"town":"東陽七丁目","koaza":"","lat":35.675312,"lng":139.818041},{"town":"千石二丁目","koaza":"","lat":35.677999,"lng":139.815824},{"town":"千石三丁目","koaza":"","lat":35.678053,"lng":139.818725},{"town":"南砂一丁目","koaza":"","lat":35.678826,"lng":139.822231},{"town":"千田","koaza":"","lat":35.681155,"lng":139.815615},{"town":"石島","koaza":"","lat":35.681133,"lng":139.812106},{"town":"平野四丁目","koaza":"","lat":35.677817,"lng":139.808738},{"town":"千石一丁目","koaza":"","lat":35.678286,"lng":139.81247},{"town":"三好四丁目","koaza":"","lat":35.68033,"lng":139.808486},{"town":"扇橋二丁目","koaza":"","lat":35.683603,"lng":139.815501},{"town":"平野三丁目","koaza":"","lat":35.677645,"lng":139.805666},{"town":"木場四丁目","koaza":"","lat":35.674272,"lng":139.808492},{"town":"扇橋一丁目","koaza":"","lat":35.683189,"lng":139.811869},{"town":"木場三丁目","koaza":"","lat":35.673999,"lng":139.804936},{"town":"平野二丁目","koaza":"","lat":35.67761,"lng":139.802589},{"town":"三好三丁目","koaza":"","lat":35.680087,"lng":139.805166},{"town":"高橋","koaza":"","lat":35.684902,"lng":139.799545},{"town":"冬木","koaza":"","lat":35.674788,"lng":139.801416},{"town":"東陽五丁目","koaza":"","lat":35.672329,"lng":139.812885},{"town":"東陽六丁目","koaza":"","lat":35.674814,"lng":139.813219},{"town":"門前仲町二丁目","koaza":"","lat":35.672524,"lng":139.795782},{"town":"三好二丁目","koaza":"","lat":35.679983,"lng":139.80239},{"town":"福住二丁目","koaza":"","lat":35.67823,"lng":139.794005},{"town":"深川一丁目","koaza":"","lat":35.676523,"lng":139.795626},{"town":"常盤二丁目","koaza":"","lat":35.684826,"lng":139.797281},{"town":"清澄三丁目","koaza":"","lat":35.680971,"lng":139.79797},{"town":"三好一丁目","koaza":"","lat":35.679836,"lng":139.800106},{"town":"門前仲町一丁目","koaza":"","lat":35.673228,"lng":139.794229},{"town":"福住一丁目","koaza":"","lat":35.675971,"lng":139.793388},{"town":"佐賀一丁目","koaza":"","lat":35.677077,"lng":139.790208},{"town":"佐賀二丁目","koaza":"","lat":35.679283,"lng":139.791541},{"town":"東砂三丁目","koaza":"","lat":35.679897,"lng":139.843954},{"town":"東砂一丁目","koaza":"","lat":35.683395,"lng":139.840181},{"town":"大島五丁目","koaza":"","lat":35.687986,"lng":139.835355},{"town":"東砂二丁目","koaza":"","lat":35.6841,"lng":139.843893},{"town":"大島四丁目","koaza":"","lat":35.687624,"lng":139.829499},{"town":"大島七丁目","koaza":"","lat":35.692334,"lng":139.840606},{"town":"大島三丁目","koaza":"","lat":35.691658,"lng":139.828897},{"town":"亀戸一丁目","koaza":"","lat":35.695595,"lng":139.822688},{"town":"大島二丁目","koaza":"","lat":35.691697,"lng":139.822377},{"town":"毛利二丁目","koaza":"","lat":35.690896,"lng":139.817713},{"town":"北砂一丁目","koaza":"","lat":35.681445,"lng":139.823313},{"town":"森下五丁目","koaza":"","lat":35.685656,"lng":139.807929},{"town":"猿江一丁目","koaza":"","lat":35.685939,"lng":139.811695},{"town":"白河四丁目","koaza":"","lat":35.682886,"lng":139.808205},{"town":"白河一丁目","koaza":"","lat":35.682347,"lng":139.799841},{"town":"森下四丁目","koaza":"","lat":35.686267,"lng":139.804854},{"town":"白河二丁目","koaza":"","lat":35.682553,"lng":139.802297},{"town":"白河三丁目","koaza":"","lat":35.682633,"lng":139.805071},{"town":"森下三丁目","koaza":"","lat":35.686279,"lng":139.801949},{"town":"森下二丁目","koaza":"","lat":35.688004,"lng":139.799196},{"town":"森下一丁目","koaza":"","lat":35.687516,"lng":139.797427},{"town":"常盤一丁目","koaza":"","lat":35.684872,"lng":139.794419},{"town":"清澄一丁目","koaza":"","lat":35.681633,"lng":139.792861},{"town":"清澄二丁目","koaza":"","lat":35.681383,"lng":139.795877},{"town":"新大橋一丁目","koaza":"","lat":35.68845,"lng":139.792593},{"town":"亀戸九丁目","koaza":"","lat":35.698131,"lng":139.842157},{"town":"亀戸四丁目","koaza":"","lat":35.702829,"lng":139.829153},{"town":"亀戸七丁目","koaza":"","lat":35.696879,"lng":139.836644},{"town":"大島六丁目","koaza":"","lat":35.691935,"lng":139.834633},{"town":"亀戸六丁目","koaza":"","lat":35.695719,"lng":139.829343},{"town":"北砂二丁目","koaza":"","lat":35.681245,"lng":139.826232},{"town":"大島一丁目","koaza":"","lat":35.687179,"lng":139.823428},{"town":"北砂三丁目","koaza":"","lat":35.682435,"lng":139.828917},{"town":"北砂五丁目","koaza":"","lat":35.682879,"lng":139.833083},{"town":"住吉一丁目","koaza":"","lat":35.688767,"lng":139.812698},{"town":"住吉二丁目","koaza":"","lat":35.688971,"lng":139.816873},{"town":"毛利一丁目","koaza":"","lat":35.691507,"lng":139.813446},{"town":"亀戸二丁目","koaza":"","lat":35.69942,"lng":139.822419},{"town":"新大橋二丁目","koaza":"","lat":35.688374,"lng":139.794576},{"town":"新大橋三丁目","koaza":"","lat":35.687895,"lng":139.795945},{"town":"扇橋三丁目","koaza":"","lat":35.683345,"lng":139.81897},{"town":"猿江二丁目","koaza":"","lat":35.686117,"lng":139.817189},{"town":"大島八丁目","koaza":"","lat":35.688353,"lng":139.841542},{"town":"大島九丁目","koaza":"","lat":35.690635,"lng":139.846063},{"town":"亀戸五丁目","koaza":"","lat":35.699212,"lng":139.829033},{"town":"亀戸八丁目","koaza":"","lat":35.700503,"lng":139.834839},{"town":"亀戸三丁目","koaza":"","lat":35.704637,"lng":139.822325},{"town":"青海二丁目地先","koaza":"","lat":35.594021,"lng":139.812206},{"town":"海の森一丁目","koaza":"","lat":null,"lng":null},{"town":"海の森二丁目","koaza":"","lat":null,"lng":null},{"town":"海の森三丁目","koaza":"","lat":null,"lng":null}]