[{"town":"柴又一丁目","koaza":"","lat":"35.755326","lng":"139.871866"},{"town":"細田四丁目","koaza":"","lat":"35.743153","lng":"139.872295"},{"town":"柴又四丁目","koaza":"","lat":"35.753565","lng":"139.875244"},{"town":"奥戸九丁目","koaza":"","lat":"35.736316","lng":"139.869930"},{"town":"奥戸六丁目","koaza":"","lat":"35.731258","lng":"139.870203"},{"town":"細田一丁目","koaza":"","lat":"35.738463","lng":"139.871829"},{"town":"高砂四丁目","koaza":"","lat":"35.747793","lng":"139.872473"},{"town":"高砂五丁目","koaza":"","lat":"35.751786","lng":"139.868698"},{"town":"柴又五丁目","koaza":"","lat":"35.752320","lng":"139.883492"},{"town":"柴又六丁目","koaza":"","lat":"35.755729","lng":"139.881178"},{"town":"柴又三丁目","koaza":"","lat":"35.760223","lng":"139.872372"},{"town":"金町二丁目","koaza":"","lat":"35.764145","lng":"139.870315"},{"town":"水元公園","koaza":"","lat":"35.788549","lng":"139.869416"},{"town":"東金町三丁目","koaza":"","lat":"35.772455","lng":"139.873570"},{"town":"東金町一丁目","koaza":"","lat":"35.770763","lng":"139.869077"},{"town":"小菅一丁目","koaza":"","lat":"35.754231","lng":"139.817107"},{"town":"青戸六丁目","koaza":"","lat":"35.750206","lng":"139.858226"},{"town":"青戸四丁目","koaza":"","lat":"35.750419","lng":"139.850461"},{"town":"東堀切三丁目","koaza":"","lat":"35.754662","lng":"139.837253"},{"town":"東金町二丁目","koaza":"","lat":"35.773381","lng":"139.867904"},{"town":"東水元二丁目","koaza":"","lat":"35.779838","lng":"139.870653"},{"town":"白鳥四丁目","koaza":"","lat":"35.752888","lng":"139.848292"},{"town":"お花茶屋三丁目","koaza":"","lat":"35.754478","lng":"139.841775"},{"town":"金町六丁目","koaza":"","lat":"35.768392","lng":"139.872398"},{"town":"高砂六丁目","koaza":"","lat":"35.753571","lng":"139.860788"},{"town":"青戸七丁目","koaza":"","lat":"35.755176","lng":"139.855608"},{"town":"白鳥三丁目","koaza":"","lat":"35.753358","lng":"139.844415"},{"town":"東堀切二丁目","koaza":"","lat":"35.752216","lng":"139.835916"},{"town":"堀切六丁目","koaza":"","lat":"35.752254","lng":"139.830391"},{"town":"小菅二丁目","koaza":"","lat":"35.751779","lng":"139.824296"},{"town":"小菅三丁目","koaza":"","lat":"35.754285","lng":"139.823994"},{"town":"金町三丁目","koaza":"","lat":"35.766807","lng":"139.875451"},{"town":"高砂七丁目","koaza":"","lat":"35.754486","lng":"139.864309"},{"town":"高砂八丁目","koaza":"","lat":"35.754601","lng":"139.868069"},{"town":"細田五丁目","koaza":"","lat":"35.739090","lng":"139.875227"},{"town":"鎌倉一丁目","koaza":"","lat":"35.742729","lng":"139.878158"},{"town":"鎌倉四丁目","koaza":"","lat":"35.746657","lng":"139.882303"},{"town":"鎌倉二丁目","koaza":"","lat":"35.746065","lng":"139.876164"},{"town":"鎌倉三丁目","koaza":"","lat":"35.747857","lng":"139.877628"},{"town":"東新小岩三丁目","koaza":"","lat":"35.722981","lng":"139.860992"},{"town":"東新小岩四丁目","koaza":"","lat":"35.725835","lng":"139.863005"},{"town":"四つ木二丁目","koaza":"","lat":"35.736744","lng":"139.837762"},{"town":"新小岩一丁目","koaza":"","lat":"35.714252","lng":"139.854932"},{"town":"西新小岩二丁目","koaza":"","lat":"35.717189","lng":"139.851141"},{"town":"新小岩三丁目","koaza":"","lat":"35.715116","lng":"139.866016"},{"town":"新小岩二丁目","koaza":"","lat":"35.715976","lng":"139.862179"},{"town":"東新小岩一丁目","koaza":"","lat":"35.720610","lng":"139.861353"},{"town":"新小岩四丁目","koaza":"","lat":"35.721574","lng":"139.866331"},{"town":"西新小岩一丁目","koaza":"","lat":"35.715641","lng":"139.853795"},{"town":"東四つ木一丁目","koaza":"","lat":"35.725927","lng":"139.839893"},{"town":"西新小岩四丁目","koaza":"","lat":"35.720530","lng":"139.852763"},{"town":"西新小岩三丁目","koaza":"","lat":"35.720481","lng":"139.847128"},{"town":"東新小岩五丁目","koaza":"","lat":"35.721609","lng":"139.856235"},{"town":"東新小岩二丁目","koaza":"","lat":"35.725094","lng":"139.867598"},{"town":"奥戸五丁目","koaza":"","lat":"35.732170","lng":"139.865921"},{"town":"東新小岩七丁目","koaza":"","lat":"35.724929","lng":"139.854294"},{"town":"西新小岩五丁目","koaza":"","lat":"35.725416","lng":"139.846836"},{"town":"東四つ木三丁目","koaza":"","lat":"35.729164","lng":"139.837075"},{"town":"東新小岩六丁目","koaza":"","lat":"35.726410","lng":"139.858922"},{"town":"東新小岩八丁目","koaza":"","lat":"35.727192","lng":"139.853289"},{"town":"奥戸七丁目","koaza":"","lat":"35.737018","lng":"139.862360"},{"town":"立石七丁目","koaza":"","lat":"35.740423","lng":"139.850412"},{"town":"東立石四丁目","koaza":"","lat":"35.733744","lng":"139.852052"},{"town":"奥戸一丁目","koaza":"","lat":"35.730969","lng":"139.857311"},{"town":"奥戸三丁目","koaza":"","lat":"35.731765","lng":"139.861664"},{"town":"奥戸四丁目","koaza":"","lat":"35.728258","lng":"139.865868"},{"town":"立石四丁目","koaza":"","lat":"35.740094","lng":"139.847259"},{"town":"奥戸二丁目","koaza":"","lat":"35.734848","lng":"139.857812"},{"town":"四つ木一丁目","koaza":"","lat":"35.732958","lng":"139.833459"},{"town":"東四つ木二丁目","koaza":"","lat":"35.729732","lng":"139.844405"},{"town":"東立石三丁目","koaza":"","lat":"35.735370","lng":"139.844999"},{"town":"東立石一丁目","koaza":"","lat":"35.730983","lng":"139.848195"},{"town":"立石一丁目","koaza":"","lat":"35.737208","lng":"139.846839"},{"town":"立石三丁目","koaza":"","lat":"35.739613","lng":"139.844151"},{"town":"四つ木四丁目","koaza":"","lat":"35.738241","lng":"139.834751"},{"town":"四つ木三丁目","koaza":"","lat":"35.735706","lng":"139.830579"},{"town":"東四つ木四丁目","koaza":"","lat":"35.733497","lng":"139.840198"},{"town":"東立石二丁目","koaza":"","lat":"35.733363","lng":"139.846833"},{"town":"青戸二丁目","koaza":"","lat":"35.746719","lng":"139.859280"},{"town":"高砂三丁目","koaza":"","lat":"35.748119","lng":"139.868939"},{"town":"高砂二丁目","koaza":"","lat":"35.747889","lng":"139.865177"},{"town":"細田二丁目","koaza":"","lat":"35.740508","lng":"139.865173"},{"town":"細田三丁目","koaza":"","lat":"35.742496","lng":"139.867607"},{"town":"奥戸八丁目","koaza":"","lat":"35.737307","lng":"139.866340"},{"town":"立石八丁目","koaza":"","lat":"35.739590","lng":"139.855887"},{"town":"立石二丁目","koaza":"","lat":"35.738666","lng":"139.840327"},{"town":"青戸一丁目","koaza":"","lat":"35.743247","lng":"139.856040"},{"town":"高砂一丁目","koaza":"","lat":"35.743501","lng":"139.861109"},{"town":"立石六丁目","koaza":"","lat":"35.744073","lng":"139.851199"},{"town":"青戸五丁目","koaza":"","lat":"35.749436","lng":"139.854304"},{"town":"青戸三丁目","koaza":"","lat":"35.746276","lng":"139.852136"},{"town":"宝町一丁目","koaza":"","lat":"35.741857","lng":"139.836518"},{"town":"白鳥二丁目","koaza":"","lat":"35.748647","lng":"139.844696"},{"town":"四つ木五丁目","koaza":"","lat":"35.742017","lng":"139.840078"},{"town":"立石五丁目","koaza":"","lat":"35.743997","lng":"139.845409"},{"town":"白鳥一丁目","koaza":"","lat":"35.745795","lng":"139.842664"},{"town":"お花茶屋一丁目","koaza":"","lat":"35.748900","lng":"139.839137"},{"town":"お花茶屋二丁目","koaza":"","lat":"35.751455","lng":"139.840245"},{"town":"堀切五丁目","koaza":"","lat":"35.749398","lng":"139.830124"},{"town":"宝町二丁目","koaza":"","lat":"35.745974","lng":"139.836842"},{"town":"東堀切一丁目","koaza":"","lat":"35.749255","lng":"139.834710"},{"town":"堀切二丁目","koaza":"","lat":"35.742950","lng":"139.825995"},{"town":"堀切一丁目","koaza":"","lat":"35.739525","lng":"139.827353"},{"town":"堀切三丁目","koaza":"","lat":"35.745146","lng":"139.832610"},{"town":"堀切四丁目","koaza":"","lat":"35.747278","lng":"139.822722"},{"town":"東金町七丁目","koaza":"","lat":"35.776462","lng":"139.884729"},{"town":"東金町六丁目","koaza":"","lat":"35.772059","lng":"139.878852"},{"town":"柴又七丁目","koaza":"","lat":"35.759287","lng":"139.879658"},{"town":"金町浄水場","koaza":"","lat":"35.762653","lng":"139.877996"},{"town":"東金町四丁目","koaza":"","lat":"35.774498","lng":"139.875490"},{"town":"東金町五丁目","koaza":"","lat":"35.778745","lng":"139.878248"},{"town":"東金町八丁目","koaza":"","lat":"35.780215","lng":"139.888478"},{"town":"南水元三丁目","koaza":"","lat":"35.775004","lng":"139.864156"},{"town":"柴又二丁目","koaza":"","lat":"35.758391","lng":"139.869244"},{"town":"青戸八丁目","koaza":"","lat":"35.756936","lng":"139.851930"},{"town":"西亀有二丁目","koaza":"","lat":"35.761217","lng":"139.833733"},{"town":"西亀有一丁目","koaza":"","lat":"35.757894","lng":"139.839730"},{"town":"堀切七丁目","koaza":"","lat":"35.755142","lng":"139.831128"},{"town":"金町一丁目","koaza":"","lat":"35.762590","lng":"139.866168"},{"town":"金町五丁目","koaza":"","lat":"35.766586","lng":"139.868200"},{"town":"新宿三丁目","koaza":"","lat":"35.759725","lng":"139.863964"},{"town":"新宿四丁目","koaza":"","lat":"35.763125","lng":"139.861384"},{"town":"新宿一丁目","koaza":"","lat":"35.758190","lng":"139.859419"},{"town":"金町四丁目","koaza":"","lat":"35.765864","lng":"139.864299"},{"town":"新宿二丁目","koaza":"","lat":"35.762133","lng":"139.856806"},{"town":"新宿五丁目","koaza":"","lat":"35.765699","lng":"139.860171"},{"town":"新宿六丁目","koaza":"","lat":"35.771838","lng":"139.861148"},{"town":"南水元一丁目","koaza":"","lat":"35.775069","lng":"139.858032"},{"town":"亀有一丁目","koaza":"","lat":"35.758422","lng":"139.846323"},{"town":"亀有四丁目","koaza":"","lat":"35.761531","lng":"139.844073"},{"town":"西亀有三丁目","koaza":"","lat":"35.761562","lng":"139.839342"},{"town":"亀有二丁目","koaza":"","lat":"35.759915","lng":"139.849936"},{"town":"亀有三丁目","koaza":"","lat":"35.765188","lng":"139.850309"},{"town":"西亀有四丁目","koaza":"","lat":"35.765137","lng":"139.840946"},{"town":"亀有五丁目","koaza":"","lat":"35.767640","lng":"139.847139"},{"town":"小菅四丁目","koaza":"","lat":"35.758888","lng":"139.824712"},{"town":"堀切八丁目","koaza":"","lat":"35.757426","lng":"139.832027"},{"town":"東水元三丁目","koaza":"","lat":"35.784086","lng":"139.867030"},{"town":"東水元四丁目","koaza":"","lat":"35.788285","lng":"139.866406"},{"town":"水元三丁目","koaza":"","lat":"35.782495","lng":"139.863222"},{"town":"南水元四丁目","koaza":"","lat":"35.778570","lng":"139.863479"},{"town":"東水元一丁目","koaza":"","lat":"35.777122","lng":"139.868832"},{"town":"東水元五丁目","koaza":"","lat":"35.791762","lng":"139.865104"},{"town":"東水元六丁目","koaza":"","lat":"35.792454","lng":"139.861140"},{"town":"水元二丁目","koaza":"","lat":"35.785637","lng":"139.857117"},{"town":"西水元六丁目","koaza":"","lat":"35.789795","lng":"139.855981"},{"town":"南水元二丁目","koaza":"","lat":"35.777659","lng":"139.856057"},{"town":"水元四丁目","koaza":"","lat":"35.786591","lng":"139.862399"},{"town":"水元五丁目","koaza":"","lat":"35.790214","lng":"139.860256"},{"town":"西水元五丁目","koaza":"","lat":"35.786321","lng":"139.854239"},{"town":"西水元二丁目","koaza":"","lat":"35.785738","lng":"139.849615"},{"town":"西水元一丁目","koaza":"","lat":"35.781540","lng":"139.850646"},{"town":"水元一丁目","koaza":"","lat":"35.781891","lng":"139.856849"},{"town":"西水元三丁目","koaza":"","lat":"35.789719","lng":"139.848574"},{"town":"西水元四丁目","koaza":"","lat":"35.794152","lng":"139.847194"}]