[{"town":"大字小倉","koaza":"","lat":"33.431939","lng":"130.535269"},{"town":"大字園部","koaza":"","lat":"33.423012","lng":"130.493722"},{"town":"大字長野","koaza":"","lat":"33.404935","lng":"130.535199"},{"town":"大字宮浦","koaza":"","lat":"33.431214","lng":"130.507915"},{"town":"けやき台一丁目","koaza":"","lat":"33.432648","lng":"130.531327"},{"town":"けやき台二丁目","koaza":"","lat":"33.432238","lng":"130.528147"},{"town":"けやき台三丁目","koaza":"","lat":"33.437216","lng":"130.531388"},{"town":"けやき台四丁目","koaza":"","lat":"33.436419","lng":"130.527485"},{"town":"大字宮浦","koaza":"宿","lat":"33.421719","lng":"130.530532"},{"town":"大字長野","koaza":"上川原","lat":"33.4142","lng":"130.531562"}]