[{"town":"伊万里町乙","koaza":"","lat":"33.275762","lng":"129.876992"},{"town":"伊万里町甲","koaza":"","lat":"33.274097","lng":"129.877106"},{"town":"大川内町乙","koaza":"","lat":"33.241106","lng":"129.895304"},{"town":"大川内町甲","koaza":"","lat":"33.244407","lng":"129.911871"},{"town":"大川内町丙","koaza":"","lat":"33.240582","lng":"129.881915"},{"town":"大川町大川野","koaza":"","lat":"33.292953","lng":"129.978280"},{"town":"大川町川西","koaza":"","lat":"33.304434","lng":"129.958930"},{"town":"大川町川原","koaza":"","lat":"33.283659","lng":"129.972810"},{"town":"大川町駒鳴","koaza":"","lat":"33.324968","lng":"129.968575"},{"town":"大川町立川","koaza":"","lat":"33.310437","lng":"129.991806"},{"town":"大川町東田代","koaza":"","lat":"33.286382","lng":"130.005597"},{"town":"大川町山口","koaza":"","lat":"33.298135","lng":"129.992286"},{"town":"大坪町乙","koaza":"","lat":"33.275618","lng":"129.904870"},{"town":"大坪町甲","koaza":"","lat":"33.291599","lng":"129.899944"},{"town":"大坪町丙","koaza":"","lat":"33.262307","lng":"129.906319"},{"town":"木須町","koaza":"","lat":"33.297991","lng":"129.867104"},{"town":"黒川町大黒川","koaza":"","lat":"33.334362","lng":"129.868977"},{"town":"黒川町黒塩","koaza":"","lat":"33.318032","lng":"129.850743"},{"town":"黒川町小黒川","koaza":"","lat":"33.324302","lng":"129.860801"},{"town":"黒川町塩屋","koaza":"","lat":"33.334541","lng":"129.844149"},{"town":"黒川町清水","koaza":"","lat":"33.321692","lng":"129.883004"},{"town":"黒川町立目","koaza":"","lat":"33.321695","lng":"129.890032"},{"town":"黒川町椿原","koaza":"","lat":"33.317658","lng":"129.870535"},{"town":"黒川町長尾","koaza":"","lat":"33.336475","lng":"129.908364"},{"town":"黒川町畑川内","koaza":"","lat":"33.333596","lng":"129.892465"},{"town":"黒川町花房","koaza":"","lat":"33.332079","lng":"129.902872"},{"town":"黒川町福田","koaza":"","lat":"33.346225","lng":"129.850543"},{"town":"黒川町真手野","koaza":"","lat":"33.340871","lng":"129.913124"},{"town":"黒川町牟田","koaza":"","lat":"33.310021","lng":"129.901927"},{"town":"黒川町横野","koaza":"","lat":"33.314292","lng":"129.886841"},{"town":"新天町","koaza":"","lat":"33.269858","lng":"129.874621"},{"town":"瀬戸町","koaza":"","lat":"33.308940","lng":"129.844787"},{"town":"立花町","koaza":"","lat":"33.261199","lng":"129.881801"},{"town":"二里町大里乙","koaza":"","lat":"33.260948","lng":"129.845581"},{"town":"二里町大里甲","koaza":"","lat":"33.260896","lng":"129.865064"},{"town":"二里町中里乙","koaza":"","lat":"33.246617","lng":"129.861575"},{"town":"二里町中里甲","koaza":"","lat":"33.244630","lng":"129.831896"},{"town":"二里町八谷搦","koaza":"","lat":"33.276356","lng":"129.864605"},{"town":"蓮池町","koaza":"","lat":"33.272686","lng":"129.874195"},{"town":"波多津町板木","koaza":"","lat":"33.375614","lng":"129.912281"},{"town":"波多津町井野尾","koaza":"","lat":"33.377832","lng":"129.895748"},{"town":"波多津町内野","koaza":"","lat":"33.353102","lng":"129.875673"},{"town":"波多津町木場","koaza":"","lat":"33.398830","lng":"129.897825"},{"town":"波多津町煤屋","koaza":"","lat":"33.355325","lng":"129.859829"},{"town":"波多津町田代","koaza":"","lat":"33.381262","lng":"129.907478"},{"town":"波多津町辻","koaza":"","lat":"33.379727","lng":"129.874262"},{"town":"波多津町筒井","koaza":"","lat":"33.385079","lng":"129.893558"},{"town":"波多津町津留","koaza":"","lat":"33.364996","lng":"129.914405"},{"town":"波多津町中山","koaza":"","lat":"33.356804","lng":"129.901981"},{"town":"波多津町主屋","koaza":"","lat":"33.361861","lng":"129.908460"},{"town":"波多津町畑津","koaza":"","lat":"33.361799","lng":"129.887204"},{"town":"波多津町馬蛤潟","koaza":"","lat":"33.365253","lng":"129.860815"},{"town":"東山代町浦川内","koaza":"","lat":"33.277264","lng":"129.834497"},{"town":"東山代町大久保","koaza":"","lat":"33.269937","lng":"129.822801"},{"town":"東山代町川内野","koaza":"","lat":"33.293656","lng":"129.777719"},{"town":"東山代町里","koaza":"","lat":"33.286172","lng":"129.831157"},{"town":"東山代町滝川内","koaza":"","lat":"33.266353","lng":"129.798851"},{"town":"東山代町天神","koaza":"","lat":"33.279099","lng":"129.842041"},{"town":"東山代町長浜","koaza":"","lat":"33.278812","lng":"129.848510"},{"town":"東山代町日尾","koaza":"","lat":"33.280175","lng":"129.852788"},{"town":"東山代町東大久保","koaza":"","lat":"33.277904","lng":"129.830526"},{"town":"東山代町脇野","koaza":"","lat":"33.271400","lng":"129.836811"},{"town":"松浦町提川","koaza":"","lat":"33.281586","lng":"129.951193"},{"town":"松浦町中野原","koaza":"","lat":"33.251616","lng":"129.933828"},{"town":"松浦町桃川","koaza":"","lat":"33.268475","lng":"129.959030"},{"town":"松浦町山形","koaza":"","lat":"33.272470","lng":"129.931485"},{"town":"松島町","koaza":"","lat":"33.280119","lng":"129.875311"},{"town":"南波多町井手野","koaza":"","lat":"33.316689","lng":"129.923783"},{"town":"南波多町大川原","koaza":"","lat":"33.310167","lng":"129.939201"},{"town":"南波多町大曲","koaza":"","lat":"33.333789","lng":"129.932471"},{"town":"南波多町笠椎","koaza":"","lat":"33.294875","lng":"129.935610"},{"town":"南波多町小麦原","koaza":"","lat":"33.306482","lng":"129.928119"},{"town":"南波多町重橋","koaza":"","lat":"33.350645","lng":"129.918600"},{"town":"南波多町高瀬","koaza":"","lat":"33.325543","lng":"129.932765"},{"town":"南波多町谷口","koaza":"","lat":"33.345319","lng":"129.923564"},{"town":"南波多町水留","koaza":"","lat":"33.340171","lng":"129.937073"},{"town":"南波多町原屋敷","koaza":"","lat":"33.316236","lng":"129.906939"},{"town":"南波多町府招","koaza":"","lat":"33.293337","lng":"129.914970"},{"town":"南波多町古川","koaza":"","lat":"33.296182","lng":"129.952260"},{"town":"南波多町古里","koaza":"","lat":"33.339871","lng":"129.922473"},{"town":"山代町楠久","koaza":"","lat":"33.292912","lng":"129.823895"},{"town":"山代町楠久津","koaza":"","lat":"33.294527","lng":"129.828029"},{"town":"山代町久原","koaza":"","lat":"33.314745","lng":"129.804820"},{"town":"山代町城","koaza":"","lat":"33.287956","lng":"129.805791"},{"town":"山代町立岩","koaza":"","lat":"33.328916","lng":"129.793825"},{"town":"山代町西大久保","koaza":"","lat":"33.317707","lng":"129.774695"},{"town":"山代町西分","koaza":"","lat":"33.323796","lng":"129.779167"},{"town":"山代町東分","koaza":"","lat":"33.311623","lng":"129.781386"},{"town":"山代町福川内","koaza":"","lat":"33.289185","lng":"129.815349"},{"town":"山代町峰","koaza":"","lat":"33.298783","lng":"129.807378"},{"town":"脇田町","koaza":"","lat":"33.295428","lng":"129.884987"},{"town":"立花町","koaza":"通谷","lat":"33.265361","lng":"129.881807"}]