[{"town":"神埼町田道ヶ里","koaza":"","lat":33.312515,"lng":130.380607},{"town":"神埼町西小津ヶ里","koaza":"","lat":33.30198,"lng":130.371105},{"town":"神埼町枝ヶ里","koaza":"","lat":33.307086,"lng":130.37008},{"town":"神埼町姉川","koaza":"","lat":33.290315,"lng":130.347052},{"town":"神埼町的","koaza":"","lat":33.351948,"lng":130.368271},{"town":"神埼町尾崎","koaza":"","lat":33.327617,"lng":130.346456},{"town":"神埼町神埼","koaza":"","lat":33.307245,"lng":130.373727},{"town":"神埼町志波屋","koaza":"","lat":33.354016,"lng":130.376313},{"town":"神埼町城原","koaza":"","lat":33.341104,"lng":130.353702},{"town":"神埼町竹","koaza":"","lat":33.316792,"lng":130.359651},{"town":"神埼町鶴","koaza":"","lat":33.324794,"lng":130.373241},{"town":"神埼町永歌","koaza":"","lat":33.294562,"lng":130.374669},{"town":"神埼町本告牟田","koaza":"","lat":33.29892,"lng":130.36391},{"town":"神埼町本告牟田","koaza":"八本松","lat":33.299836,"lng":130.365254},{"town":"神埼町本堀","koaza":"","lat":33.2986,"lng":130.385237},{"town":"神埼町横武","koaza":"","lat":33.299857,"lng":130.353735},{"town":"脊振町服巻","koaza":"","lat":33.414714,"lng":130.346291},{"town":"脊振町広滝","koaza":"","lat":33.376843,"lng":130.342023},{"town":"脊振町鹿路","koaza":"","lat":33.375556,"lng":130.30427},{"town":"千代田町姉","koaza":"","lat":33.284116,"lng":130.36572},{"town":"千代田町餘江","koaza":"","lat":33.260302,"lng":130.359947},{"town":"千代田町嘉納","koaza":"","lat":33.279655,"lng":130.37711},{"town":"千代田町黒井","koaza":"","lat":33.280245,"lng":130.359102},{"town":"千代田町境原","koaza":"","lat":33.272048,"lng":130.346045},{"town":"千代田町崎村","koaza":"","lat":33.252833,"lng":130.387023},{"town":"千代田町下板","koaza":"","lat":33.282862,"lng":130.389382},{"town":"千代田町下西","koaza":"","lat":33.259217,"lng":130.346558},{"town":"千代田町詫田","koaza":"","lat":33.274262,"lng":130.387659},{"town":"千代田町直鳥","koaza":"","lat":33.270495,"lng":130.370478},{"town":"千代田町迎島","koaza":"","lat":33.256902,"lng":130.409312},{"town":"千代田町柳島","koaza":"","lat":33.27269,"lng":130.402699},{"town":"千代田町用作","koaza":"","lat":33.258602,"lng":130.373625},{"town":"千代田町渡瀬","koaza":"","lat":33.26812,"lng":130.39568}]