[{"town":"間之町","lat":"35.139050","lng":"136.092612"},{"town":"赤尾町","lat":"35.117965","lng":"136.079413"},{"town":"浅小井町","lat":"35.146024","lng":"136.110698"},{"town":"安土町石寺","lat":"35.137733","lng":"136.163642"},{"town":"安土町内野","lat":"35.112786","lng":"136.160838"},{"town":"安土町上出","lat":"35.132408","lng":"136.152406"},{"town":"安土町上豊浦","lat":"35.139342","lng":"136.145875"},{"town":"安土町桑実寺","lat":"35.143758","lng":"136.153854"},{"town":"安土町小中","lat":"35.136717","lng":"136.136818"},{"town":"安土町香庄","lat":"35.141753","lng":"136.123241"},{"town":"安土町慈恩寺","lat":"35.136108","lng":"136.129500"},{"town":"安土町下豊浦","lat":"35.154993","lng":"136.135010"},{"town":"安土町常楽寺","lat":"35.150690","lng":"136.120146"},{"town":"安土町大中","lat":"35.175415","lng":"136.120685"},{"town":"安土町中屋","lat":"35.130424","lng":"136.135274"},{"town":"安土町西老蘇","lat":"35.123283","lng":"136.153979"},{"town":"安土町東老蘇","lat":"35.125455","lng":"136.169773"},{"town":"安土町宮津","lat":"35.142521","lng":"136.149550"},{"town":"安養寺町","lat":"35.098435","lng":"136.081043"},{"town":"生須町","lat":"35.142579","lng":"136.093818"},{"town":"池田本町","lat":"35.104959","lng":"136.083468"},{"town":"池田町一丁目","lat":"35.138910","lng":"136.085112"},{"town":"池田町二丁目","lat":"35.137985","lng":"136.085863"},{"town":"池田町三丁目","lat":"35.137017","lng":"136.086672"},{"town":"池田町四丁目","lat":"35.136054","lng":"136.087428"},{"town":"池田町五丁目","lat":"35.134887","lng":"136.088371"},{"town":"為心町上","lat":"35.136984","lng":"136.092498"},{"town":"為心町中","lat":"35.138128","lng":"136.091514"},{"town":"為心町元","lat":"35.139068","lng":"136.090813"},{"town":"板屋町","lat":"35.133759","lng":"136.087482"},{"town":"市井町","lat":"35.138314","lng":"136.099075"},{"town":"上田町","lat":"35.113478","lng":"136.113587"},{"town":"上野町","lat":"35.100780","lng":"136.072183"},{"town":"上畑町","lat":"35.090946","lng":"136.114795"},{"town":"宇津呂町","lat":"35.135245","lng":"136.092645"},{"town":"魚屋町上","lat":"35.136619","lng":"136.091636"},{"town":"魚屋町中","lat":"35.137784","lng":"136.090738"},{"town":"魚屋町元","lat":"35.138687","lng":"136.090113"},{"town":"江頭町","lat":"35.115491","lng":"136.055910"},{"town":"江南町","lat":"35.140093","lng":"136.093389"},{"town":"大杉町","lat":"35.139762","lng":"136.090708"},{"town":"大房町","lat":"35.132556","lng":"136.073575"},{"town":"大森町","lat":"35.111594","lng":"136.088853"},{"town":"沖島町","lat":"35.184077","lng":"136.079470"},{"town":"長田町","lat":"35.132180","lng":"136.121987"},{"town":"小田町","lat":"35.117799","lng":"136.043435"},{"town":"音羽町","lat":"35.134985","lng":"136.103266"},{"town":"小幡町上","lat":"35.135792","lng":"136.089966"},{"town":"小幡町中","lat":"35.136942","lng":"136.089067"},{"town":"鍵之手町","lat":"35.138384","lng":"136.096573"},{"town":"鍛治屋町","lat":"35.140481","lng":"136.094062"},{"town":"加茂町","lat":"35.124706","lng":"136.066933"},{"town":"川原町一丁目","lat":"35.104365","lng":"136.078372"},{"town":"川原町二丁目","lat":"35.104982","lng":"136.079505"},{"town":"北末町","lat":"35.134673","lng":"136.087419"},{"town":"北津田町","lat":"35.166041","lng":"136.080752"},{"town":"北之庄町","lat":"35.149416","lng":"136.094877"},{"town":"北元町","lat":"35.136003","lng":"136.086361"},{"town":"倉橋部町","lat":"35.093151","lng":"136.123475"},{"town":"御所内町","lat":"35.123528","lng":"136.128808"},{"town":"小船木町","lat":"35.129698","lng":"136.079516"},{"town":"金剛寺町","lat":"35.124866","lng":"136.117268"},{"town":"佐久間町","lat":"35.138559","lng":"136.084309"},{"town":"桜宮町","lat":"35.129809","lng":"136.095428"},{"town":"佐波江町","lat":"35.143129","lng":"136.022375"},{"town":"慈恩寺町上","lat":"35.138070","lng":"136.095859"},{"town":"慈恩寺町中","lat":"35.138731","lng":"136.095388"},{"town":"慈恩寺町元","lat":"35.139516","lng":"136.094847"},{"town":"篠原町一丁目","lat":"35.099155","lng":"136.075778"},{"town":"篠原町二丁目","lat":"35.099970","lng":"136.076767"},{"town":"篠原町三丁目","lat":"35.100543","lng":"136.077721"},{"town":"島町","lat":"35.174380","lng":"136.082058"},{"town":"十王町","lat":"35.109968","lng":"136.052590"},{"town":"正神町","lat":"35.137899","lng":"136.088326"},{"town":"浄土寺町","lat":"35.087512","lng":"136.132284"},{"town":"白王町","lat":"35.184578","lng":"136.093312"},{"town":"白鳥町","lat":"35.121297","lng":"136.096603"},{"town":"新左衛門町","lat":"35.141083","lng":"136.093626"},{"town":"新栄町","lat":"35.133980","lng":"136.085736"},{"town":"新巻町","lat":"35.079032","lng":"136.138444"},{"town":"新町一丁目","lat":"35.139455","lng":"136.088215"},{"town":"新町二丁目","lat":"35.138367","lng":"136.089105"},{"town":"新町三丁目","lat":"35.137380","lng":"136.089901"},{"town":"新町四丁目","lat":"35.136245","lng":"136.090779"},{"town":"水茎町","lat":"35.131558","lng":"136.040765"},{"town":"末広町","lat":"35.111301","lng":"136.150462"},{"town":"杉森町","lat":"35.127747","lng":"136.121425"},{"town":"仲屋町上","lat":"35.137375","lng":"136.093333"},{"town":"仲屋町中","lat":"35.138502","lng":"136.092356"},{"town":"仲屋町元","lat":"35.139390","lng":"136.091761"},{"town":"千僧供町","lat":"35.106145","lng":"136.115294"},{"town":"大工町","lat":"35.141351","lng":"136.092765"},{"town":"大中町","lat":"35.182471","lng":"136.107777"},{"town":"鷹飼町","lat":"35.118141","lng":"136.105084"},{"town":"鷹飼町北一丁目","lat":"35.128569","lng":"136.107759"},{"town":"鷹飼町北二丁目","lat":"35.126652","lng":"136.105700"},{"town":"鷹飼町北三丁目","lat":"35.130563","lng":"136.105366"},{"town":"鷹飼町北四丁目","lat":"35.127605","lng":"136.103539"},{"town":"鷹飼町東一丁目","lat":"35.125531","lng":"136.108471"},{"town":"鷹飼町東二丁目","lat":"35.124742","lng":"136.105829"},{"town":"鷹飼町南一丁目","lat":"35.120084","lng":"136.107201"},{"town":"鷹飼町南三丁目","lat":"35.121863","lng":"136.103323"},{"town":"鷹飼町南四丁目","lat":"35.120487","lng":"136.101135"},{"town":"多賀町","lat":"35.142291","lng":"136.098309"},{"town":"竹町","lat":"35.101535","lng":"136.092780"},{"town":"田中江町","lat":"35.119577","lng":"136.059386"},{"town":"玉木町一丁目","lat":"35.139718","lng":"136.086838"},{"town":"玉木町二丁目","lat":"35.138852","lng":"136.087514"},{"town":"玉屋町","lat":"35.140307","lng":"136.092470"},{"town":"長光寺町","lat":"35.109684","lng":"136.132600"},{"town":"長福寺町","lat":"35.107717","lng":"136.125043"},{"town":"長命寺町","lat":"35.163799","lng":"136.062270"},{"town":"津田町","lat":"35.155642","lng":"136.072785"},{"town":"土田町","lat":"35.126925","lng":"136.088486"},{"town":"鉄炮町","lat":"35.142854","lng":"136.093101"},{"town":"出町","lat":"35.131825","lng":"136.099380"},{"town":"友定町","lat":"35.119224","lng":"136.131294"},{"town":"中小森町","lat":"35.113821","lng":"136.084745"},{"town":"中之庄町","lat":"35.164445","lng":"136.072337"},{"town":"永原町上","lat":"35.137723","lng":"136.094097"},{"town":"永原町中","lat":"35.138814","lng":"136.093465"},{"town":"永原町元","lat":"35.139756","lng":"136.092532"},{"town":"中村町","lat":"35.128215","lng":"136.093711"},{"town":"縄手町末","lat":"35.135492","lng":"136.099449"},{"town":"縄手町中","lat":"35.136555","lng":"136.098678"},{"town":"縄手町元","lat":"35.137798","lng":"136.097668"},{"town":"西宿町","lat":"35.115373","lng":"136.125343"},{"town":"西末町","lat":"35.134079","lng":"136.086831"},{"town":"西畳屋町","lat":"35.139423","lng":"136.093391"},{"town":"西庄町","lat":"35.137213","lng":"136.111231"},{"town":"西本郷町","lat":"35.121883","lng":"136.112002"},{"town":"西本郷町西","lat":"35.122311","lng":"136.107767"},{"town":"西本郷町東","lat":"35.123827","lng":"136.110050"},{"town":"西元町","lat":"35.135542","lng":"136.085214"},{"town":"西生来町","lat":"35.120125","lng":"136.144877"},{"town":"野田町","lat":"35.120404","lng":"136.121670"},{"town":"野村町","lat":"35.128643","lng":"136.033776"},{"town":"博労町上","lat":"35.137537","lng":"136.095115"},{"town":"博労町中","lat":"35.138325","lng":"136.094772"},{"town":"博労町元","lat":"35.139162","lng":"136.094144"},{"town":"八幡町","lat":"35.136015","lng":"136.096666"},{"town":"東川町","lat":"35.094976","lng":"136.107011"},{"town":"東畳屋町","lat":"35.139796","lng":"136.094070"},{"town":"東町","lat":"35.106887","lng":"136.089825"},{"town":"東横関町","lat":"35.101048","lng":"136.100811"},{"town":"日杉町","lat":"35.138884","lng":"136.082348"},{"town":"日吉野町","lat":"35.115343","lng":"136.098087"},{"town":"船木町","lat":"35.136785","lng":"136.078114"},{"town":"船町","lat":"35.143605","lng":"136.093760"},{"town":"古川町","lat":"35.107109","lng":"136.070667"},{"town":"堀上町","lat":"35.119969","lng":"136.092557"},{"town":"本町一丁目","lat":"35.139352","lng":"136.085936"},{"town":"本町二丁目","lat":"35.138420","lng":"136.086689"},{"town":"本町三丁目","lat":"35.137451","lng":"136.087481"},{"town":"本町四丁目","lat":"35.136496","lng":"136.088241"},{"town":"本町五丁目","lat":"35.135475","lng":"136.089144"},{"town":"牧町","lat":"35.136890","lng":"136.054684"},{"town":"孫平治町一丁目","lat":"35.138254","lng":"136.083392"},{"town":"孫平治町二丁目","lat":"35.137012","lng":"136.084342"},{"town":"益田町","lat":"35.115863","lng":"136.071845"},{"town":"馬淵町","lat":"35.104036","lng":"136.108439"},{"town":"丸の内町","lat":"35.111044","lng":"136.057181"},{"town":"円山町","lat":"35.160423","lng":"136.097192"},{"town":"緑町一丁目","lat":"35.105347","lng":"136.076277"},{"town":"緑町二丁目","lat":"35.106895","lng":"136.075165"},{"town":"緑町三丁目","lat":"35.108678","lng":"136.073542"},{"town":"緑町四丁目","lat":"35.108818","lng":"136.072039"},{"town":"南津田町","lat":"35.148697","lng":"136.077285"},{"town":"南本郷町一丁目","lat":"35.118573","lng":"136.110676"},{"town":"南本郷町二丁目","lat":"35.119196","lng":"136.111260"},{"town":"南本郷町三丁目","lat":"35.119640","lng":"136.112035"},{"town":"宮内町","lat":"35.141966","lng":"136.085336"},{"town":"武佐町","lat":"35.114537","lng":"136.141353"},{"town":"元水茎町","lat":"35.129834","lng":"136.052292"},{"town":"元玉屋町","lat":"35.137567","lng":"136.085094"},{"town":"森尻町","lat":"35.113316","lng":"136.077756"},{"town":"八木町","lat":"35.121503","lng":"136.083787"},{"town":"薬師町","lat":"35.141952","lng":"136.092472"},{"town":"柳町一丁目","lat":"35.111719","lng":"136.072401"},{"town":"柳町二丁目","lat":"35.112530","lng":"136.071618"},{"town":"柳町三丁目","lat":"35.113297","lng":"136.070907"},{"town":"若葉町一丁目","lat":"35.120108","lng":"136.113171"},{"town":"若葉町二丁目","lat":"35.119589","lng":"136.115098"},{"town":"若葉町三丁目","lat":"35.119004","lng":"136.114099"},{"town":"若葉町四丁目","lat":"35.118413","lng":"136.113042"},{"town":"若葉町五丁目","lat":"35.118010","lng":"136.111912"},{"town":"若宮町","lat":"35.107184","lng":"136.098374"}]