[{"town":"旭町","lat":"42.465988","lng":"140.867344"},{"town":"網代町","lat":"42.467927","lng":"140.863417"},{"town":"乾町","lat":"42.490579","lng":"140.906285"},{"town":"有珠町","lat":"42.519433","lng":"140.788650"},{"town":"梅本町","lat":"42.472823","lng":"140.871703"},{"town":"大平町","lat":"42.518166","lng":"140.845823"},{"town":"大滝区愛地町","lat":"42.777519","lng":"141.139798"},{"town":"大滝区上野町","lat":"42.639069","lng":"141.099418"},{"town":"大滝区北湯沢温泉町","lat":"42.638204","lng":"140.995440"},{"town":"大滝区清原町","lat":"42.712206","lng":"141.071030"},{"town":"大滝区三階滝町","lat":"42.688044","lng":"141.145040"},{"town":"大滝区昭園町","lat":"42.597316","lng":"141.063937"},{"town":"大滝区清陵町","lat":"42.709826","lng":"141.102664"},{"town":"大滝区大成町","lat":"42.644914","lng":"141.059558"},{"town":"大滝区豊里町","lat":"42.693995","lng":"141.046806"},{"town":"大滝区本郷町","lat":"42.675646","lng":"141.061622"},{"town":"大滝区本町","lat":"42.672534","lng":"141.080818"},{"town":"大滝区円山町","lat":"42.620096","lng":"141.080346"},{"town":"大滝区宮城町","lat":"42.725721","lng":"141.051485"},{"town":"大滝区優徳町","lat":"42.666325","lng":"141.000223"},{"town":"大町","lat":"42.472120","lng":"140.861264"},{"town":"鹿島町","lat":"42.471054","lng":"140.864831"},{"town":"上館山町","lat":"42.511583","lng":"140.872038"},{"town":"上長和町","lat":"42.509300","lng":"140.853504"},{"town":"北有珠町","lat":"42.525300","lng":"140.809131"},{"town":"北黄金町","lat":"42.418434","lng":"140.931730"},{"town":"北稀府町","lat":"42.454280","lng":"140.913705"},{"town":"喜門別町","lat":"42.509684","lng":"140.927734"},{"town":"清住町","lat":"42.471484","lng":"140.898815"},{"town":"志門気町","lat":"42.529905","lng":"140.921068"},{"town":"末永町","lat":"42.482429","lng":"140.871899"},{"town":"竹原町","lat":"42.481050","lng":"140.879895"},{"town":"館山下町","lat":"42.481098","lng":"140.845013"},{"town":"館山町","lat":"42.483375","lng":"140.859544"},{"town":"中稀府町","lat":"42.444116","lng":"140.913060"},{"town":"長和町","lat":"42.488053","lng":"140.830191"},{"town":"錦町","lat":"42.469704","lng":"140.860318"},{"town":"西関内町","lat":"42.507888","lng":"140.878950"},{"town":"西浜町","lat":"42.468780","lng":"140.853241"},{"town":"萩原町","lat":"42.451975","lng":"140.892850"},{"town":"東有珠町","lat":"42.510114","lng":"140.812398"},{"town":"東関内町","lat":"42.502673","lng":"140.900586"},{"town":"東浜町","lat":"42.463944","lng":"140.867307"},{"town":"舟岡町","lat":"42.460295","lng":"140.876357"},{"town":"幌美内町","lat":"42.470522","lng":"140.921925"},{"town":"松ヶ枝町","lat":"42.477111","lng":"140.889472"},{"town":"南有珠町","lat":"42.500855","lng":"140.802887"},{"town":"南黄金町","lat":"42.404371","lng":"140.953942"},{"town":"南稀府町","lat":"42.436340","lng":"140.922307"},{"town":"向有珠町","lat":"42.510916","lng":"140.786731"},{"town":"元町","lat":"42.468702","lng":"140.869681"},{"town":"山下町","lat":"42.474290","lng":"140.853547"},{"town":"弄月町","lat":"42.460720","lng":"140.892498"},{"town":"若生町","lat":"42.502075","lng":"140.827948"}]