[{"town":"字旭台","lat":"43.035741","lng":"141.820240"},{"town":"字阿野呂","lat":"43.014136","lng":"141.823377"},{"town":"字雨煙別","lat":"43.100049","lng":"141.856849"},{"town":"字大井分","lat":"43.021390","lng":"141.839389"},{"town":"字北学田","lat":"43.062182","lng":"141.824421"},{"town":"字杵臼","lat":"43.043069","lng":"141.832554"},{"town":"字共和","lat":"43.040043","lng":"141.792340"},{"town":"字桜山","lat":"43.051957","lng":"141.860861"},{"town":"字滝下","lat":"42.931546","lng":"141.955828"},{"town":"字継立","lat":"43.036444","lng":"141.878401"},{"town":"字中里","lat":"43.047661","lng":"141.793967"},{"town":"字鳩山","lat":"43.086625","lng":"141.812915"},{"town":"朝日二丁目","lat":"43.060986","lng":"141.789922"},{"town":"朝日三丁目","lat":"43.057890","lng":"141.792466"},{"town":"朝日四丁目","lat":"43.054700","lng":"141.793736"},{"town":"字日出","lat":"43.061299","lng":"141.898896"},{"town":"字富士","lat":"43.040581","lng":"141.772029"},{"town":"字本沢","lat":"43.086674","lng":"141.880041"},{"town":"字円山","lat":"42.958295","lng":"141.912320"},{"town":"字三日月","lat":"43.026980","lng":"141.787960"},{"town":"字御園","lat":"43.010048","lng":"141.888223"},{"town":"字南角田","lat":"42.980199","lng":"141.883932"},{"town":"字南学田","lat":"43.001990","lng":"141.846767"},{"town":"字森","lat":"43.080113","lng":"141.789763"},{"town":"字湯地","lat":"43.053263","lng":"141.807000"},{"town":"角田","lat":"43.028298","lng":"141.810836"},{"town":"桜丘一丁目","lat":"43.064469","lng":"141.787490"},{"town":"桜丘二丁目","lat":"43.067311","lng":"141.777807"},{"town":"桜丘三丁目","lat":"43.069136","lng":"141.769893"},{"town":"中央一丁目","lat":"43.063141","lng":"141.776628"},{"town":"中央二丁目","lat":"43.059737","lng":"141.779040"},{"town":"中央三丁目","lat":"43.056753","lng":"141.779690"},{"town":"中央四丁目","lat":"43.052892","lng":"141.780553"},{"town":"錦一丁目","lat":"43.065702","lng":"141.769030"},{"town":"錦二丁目","lat":"43.063360","lng":"141.770348"},{"town":"錦三丁目","lat":"43.059293","lng":"141.771466"},{"town":"錦四丁目","lat":"43.054362","lng":"141.772765"},{"town":"松風二丁目","lat":"43.061069","lng":"141.785401"},{"town":"松風三丁目","lat":"43.057463","lng":"141.786012"},{"town":"松風四丁目","lat":"43.053489","lng":"141.786711"}]