[{"town":"字植原","lat":"42.736365","lng":"140.201508"},{"town":"字歌島","lat":"42.784822","lng":"140.156029"},{"town":"字江ノ島","lat":"42.670551","lng":"140.035017"},{"town":"字大平","lat":"42.708843","lng":"140.082905"},{"town":"字小川","lat":"42.729716","lng":"140.125870"},{"town":"字折川","lat":"42.717836","lng":"140.153544"},{"town":"字軽臼岱","lat":"42.717307","lng":"140.098933"},{"town":"字賀老","lat":"42.628947","lng":"140.024972"},{"town":"字栄磯","lat":"42.730177","lng":"140.105460"},{"town":"字栄浜","lat":"42.677555","lng":"139.915168"},{"town":"字千走","lat":"42.667040","lng":"140.010844"},{"town":"字泊","lat":"42.686439","lng":"140.073030"},{"town":"字冨浦","lat":"42.791285","lng":"140.163621"},{"town":"字豊岡","lat":"42.771154","lng":"140.169533"},{"town":"字豊浜","lat":"42.729208","lng":"140.080583"},{"town":"字豊平","lat":"42.676282","lng":"140.060340"},{"town":"字永豊町","lat":"42.701562","lng":"140.077898"},{"town":"字原歌町","lat":"42.683036","lng":"139.981847"},{"town":"字本目","lat":"42.746914","lng":"140.132827"},{"town":"字美川","lat":"42.756954","lng":"140.166337"},{"town":"字港","lat":"42.742573","lng":"140.115895"},{"town":"字持田","lat":"42.641888","lng":"139.855158"},{"town":"字元町","lat":"42.675485","lng":"139.993557"}]