[{"town":"明元町一丁目","lat":"43.945270","lng":"141.637368"},{"town":"明元町二丁目","lat":"43.944601","lng":"141.638695"},{"town":"明元町三丁目","lat":"43.944084","lng":"141.640559"},{"town":"明元町四丁目","lat":"43.943710","lng":"141.642020"},{"town":"明元町五丁目","lat":"43.943249","lng":"141.642890"},{"town":"明元町六丁目","lat":"43.942376","lng":"141.643908"},{"town":"旭町一丁目","lat":"43.936633","lng":"141.646846"},{"town":"旭町二丁目","lat":"43.936069","lng":"141.648194"},{"town":"旭町三丁目","lat":"43.934856","lng":"141.649596"},{"town":"五十嵐町一丁目","lat":"43.937203","lng":"141.662605"},{"town":"五十嵐町二丁目","lat":"43.936265","lng":"141.661489"},{"town":"五十嵐町三丁目","lat":"43.935979","lng":"141.659576"},{"town":"泉町一丁目","lat":"43.932190","lng":"141.649958"},{"town":"泉町二丁目","lat":"43.929825","lng":"141.652515"},{"town":"大字留萌村","lat":"43.861254","lng":"141.706942"},{"town":"大町一丁目","lat":"43.949695","lng":"141.632507"},{"town":"大町二丁目","lat":"43.946641","lng":"141.631837"},{"town":"大町三丁目","lat":"43.944936","lng":"141.634213"},{"town":"大和田一丁目","lat":"43.917666","lng":"141.694304"},{"town":"大和田二丁目","lat":"43.924102","lng":"141.699667"},{"town":"大和田三丁目","lat":"43.915759","lng":"141.698200"},{"town":"沖見町一丁目","lat":"43.930344","lng":"141.631727"},{"town":"沖見町二丁目","lat":"43.933401","lng":"141.637483"},{"town":"沖見町三丁目","lat":"43.930925","lng":"141.636366"},{"town":"沖見町四丁目","lat":"43.927883","lng":"141.635579"},{"town":"沖見町五丁目","lat":"43.930040","lng":"141.641390"},{"town":"沖見町六丁目","lat":"43.925292","lng":"141.641389"},{"town":"開運町一丁目","lat":"43.939818","lng":"141.649514"},{"town":"開運町二丁目","lat":"43.939807","lng":"141.647282"},{"town":"開運町三丁目","lat":"43.938834","lng":"141.646789"},{"town":"春日町一丁目","lat":"43.954078","lng":"141.647452"},{"town":"春日町二丁目","lat":"43.957789","lng":"141.661125"},{"town":"春日町三丁目","lat":"43.955883","lng":"141.658603"},{"town":"寿町一丁目","lat":"43.938212","lng":"141.636726"},{"town":"寿町二丁目","lat":"43.936215","lng":"141.637886"},{"town":"寿町三丁目","lat":"43.935106","lng":"141.637657"},{"town":"幸町一丁目","lat":"43.940540","lng":"141.636579"},{"town":"幸町二丁目","lat":"43.939966","lng":"141.637845"},{"town":"幸町三丁目","lat":"43.939380","lng":"141.638777"},{"town":"幸町四丁目","lat":"43.938865","lng":"141.639565"},{"town":"栄町一丁目","lat":"43.942518","lng":"141.649314"},{"town":"栄町二丁目","lat":"43.941314","lng":"141.649792"},{"town":"栄町三丁目","lat":"43.940175","lng":"141.651310"},{"town":"三泊町","lat":"43.980380","lng":"141.654398"},{"town":"塩見町","lat":"43.962441","lng":"141.653909"},{"town":"東雲町一丁目","lat":"43.935285","lng":"141.670667"},{"town":"東雲町二丁目","lat":"43.929650","lng":"141.676635"},{"town":"東雲町三丁目","lat":"43.923893","lng":"141.684579"},{"town":"末広町一丁目","lat":"43.941502","lng":"141.655839"},{"town":"末広町二丁目","lat":"43.940543","lng":"141.654718"},{"town":"末広町三丁目","lat":"43.939679","lng":"141.654243"},{"town":"末広町四丁目","lat":"43.939067","lng":"141.652526"},{"town":"住之江町一丁目","lat":"43.934799","lng":"141.653329"},{"town":"住之江町二丁目","lat":"43.934248","lng":"141.656007"},{"town":"住之江町三丁目","lat":"43.932611","lng":"141.652622"},{"town":"住之江町四丁目","lat":"43.931814","lng":"141.653993"},{"town":"瀬越町","lat":"43.940053","lng":"141.634593"},{"town":"高砂町一丁目","lat":"43.940019","lng":"141.658987"},{"town":"高砂町二丁目","lat":"43.938746","lng":"141.657869"},{"town":"高砂町三丁目","lat":"43.937757","lng":"141.656755"},{"town":"樽真布町","lat":"43.903254","lng":"141.807504"},{"town":"千鳥町一丁目","lat":"43.933848","lng":"141.662506"},{"town":"千鳥町二丁目","lat":"43.932951","lng":"141.661605"},{"town":"千鳥町三丁目","lat":"43.931626","lng":"141.664603"},{"town":"千鳥町四丁目","lat":"43.930115","lng":"141.658381"},{"town":"潮静一丁目","lat":"43.922656","lng":"141.678616"},{"town":"潮静二丁目","lat":"43.920457","lng":"141.677825"},{"town":"潮静三丁目","lat":"43.920733","lng":"141.682795"},{"town":"潮静四丁目","lat":"43.916552","lng":"141.681494"},{"town":"錦町一丁目","lat":"43.939940","lng":"141.643112"},{"town":"錦町二丁目","lat":"43.938918","lng":"141.643805"},{"town":"錦町三丁目","lat":"43.938211","lng":"141.644824"},{"town":"錦町四丁目","lat":"43.937473","lng":"141.645878"},{"town":"野本町","lat":"43.932586","lng":"141.657591"},{"town":"花園町一丁目","lat":"43.937346","lng":"141.649735"},{"town":"花園町二丁目","lat":"43.937431","lng":"141.651309"},{"town":"花園町三丁目","lat":"43.936800","lng":"141.652719"},{"town":"花園町四丁目","lat":"43.937112","lng":"141.655388"},{"town":"花園町五丁目","lat":"43.936045","lng":"141.657086"},{"town":"浜中町","lat":"43.916960","lng":"141.639673"},{"town":"船場町一丁目","lat":"43.944698","lng":"141.652361"},{"town":"船場町二丁目","lat":"43.944664","lng":"141.648918"},{"town":"平和台一丁目","lat":"43.926335","lng":"141.646077"},{"town":"平和台二丁目","lat":"43.923859","lng":"141.646617"},{"town":"堀川町一丁目","lat":"43.940372","lng":"141.662442"},{"town":"堀川町二丁目","lat":"43.938058","lng":"141.666004"},{"town":"堀川町三丁目","lat":"43.940606","lng":"141.666579"},{"town":"幌糠町","lat":"43.853846","lng":"141.760813"},{"town":"本町一丁目","lat":"43.942216","lng":"141.638908"},{"town":"本町二丁目","lat":"43.941623","lng":"141.639843"},{"town":"本町三丁目","lat":"43.941028","lng":"141.640770"},{"town":"本町四丁目","lat":"43.940511","lng":"141.641556"},{"town":"緑ケ丘町一丁目","lat":"43.929219","lng":"141.668034"},{"town":"緑ケ丘町二丁目","lat":"43.926653","lng":"141.665928"},{"town":"港町一丁目","lat":"43.944107","lng":"141.635857"},{"town":"港町二丁目","lat":"43.943137","lng":"141.636334"},{"town":"港町三丁目","lat":"43.942525","lng":"141.637446"},{"town":"南町一丁目","lat":"43.928734","lng":"141.672239"},{"town":"南町二丁目","lat":"43.925734","lng":"141.671670"},{"town":"南町三丁目","lat":"43.924157","lng":"141.675863"},{"town":"南町四丁目","lat":"43.921406","lng":"141.671965"},{"town":"見晴町一丁目","lat":"43.933988","lng":"141.642855"},{"town":"見晴町二丁目","lat":"43.933020","lng":"141.646173"},{"town":"見晴町三丁目","lat":"43.931197","lng":"141.648424"},{"town":"見晴町四丁目","lat":"43.929751","lng":"141.646953"},{"town":"見晴町五丁目","lat":"43.927201","lng":"141.649012"},{"town":"見晴町六丁目","lat":"43.924446","lng":"141.649542"},{"town":"見晴町七丁目","lat":"43.924678","lng":"141.653214"},{"town":"宮園町一丁目","lat":"43.938260","lng":"141.640660"},{"town":"宮園町二丁目","lat":"43.937450","lng":"141.641733"},{"town":"宮園町三丁目","lat":"43.936152","lng":"141.642078"},{"town":"宮園町四丁目","lat":"43.936217","lng":"141.644188"},{"town":"元川町一丁目","lat":"43.934303","lng":"141.667011"},{"town":"元川町二丁目","lat":"43.932983","lng":"141.666928"},{"town":"元町一丁目","lat":"43.947672","lng":"141.647032"},{"town":"元町二丁目","lat":"43.948360","lng":"141.644123"},{"town":"元町三丁目","lat":"43.949146","lng":"141.643258"},{"town":"元町四丁目","lat":"43.950420","lng":"141.643143"},{"town":"元町五丁目","lat":"43.952929","lng":"141.640915"},{"town":"礼受町","lat":"43.908171","lng":"141.621937"}]