[{"town":"暁町","lat":"43.397381","lng":"142.414601"},{"town":"字中富良野","lat":"43.425173","lng":"142.397413"},{"town":"字中富良野伊藤農場","lat":"43.406619","lng":"142.396960"},{"town":"字中富良野基線北","lat":"43.425669","lng":"142.436631"},{"town":"字中富良野鹿討農場","lat":"43.389565","lng":"142.394897"},{"town":"字中富良野新田中農場","lat":"43.439032","lng":"142.407593"},{"town":"字中富良野奈江","lat":"43.437899","lng":"142.379097"},{"town":"字中富良野西一線北","lat":"43.424378","lng":"142.427399"},{"town":"字中富良野西二線北","lat":"43.424413","lng":"142.419583"},{"town":"字中富良野西三線北","lat":"43.432042","lng":"142.418392"},{"town":"字中富良野東十線北","lat":"43.378890","lng":"142.477050"},{"town":"字中富良野東十一線北","lat":"43.375164","lng":"142.484737"},{"town":"字中富良野東一線北","lat":"43.383381","lng":"142.407723"},{"town":"字中富良野東二線北","lat":"43.398258","lng":"142.429047"},{"town":"字中富良野東三線北","lat":"43.393672","lng":"142.433128"},{"town":"字中富良野東四線北","lat":"43.394285","lng":"142.441799"},{"town":"字中富良野東五線北","lat":"43.375475","lng":"142.433452"},{"town":"字中富良野東六線北","lat":"43.382958","lng":"142.447032"},{"town":"字中富良野東七線北","lat":"43.375456","lng":"142.449360"},{"town":"字中富良野東八線北","lat":"43.380910","lng":"142.462471"},{"town":"字中富良野東九線北","lat":"43.378839","lng":"142.468883"},{"town":"字中富良野福原農場","lat":"43.399483","lng":"142.404833"},{"town":"字中富良野ベベルイ","lat":"43.378047","lng":"142.528074"},{"town":"字中富良野吉井農場","lat":"43.391625","lng":"142.366732"},{"town":"旭町","lat":"43.399931","lng":"142.414873"},{"town":"丘町","lat":"43.403137","lng":"142.415681"},{"town":"北町","lat":"43.411377","lng":"142.427697"},{"town":"新町","lat":"43.400973","lng":"142.420587"},{"town":"西町","lat":"43.410049","lng":"142.423732"},{"town":"東町","lat":"43.405493","lng":"142.428556"},{"town":"本町","lat":"43.407181","lng":"142.424915"},{"town":"南町","lat":"43.404203","lng":"142.422514"},{"town":"宮町","lat":"43.413566","lng":"142.423524"}]