[{"town":"字鶉","lat":"43.476835","lng":"141.963731"},{"town":"字上砂川","lat":"43.451763","lng":"142.027150"},{"town":"字上砂川町","lat":"43.481753","lng":"141.987209"},{"town":"字西山","lat":"43.473678","lng":"142.007254"},{"town":"字東奈井江","lat":"43.432751","lng":"142.012475"},{"town":"字文珠","lat":"43.480207","lng":"141.999830"}]