[{"town":"字大岩","lat":"41.998462","lng":"140.838273"},{"town":"字駒見","lat":"42.010435","lng":"140.751607"},{"town":"字鹿部","lat":"42.011153","lng":"140.819670"},{"town":"字本別","lat":"42.063020","lng":"140.740370"},{"town":"字宮浜","lat":"42.016837","lng":"140.787058"}]