[{"town":"字旭野","lat":"42.700184","lng":"140.984787"},{"town":"字泉川","lat":"42.747468","lng":"140.916733"},{"town":"字黒田","lat":"42.700501","lng":"140.905925"},{"town":"字三ノ原","lat":"42.693191","lng":"140.833442"},{"town":"字豊岡","lat":"42.746758","lng":"140.855051"},{"town":"字西ノ原","lat":"42.684232","lng":"140.800497"},{"town":"字登","lat":"42.722685","lng":"140.954182"},{"town":"字三豊","lat":"42.717132","lng":"140.838507"},{"town":"字向丘","lat":"42.720708","lng":"140.883232"},{"town":"字留寿都","lat":"42.745353","lng":"140.881005"}]