[{"town":"字板谷","lat":"43.742746","lng":"141.885784"},{"town":"字岩村","lat":"43.782078","lng":"141.813153"},{"town":"字恵岱別","lat":"43.724109","lng":"141.795433"},{"town":"字西川","lat":"43.753039","lng":"141.807325"},{"town":"字美葉牛","lat":"43.813424","lng":"141.838213"},{"town":"字碧水","lat":"43.762258","lng":"141.865102"},{"town":"字三谷","lat":"43.726157","lng":"141.839303"},{"town":"字和","lat":"43.727827","lng":"141.893489"},{"town":"字竜西","lat":"43.750636","lng":"141.737748"}]