[{"town":"大字上川口","koaza":"","lat":38.067066,"lng":139.58218},{"town":"大字上新保","koaza":"","lat":38.138053,"lng":139.551254},{"town":"大字上野","koaza":"","lat":38.134332,"lng":139.551477},{"town":"大字上野山","koaza":"","lat":38.107885,"lng":139.557018},{"town":"大字上野新","koaza":"","lat":38.125726,"lng":139.535282},{"town":"大字上関","koaza":"","lat":38.082029,"lng":139.574517},{"town":"大字下川口","koaza":"","lat":38.075349,"lng":139.586739},{"town":"大字下関","koaza":"","lat":38.083346,"lng":139.555484},{"town":"大字中束","koaza":"","lat":38.144309,"lng":139.624842},{"town":"大字久保","koaza":"","lat":38.064566,"lng":139.568244},{"town":"大字八ツ口","koaza":"","lat":38.087396,"lng":139.653186},{"town":"大字内須川","koaza":"","lat":38.066977,"lng":139.552274},{"town":"大字勝蔵","koaza":"","lat":38.089813,"lng":139.545415},{"town":"大字南中","koaza":"","lat":38.142,"lng":139.539442},{"town":"大字南赤谷","koaza":"","lat":38.085919,"lng":139.539684},{"town":"大字土沢","koaza":"","lat":38.093169,"lng":139.52074},{"town":"大字大内渕","koaza":"","lat":38.066028,"lng":139.599378},{"town":"大字大島","koaza":"","lat":38.104523,"lng":139.517264},{"town":"大字大石","koaza":"","lat":37.98252,"lng":139.602965},{"town":"大字安角","koaza":"","lat":38.045989,"lng":139.581402},{"town":"大字宮前","koaza":"","lat":38.13932,"lng":139.522768},{"town":"大字小和田","koaza":"","lat":38.122294,"lng":139.614903},{"town":"大字小見","koaza":"","lat":38.111776,"lng":139.552017},{"town":"大字小見前新田","koaza":"","lat":38.103255,"lng":139.542016},{"town":"大字山本","koaza":"","lat":38.071333,"lng":139.530815},{"town":"大字平内新","koaza":"","lat":38.106498,"lng":139.536618},{"town":"大字幾地","koaza":"","lat":38.048792,"lng":139.539147},{"town":"大字打上","koaza":"","lat":38.096993,"lng":139.54302},{"town":"大字朴坂","koaza":"","lat":38.130187,"lng":139.522239},{"town":"大字桂","koaza":"","lat":38.11863,"lng":139.517487},{"town":"大字楢木新田","koaza":"","lat":38.076188,"lng":139.594556},{"town":"大字沼","koaza":"","lat":38.032499,"lng":139.62534},{"town":"大字深沢","koaza":"","lat":38.123744,"lng":139.540358},{"town":"大字湯沢","koaza":"","lat":38.094424,"lng":139.604804},{"town":"大字滝原","koaza":"","lat":38.10445,"lng":139.567071},{"town":"大字片貝","koaza":"","lat":38.071013,"lng":139.628517},{"town":"大字畑","koaza":"","lat":38.040208,"lng":139.646274},{"town":"大字聞出","koaza":"","lat":38.079229,"lng":139.622328},{"town":"大字若山","koaza":"","lat":38.126765,"lng":139.552359},{"town":"大字蔵田島","koaza":"","lat":38.063876,"lng":139.577475},{"town":"大字蛇喰","koaza":"","lat":38.140548,"lng":139.546956},{"town":"大字辰田新","koaza":"","lat":38.095435,"lng":139.548651},{"town":"大字金丸","koaza":"","lat":38.060397,"lng":139.669226},{"town":"大字金俣","koaza":"","lat":38.019293,"lng":139.544306},{"town":"大字鍬江沢","koaza":"","lat":38.089755,"lng":139.506393},{"town":"大字高田","koaza":"","lat":38.11133,"lng":139.534262},{"town":"大字鮖谷","koaza":"","lat":38.054184,"lng":139.56164}]