[{"town":"霧島大窪","lat":"31.824185","lng":"130.859499"},{"town":"霧島川北","lat":"31.826365","lng":"130.823898"},{"town":"霧島田口","lat":"31.877493","lng":"130.870356"},{"town":"霧島永水","lat":"31.797019","lng":"130.838565"},{"town":"国分上之段","lat":"31.692717","lng":"130.833946"},{"town":"国分上野原縄文の森","lat":"31.712336","lng":"130.802038"},{"town":"国分上野原テクノパーク","lat":"31.713352","lng":"130.796087"},{"town":"国分上井","lat":"31.726872","lng":"130.794270"},{"town":"国分上小川","lat":"31.737693","lng":"130.786041"},{"town":"国分川内","lat":"31.717148","lng":"130.833104"},{"town":"国分川原","lat":"31.745281","lng":"130.826462"},{"town":"国分清水","lat":"31.751420","lng":"130.787804"},{"town":"国分清水一丁目","lat":"31.750712","lng":"130.775933"},{"town":"国分清水二丁目","lat":"31.756434","lng":"130.779303"},{"town":"国分清水三丁目","lat":"31.752074","lng":"130.779894"},{"town":"国分清水四丁目","lat":"31.761236","lng":"130.786109"},{"town":"国分清水五丁目","lat":"31.757630","lng":"130.791596"},{"town":"国分剣之宇都町","lat":"31.769955","lng":"130.767655"},{"town":"国分郡田","lat":"31.770219","lng":"130.852517"},{"town":"国分敷根","lat":"31.700973","lng":"130.801995"},{"town":"国分重久","lat":"31.779921","lng":"130.798171"},{"town":"国分下井","lat":"31.702022","lng":"130.848587"},{"town":"国分城山町","lat":"31.744062","lng":"130.776599"},{"town":"国分新町","lat":"31.758631","lng":"130.775663"},{"town":"国分新町一丁目","lat":"31.752681","lng":"130.760332"},{"town":"国分新町二丁目","lat":"31.752739","lng":"130.764714"},{"town":"国分台明寺","lat":"31.769870","lng":"130.810753"},{"town":"国分中央一丁目","lat":"31.744070","lng":"130.769426"},{"town":"国分中央二丁目","lat":"31.739235","lng":"130.774041"},{"town":"国分中央三丁目","lat":"31.739480","lng":"130.764700"},{"town":"国分中央四丁目","lat":"31.734525","lng":"130.773031"},{"town":"国分中央五丁目","lat":"31.735543","lng":"130.763354"},{"town":"国分中央六丁目","lat":"31.732863","lng":"130.770405"},{"town":"国分名波町","lat":"31.734609","lng":"130.779902"},{"town":"国分野口","lat":"31.737026","lng":"130.747416"},{"town":"国分野口北","lat":"31.740447","lng":"130.751740"},{"town":"国分野口町","lat":"31.735407","lng":"130.749875"},{"town":"国分野口西","lat":"31.738469","lng":"130.744896"},{"town":"国分野口東","lat":"31.738159","lng":"130.756262"},{"town":"国分姫城","lat":"31.761030","lng":"130.768463"},{"town":"国分姫城南","lat":"31.756081","lng":"130.767784"},{"town":"国分広瀬","lat":"31.712142","lng":"130.753255"},{"town":"国分広瀬一丁目","lat":"31.719527","lng":"130.749469"},{"town":"国分広瀬二丁目","lat":"31.720833","lng":"130.757434"},{"town":"国分広瀬三丁目","lat":"31.715758","lng":"130.757169"},{"town":"国分広瀬四丁目","lat":"31.712182","lng":"130.764517"},{"town":"国分福島","lat":"31.722414","lng":"130.763155"},{"town":"国分福島一丁目","lat":"31.727838","lng":"130.753312"},{"town":"国分福島二丁目","lat":"31.724242","lng":"130.753840"},{"town":"国分福島三丁目","lat":"31.730368","lng":"130.762650"},{"town":"国分府中","lat":"31.745171","lng":"130.751784"},{"town":"国分府中町","lat":"31.745612","lng":"130.759160"},{"town":"国分松木","lat":"31.733614","lng":"130.757373"},{"town":"国分松木町","lat":"31.732319","lng":"130.751961"},{"town":"国分松木東","lat":"31.735510","lng":"130.758356"},{"town":"国分湊","lat":"31.715607","lng":"130.774643"},{"town":"国分向花","lat":"31.761020","lng":"130.776385"},{"town":"国分向花町","lat":"31.747625","lng":"130.763949"},{"town":"国分山下町","lat":"31.727917","lng":"130.779058"},{"town":"隼人町朝日","lat":"31.753254","lng":"130.720500"},{"town":"隼人町内","lat":"31.757959","lng":"130.745124"},{"town":"隼人町内山田","lat":"31.748004","lng":"130.727457"},{"town":"隼人町内山田一丁目","lat":"31.743152","lng":"130.736425"},{"town":"隼人町内山田二丁目","lat":"31.746617","lng":"130.741048"},{"town":"隼人町内山田三丁目","lat":"31.747488","lng":"130.736632"},{"town":"隼人町内山田四丁目","lat":"31.740804","lng":"130.733994"},{"town":"隼人町小田","lat":"31.744766","lng":"130.717336"},{"town":"隼人町小浜","lat":"31.739895","lng":"130.690827"},{"town":"隼人町嘉例川","lat":"31.817535","lng":"130.732746"},{"town":"隼人町西光寺","lat":"31.776667","lng":"130.736911"},{"town":"隼人町神宮一丁目","lat":"31.749578","lng":"130.740979"},{"town":"隼人町神宮二丁目","lat":"31.751119","lng":"130.739072"},{"town":"隼人町神宮三丁目","lat":"31.752591","lng":"130.742273"},{"town":"隼人町神宮四丁目","lat":"31.755119","lng":"130.743015"},{"town":"隼人町神宮五丁目","lat":"31.752726","lng":"130.745175"},{"town":"隼人町神宮六丁目","lat":"31.749072","lng":"130.745185"},{"town":"隼人町真孝","lat":"31.726920","lng":"130.725669"},{"town":"隼人町住吉","lat":"31.720044","lng":"130.739367"},{"town":"隼人町東郷","lat":"31.769296","lng":"130.746798"},{"town":"隼人町東郷一丁目","lat":"31.771205","lng":"130.755638"},{"town":"隼人町野久美田","lat":"31.737648","lng":"130.706112"},{"town":"隼人町姫城","lat":"31.761981","lng":"130.761192"},{"town":"隼人町姫城一丁目","lat":"31.764297","lng":"130.756058"},{"town":"隼人町姫城二丁目","lat":"31.764349","lng":"130.758322"},{"town":"隼人町姫城三丁目","lat":"31.770682","lng":"130.757997"},{"town":"隼人町松永","lat":"31.790470","lng":"130.764775"},{"town":"隼人町松永一丁目","lat":"31.775049","lng":"130.759395"},{"town":"隼人町松永二丁目","lat":"31.774192","lng":"130.761663"},{"town":"隼人町見次","lat":"31.741079","lng":"130.741094"},{"town":"福山町佳例川","lat":"31.698529","lng":"130.880736"},{"town":"福山町福沢","lat":"31.639103","lng":"130.872260"},{"town":"福山町福山","lat":"31.656927","lng":"130.844060"},{"town":"牧園町上中津川","lat":"31.848013","lng":"130.785460"},{"town":"牧園町三体堂","lat":"31.894761","lng":"130.790630"},{"town":"牧園町下中津川","lat":"31.823350","lng":"130.776631"},{"town":"牧園町宿窪田","lat":"31.843349","lng":"130.751471"},{"town":"牧園町高千穂","lat":"31.897210","lng":"130.830875"},{"town":"牧園町万膳","lat":"31.909125","lng":"130.764847"},{"town":"牧園町持松","lat":"31.842120","lng":"130.815825"},{"town":"溝辺町有川","lat":"31.822476","lng":"130.663257"},{"town":"溝辺町崎森","lat":"31.777030","lng":"130.704297"},{"town":"溝辺町麓","lat":"31.806222","lng":"130.701763"},{"town":"溝辺町三縄","lat":"31.850300","lng":"130.693647"},{"town":"横川町中ノ","lat":"31.898146","lng":"130.709349"},{"town":"横川町上ノ","lat":"31.894341","lng":"130.653910"},{"town":"横川町下ノ","lat":"31.859797","lng":"130.715132"},{"town":"溝辺町竹子","lat":"31.861778","lng":"130.652742"}]