[{"town":"大字悪石島","lat":"29.460868","lng":"129.599032"},{"town":"大字臥蛇島","lat":"29.904662","lng":"129.541911"},{"town":"大字口之島","lat":"29.978397","lng":"129.916877"},{"town":"大字小宝島","lat":"29.223529","lng":"129.324800"},{"town":"大字諏訪之瀬島","lat":"29.637149","lng":"129.713263"},{"town":"大字平島","lat":"29.686574","lng":"129.532500"},{"town":"大字宝島","lat":"29.143109","lng":"129.207809"},{"town":"大字中之島","lat":"29.849652","lng":"129.866077"}]