[{"town":"字神里","lat":"26.174519","lng":"127.730075"},{"town":"字与那覇","lat":"26.200936","lng":"127.743365"},{"town":"字山川","lat":"26.179163","lng":"127.724555"},{"town":"字照屋","lat":"26.185674","lng":"127.725315"},{"town":"字喜屋武","lat":"26.184001","lng":"127.731850"},{"town":"字本部","lat":"26.190791","lng":"127.723749"},{"town":"字兼城","lat":"26.195835","lng":"127.724693"},{"town":"字宮平","lat":"26.197647","lng":"127.734435"},{"town":"字大名","lat":"26.209055","lng":"127.734605"},{"town":"字宮城","lat":"26.206489","lng":"127.741782"},{"town":"字新川","lat":"26.208755","lng":"127.726448"},{"town":"字津嘉山","lat":"26.187603","lng":"127.715418"}]