[{"town":"国神","koaza":"","lat":37.168093,"lng":140.361128},{"town":"大畑","koaza":"","lat":37.191119,"lng":140.359586},{"town":"清林山","koaza":"","lat":37.176303,"lng":140.370676},{"town":"清水塚","koaza":"","lat":37.165132,"lng":140.332343},{"town":"貝の久保","koaza":"","lat":37.180718,"lng":140.384805},{"town":"赤沢","koaza":"","lat":37.193689,"lng":140.302167},{"town":"曙町","koaza":"","lat":37.200873,"lng":140.330102},{"town":"一本木","koaza":"","lat":37.200905,"lng":140.342201},{"town":"井戸尻","koaza":"","lat":37.207929,"lng":140.309747},{"town":"大池","koaza":"","lat":37.216988,"lng":140.33731},{"town":"大久保","koaza":"","lat":37.183016,"lng":140.337331},{"town":"大町","koaza":"","lat":37.202949,"lng":140.318862},{"town":"神の内","koaza":"","lat":37.18218,"lng":140.378858},{"town":"上の前","koaza":"","lat":37.180499,"lng":140.370947},{"town":"上宮崎","koaza":"","lat":37.199144,"lng":140.35859},{"town":"川原","koaza":"","lat":37.199211,"lng":140.306119},{"town":"神田西","koaza":"","lat":37.198566,"lng":140.384144},{"town":"神田東","koaza":"","lat":37.195053,"lng":140.393058},{"town":"神田南","koaza":"","lat":37.192049,"lng":140.387343},{"town":"北浦","koaza":"","lat":37.196831,"lng":140.311071},{"town":"北町","koaza":"","lat":37.214226,"lng":140.327498},{"town":"子ハ清水","koaza":"","lat":37.221737,"lng":140.286009},{"town":"小松","koaza":"","lat":37.205699,"lng":140.33196},{"town":"五本松","koaza":"","lat":37.183948,"lng":140.304827},{"town":"境町","koaza":"","lat":37.232407,"lng":140.305582},{"town":"沢尻","koaza":"","lat":37.19145,"lng":140.374829},{"town":"三城目","koaza":"","lat":37.211908,"lng":140.384665},{"town":"下宮崎","koaza":"","lat":37.198785,"lng":140.365641},{"town":"新町","koaza":"","lat":37.196121,"lng":140.318923},{"town":"上敷面","koaza":"","lat":37.157091,"lng":140.339578},{"town":"陣ケ岡","koaza":"","lat":37.219049,"lng":140.393761},{"town":"住吉","koaza":"","lat":37.186547,"lng":140.365609},{"town":"諏訪清水","koaza":"","lat":37.150487,"lng":140.335734},{"town":"諏訪の前","koaza":"","lat":37.199092,"lng":140.351608},{"town":"堰の上","koaza":"","lat":37.206712,"lng":140.299964},{"town":"善郷内","koaza":"","lat":37.21136,"lng":140.336221},{"town":"田内","koaza":"","lat":37.221893,"lng":140.29411},{"town":"滝八幡","koaza":"","lat":37.21464,"lng":140.320713},{"town":"舘沢","koaza":"","lat":37.209385,"lng":140.319047},{"town":"田町","koaza":"","lat":37.188317,"lng":140.31921},{"town":"堤","koaza":"","lat":37.188469,"lng":140.381085},{"town":"寺内","koaza":"","lat":37.187386,"lng":140.359098},{"town":"寺内西","koaza":"","lat":37.184605,"lng":140.35403},{"town":"寺内東","koaza":"","lat":37.178906,"lng":140.363089},{"town":"寺内南","koaza":"","lat":37.176673,"lng":140.358463},{"town":"寺の前","koaza":"","lat":37.192185,"lng":140.364155},{"town":"天開","koaza":"","lat":37.218164,"lng":140.379841},{"town":"東郷","koaza":"","lat":37.20945,"lng":140.345879},{"town":"中沖","koaza":"","lat":37.210204,"lng":140.389743},{"town":"中野目西","koaza":"","lat":37.186184,"lng":140.394265},{"town":"中野目東","koaza":"","lat":37.188814,"lng":140.397563},{"town":"中畑","koaza":"","lat":37.171933,"lng":140.353563},{"town":"中畑南","koaza":"","lat":37.163207,"lng":140.353423},{"town":"中町","koaza":"","lat":37.203238,"lng":140.325077},{"town":"中丸","koaza":"","lat":37.218972,"lng":140.360832},{"town":"鍋内","koaza":"","lat":37.184749,"lng":140.346767},{"town":"西長峰","koaza":"","lat":37.181004,"lng":140.312642},{"town":"根宿","koaza":"","lat":37.171029,"lng":140.344945},{"town":"白山","koaza":"","lat":37.2027,"lng":140.376437},{"town":"八幡町","koaza":"","lat":37.193444,"lng":140.332204},{"town":"花咲","koaza":"","lat":37.201966,"lng":140.31325},{"town":"花の里","koaza":"","lat":37.207545,"lng":140.362178},{"town":"東川原","koaza":"","lat":37.213613,"lng":140.393424},{"town":"東堤","koaza":"","lat":37.185396,"lng":140.387852},{"town":"東長峰","koaza":"","lat":37.175985,"lng":140.323786},{"town":"東の内","koaza":"","lat":37.217684,"lng":140.299595},{"town":"奉行塚","koaza":"","lat":37.204581,"lng":140.388833},{"town":"文京町","koaza":"","lat":37.190801,"lng":140.344234},{"town":"平鉢","koaza":"","lat":37.17197,"lng":140.366266},{"town":"本郷町","koaza":"","lat":37.226753,"lng":140.308627},{"town":"本城舘","koaza":"","lat":37.210692,"lng":140.371602},{"town":"牡丹平","koaza":"","lat":37.214365,"lng":140.358292},{"town":"前久保","koaza":"","lat":37.185363,"lng":140.371204},{"town":"前田","koaza":"","lat":37.203936,"lng":140.361427},{"town":"松倉","koaza":"","lat":37.156991,"lng":140.328332},{"town":"松房","koaza":"","lat":37.172633,"lng":140.333237},{"town":"丸の内","koaza":"","lat":37.208777,"lng":140.355869},{"town":"南町","koaza":"","lat":37.220433,"lng":140.310826},{"town":"明新上","koaza":"","lat":37.170859,"lng":140.402643},{"town":"明新下","koaza":"","lat":37.180581,"lng":140.402209},{"town":"明新中","koaza":"","lat":37.175715,"lng":140.404365},{"town":"明新西","koaza":"","lat":37.180876,"lng":140.395031},{"town":"明新原","koaza":"","lat":37.176339,"lng":140.396398},{"town":"明新東","koaza":"","lat":37.181487,"lng":140.406745},{"town":"本町","koaza":"","lat":37.207956,"lng":140.326195},{"town":"弥栄","koaza":"","lat":37.185378,"lng":140.327615},{"town":"谷中","koaza":"","lat":37.20345,"lng":140.393939},{"town":"大和内","koaza":"","lat":37.190658,"lng":140.312229}]