[{"town":"字上厚真","koaza":"","lat":42.631641,"lng":141.848324},{"town":"字上野","koaza":"","lat":42.687913,"lng":141.859447},{"town":"字共和","koaza":"","lat":42.646055,"lng":141.827269},{"town":"字共栄","koaza":"","lat":42.667955,"lng":141.842508},{"town":"字厚和","koaza":"","lat":42.627214,"lng":141.879417},{"town":"字吉野","koaza":"","lat":42.747154,"lng":141.911237},{"town":"字宇隆","koaza":"","lat":42.706013,"lng":141.943081},{"town":"字富里","koaza":"","lat":42.752066,"lng":141.930179},{"town":"字富野","koaza":"","lat":42.659505,"lng":141.865213},{"town":"字幌内","koaza":"","lat":42.786707,"lng":142.040266},{"town":"字幌里","koaza":"","lat":42.77782,"lng":141.890465},{"town":"字朝日","koaza":"","lat":42.732045,"lng":141.883506},{"town":"字本郷","koaza":"","lat":42.734442,"lng":141.859979},{"town":"字東和","koaza":"","lat":42.735438,"lng":141.924916},{"town":"字桜丘","koaza":"","lat":42.762036,"lng":141.904243},{"town":"字浜厚真","koaza":"","lat":42.611913,"lng":141.867179},{"town":"字清住","koaza":"","lat":42.603217,"lng":141.876908},{"town":"字美里","koaza":"","lat":42.708804,"lng":141.863517},{"town":"字豊丘","koaza":"","lat":42.659152,"lng":141.950919},{"town":"字豊川","koaza":"","lat":42.697493,"lng":141.835209},{"town":"字豊沢","koaza":"","lat":42.687016,"lng":141.903624},{"town":"字軽舞","koaza":"","lat":42.675003,"lng":141.942148},{"town":"字高丘","koaza":"","lat":42.80044,"lng":141.946967},{"town":"字鯉沼","koaza":"","lat":42.64394,"lng":141.89065},{"town":"字鹿沼","koaza":"","lat":42.624963,"lng":141.9051},{"town":"表町","koaza":"","lat":42.724233,"lng":141.873973},{"town":"京町","koaza":"","lat":42.722857,"lng":141.877661},{"town":"新町","koaza":"","lat":42.71769,"lng":141.88554},{"town":"錦町","koaza":"","lat":42.728192,"lng":141.874739},{"town":"本町","koaza":"","lat":42.726532,"lng":141.881605}]