[{"town":"字三ツ谷","koaza":"","lat":42.034298,"lng":140.107757},{"town":"字元和","koaza":"","lat":42.047804,"lng":140.141613},{"town":"字元町","koaza":"","lat":41.966754,"lng":140.131294},{"town":"字姫川","koaza":"","lat":42.010822,"lng":140.226507},{"town":"字富岡","koaza":"","lat":42.004795,"lng":140.190755},{"town":"字旭岱","koaza":"","lat":42.005011,"lng":140.247137},{"town":"字栄浜","koaza":"","lat":42.007034,"lng":140.120663},{"town":"字栄野","koaza":"","lat":42.045218,"lng":140.195166},{"town":"字滝瀬","koaza":"","lat":41.958841,"lng":140.133986},{"town":"字潮見","koaza":"","lat":42.052948,"lng":140.113058},{"town":"字緑町","koaza":"","lat":41.966369,"lng":140.144251},{"town":"字花磯","koaza":"","lat":42.050501,"lng":140.092476},{"town":"字豊浜","koaza":"","lat":42.058892,"lng":140.082153},{"town":"字館浦","koaza":"","lat":41.980453,"lng":140.146829},{"town":"字鳥山","koaza":"","lat":41.995784,"lng":140.142693}]