[{"town":"泉一丁目","lat":"35.981714","lng":"139.863326"},{"town":"泉二丁目","lat":"35.980127","lng":"139.867113"},{"town":"泉三丁目","lat":"35.979013","lng":"139.864070"},{"town":"今上","lat":"35.925190","lng":"139.873880"},{"town":"岩名","lat":"35.963793","lng":"139.839891"},{"town":"岩名一丁目","lat":"35.973807","lng":"139.832789"},{"town":"岩名二丁目","lat":"35.973037","lng":"139.838156"},{"town":"大殿井","lat":"35.946459","lng":"139.894106"},{"town":"岡田","lat":"36.011436","lng":"139.826336"},{"town":"岡田新田","lat":"36.009714","lng":"139.823298"},{"town":"尾崎","lat":"35.987174","lng":"139.832852"},{"town":"尾崎台","lat":"35.984457","lng":"139.836996"},{"town":"小山","lat":"36.004383","lng":"139.870554"},{"town":"柏寺","lat":"36.048933","lng":"139.805255"},{"town":"春日町","lat":"35.977614","lng":"139.841366"},{"town":"金杉","lat":"35.967449","lng":"139.871444"},{"town":"上三ケ尾","lat":"35.924203","lng":"139.928792"},{"town":"上花輪","lat":"35.935926","lng":"139.870262"},{"town":"上花輪新町","lat":"35.938025","lng":"139.862788"},{"town":"木野崎","lat":"35.957528","lng":"139.917061"},{"town":"木間ケ瀬","lat":"36.022727","lng":"139.837166"},{"town":"木間ケ瀬新田","lat":"36.020610","lng":"139.854362"},{"town":"桐ケ作","lat":"36.055306","lng":"139.810225"},{"town":"光葉町一丁目","lat":"35.965544","lng":"139.852126"},{"town":"光葉町二丁目","lat":"35.969437","lng":"139.849257"},{"town":"光葉町三丁目","lat":"35.965103","lng":"139.846908"},{"town":"五木","lat":"35.970796","lng":"139.846066"},{"town":"五木新田","lat":"35.980187","lng":"139.838746"},{"town":"五木新町","lat":"35.974463","lng":"139.844820"},{"town":"座生","lat":"35.947827","lng":"139.842668"},{"town":"桜木","lat":"35.934945","lng":"139.877675"},{"town":"桜台","lat":"35.936126","lng":"139.874677"},{"town":"桜の里一丁目","lat":"35.957535","lng":"139.847495"},{"town":"桜の里二丁目","lat":"35.953947","lng":"139.845337"},{"town":"桜の里三丁目","lat":"35.951683","lng":"139.843058"},{"town":"清水","lat":"35.955612","lng":"139.857185"},{"town":"清水公園東一丁目","lat":"35.961552","lng":"139.859399"},{"town":"清水公園東二丁目","lat":"35.956519","lng":"139.862788"},{"town":"下三ケ尾","lat":"35.922857","lng":"139.916158"},{"town":"関宿内町","lat":"36.074055","lng":"139.784390"},{"town":"関宿江戸町","lat":"36.087124","lng":"139.780643"},{"town":"関宿江戸町飛地","lat":"36.063526","lng":"139.793256"},{"town":"関宿三軒家","lat":"36.098726","lng":"139.782731"},{"town":"関宿台町","lat":"36.084899","lng":"139.794419"},{"town":"関宿町","lat":"36.094867","lng":"139.780703"},{"town":"関宿元町","lat":"36.074513","lng":"139.788013"},{"town":"関宿元町飛地","lat":"36.065709","lng":"139.796048"},{"town":"瀬戸","lat":"35.935527","lng":"139.938400"},{"town":"瀬戸上灰毛","lat":"35.944277","lng":"139.910303"},{"town":"堤台","lat":"35.949821","lng":"139.848029"},{"town":"堤根","lat":"35.940678","lng":"139.888643"},{"town":"つつみ野一丁目","lat":"35.946000","lng":"139.848863"},{"town":"つつみ野二丁目","lat":"35.945494","lng":"139.846449"},{"town":"鶴奉","lat":"35.956331","lng":"139.886932"},{"town":"中里","lat":"35.999305","lng":"139.841475"},{"town":"中戸","lat":"36.057451","lng":"139.796697"},{"town":"中戸谷津","lat":"36.061966","lng":"139.794382"},{"town":"中根","lat":"35.944045","lng":"139.879562"},{"town":"中野台","lat":"35.943776","lng":"139.856090"},{"town":"中野台鹿島町","lat":"35.945147","lng":"139.852466"},{"town":"長谷","lat":"36.017246","lng":"139.866225"},{"town":"七光台","lat":"35.981049","lng":"139.845594"},{"town":"西高野","lat":"36.065873","lng":"139.797077"},{"town":"西三ケ尾","lat":"35.931328","lng":"139.922551"},{"town":"新田戸","lat":"36.061723","lng":"139.802758"},{"town":"野田","lat":"35.945802","lng":"139.867030"},{"town":"花井","lat":"35.946055","lng":"139.881867"},{"town":"花井一丁目","lat":"35.937981","lng":"139.883718"},{"town":"花井新田","lat":"35.936548","lng":"139.882197"},{"town":"はやま","lat":"36.069149","lng":"139.793265"},{"town":"蕃昌","lat":"35.975317","lng":"139.865055"},{"town":"東金野井","lat":"35.996291","lng":"139.821555"},{"town":"東高野","lat":"36.067822","lng":"139.797524"},{"town":"日の出町","lat":"35.986201","lng":"139.841418"},{"town":"平井","lat":"36.020327","lng":"139.819303"},{"town":"二ツ塚","lat":"35.937558","lng":"139.906895"},{"town":"船形","lat":"35.987687","lng":"139.867353"},{"town":"平成","lat":"36.065746","lng":"139.806357"},{"town":"丸井","lat":"36.010677","lng":"139.818324"},{"town":"みずき一丁目","lat":"35.925166","lng":"139.883191"},{"town":"みずき二丁目","lat":"35.922938","lng":"139.886278"},{"town":"みずき三丁目","lat":"35.920412","lng":"139.886021"},{"town":"みずき四丁目","lat":"35.917311","lng":"139.889084"},{"town":"三ツ堀","lat":"35.943511","lng":"139.928729"},{"town":"宮崎","lat":"35.952155","lng":"139.873927"},{"town":"莚打","lat":"35.984824","lng":"139.886754"},{"town":"目吹","lat":"35.969371","lng":"139.892207"},{"town":"谷津","lat":"35.970624","lng":"139.857125"},{"town":"柳沢","lat":"35.959311","lng":"139.877287"},{"town":"山崎梅の台","lat":"35.923052","lng":"139.888413"},{"town":"谷吉","lat":"35.986795","lng":"139.848108"},{"town":"横内","lat":"35.950482","lng":"139.880161"},{"town":"吉春","lat":"35.965678","lng":"139.865545"},{"town":"山崎貝塚町","lat":"35.921992","lng":"139.894096"},{"town":"山崎新町","lat":"35.925056","lng":"139.895584"},{"town":"山崎","lat":"35.930807","lng":"139.890211"},{"town":"なみき四丁目","lat":"36.040336","lng":"139.817300"},{"town":"古布内","lat":"36.047011","lng":"139.822419"},{"town":"なみき三丁目","lat":"36.039901","lng":"139.822184"},{"town":"東宝珠花","lat":"36.026000","lng":"139.818563"},{"town":"親野井","lat":"36.040677","lng":"139.813593"},{"town":"次木","lat":"36.035617","lng":"139.824717"},{"town":"なみき一丁目","lat":"36.034311","lng":"139.821018"},{"town":"なみき二丁目","lat":"36.038012","lng":"139.820516"}]