[{"town":"妙見坂四丁目","koaza":"","lat":34.76458,"lng":135.678169},{"town":"私市山手二丁目","koaza":"","lat":34.770594,"lng":135.690456},{"town":"妙見坂五丁目","koaza":"","lat":34.765021,"lng":135.677019},{"town":"天野が原町三丁目","koaza":"","lat":34.779981,"lng":135.674935},{"town":"妙見東五丁目","koaza":"","lat":34.756206,"lng":135.682119},{"town":"星田山手二丁目","koaza":"","lat":34.757055,"lng":135.666983},{"town":"青山一丁目","koaza":"","lat":34.787605,"lng":135.688115},{"town":"私市山手五丁目","koaza":"","lat":34.766419,"lng":135.690093},{"town":"藤が尾三丁目","koaza":"","lat":34.768199,"lng":135.676292},{"town":"妙見東一丁目","koaza":"","lat":34.76102,"lng":135.679573},{"town":"妙見坂二丁目","koaza":"","lat":34.767553,"lng":135.678477},{"town":"妙見坂六丁目","koaza":"","lat":34.764901,"lng":135.67531},{"town":"星田山手五丁目","koaza":"","lat":34.75448,"lng":135.666656},{"town":"妙見坂三丁目","koaza":"","lat":34.766961,"lng":135.676426},{"town":"私市山手一丁目","koaza":"","lat":34.770424,"lng":135.688752},{"town":"星田山手一丁目","koaza":"","lat":34.758342,"lng":135.667374},{"town":"私市山手三丁目","koaza":"","lat":34.768129,"lng":135.687492},{"town":"私市七丁目","koaza":"","lat":34.767638,"lng":135.682146},{"town":"藤が尾六丁目","koaza":"","lat":34.770447,"lng":135.672718},{"town":"森北二丁目","koaza":"","lat":34.779014,"lng":135.687561},{"town":"藤が尾四丁目","koaza":"","lat":34.770348,"lng":135.675386},{"town":"私市山手四丁目","koaza":"","lat":34.767587,"lng":135.689882},{"town":"星田山手四丁目","koaza":"","lat":34.754395,"lng":135.664815},{"town":"妙見東二丁目","koaza":"","lat":34.759115,"lng":135.680595},{"town":"星田山手三丁目","koaza":"","lat":34.756365,"lng":135.665273},{"town":"藤が尾一丁目","koaza":"","lat":34.772093,"lng":135.676412},{"town":"藤が尾五丁目","koaza":"","lat":34.768406,"lng":135.673508},{"town":"妙見坂一丁目","koaza":"","lat":34.765729,"lng":135.679233},{"town":"南星台二丁目","koaza":"","lat":34.758101,"lng":135.670974},{"town":"寺南野","koaza":"","lat":34.781016,"lng":135.688697},{"town":"私部西四丁目","koaza":"","lat":34.783587,"lng":135.67142},{"town":"私部三丁目","koaza":"","lat":34.788124,"lng":135.677511},{"town":"東倉治一丁目","koaza":"","lat":34.792661,"lng":135.698933},{"town":"青山五丁目","koaza":"","lat":34.78726,"lng":135.693447},{"town":"妙見東四丁目","koaza":"","lat":34.757261,"lng":135.683175},{"town":"南星台四丁目","koaza":"","lat":34.755873,"lng":135.674433},{"town":"東倉治五丁目","koaza":"","lat":34.797208,"lng":135.704872},{"town":"幾野五丁目","koaza":"","lat":34.798561,"lng":135.680978},{"town":"星田北九丁目","koaza":"","lat":34.774701,"lng":135.663298},{"town":"私部八丁目","koaza":"","lat":34.790934,"lng":135.687215},{"town":"南星台一丁目","koaza":"","lat":34.760537,"lng":135.671445},{"town":"幾野三丁目","koaza":"","lat":34.796207,"lng":135.680613},{"town":"森南二丁目","koaza":"","lat":34.775218,"lng":135.688351},{"town":"私部南一丁目","koaza":"","lat":34.782236,"lng":135.679879},{"town":"星田北三丁目","koaza":"","lat":34.771294,"lng":135.669642},{"town":"倉治九丁目","koaza":"","lat":34.799152,"lng":135.686434},{"town":"私市五丁目","koaza":"","lat":34.771812,"lng":135.679227},{"town":"南星台五丁目","koaza":"","lat":34.755361,"lng":135.675872},{"town":"妙見坂七丁目","koaza":"","lat":34.762706,"lng":135.676486},{"town":"藤が尾二丁目","koaza":"","lat":34.770217,"lng":135.677917},{"town":"妙見東三丁目","koaza":"","lat":34.758051,"lng":135.681313},{"town":"寺四丁目","koaza":"","lat":34.784951,"lng":135.694924},{"town":"天野が原町四丁目","koaza":"","lat":34.776238,"lng":135.676886},{"town":"幾野一丁目","koaza":"","lat":34.792303,"lng":135.681482},{"town":"南星台三丁目","koaza":"","lat":34.757619,"lng":135.672779},{"town":"幾野四丁目","koaza":"","lat":34.796615,"lng":135.683268},{"town":"星田西五丁目","koaza":"","lat":34.750626,"lng":135.660726},{"town":"森南一丁目","koaza":"","lat":34.776123,"lng":135.686417},{"town":"私市三丁目","koaza":"","lat":34.772951,"lng":135.682336},{"town":"星田西三丁目","koaza":"","lat":34.754657,"lng":135.662736},{"town":"幾野二丁目","koaza":"","lat":34.794167,"lng":135.68191},{"town":"私部南三丁目","koaza":"","lat":34.781585,"lng":135.686006},{"town":"星田西四丁目","koaza":"","lat":34.754503,"lng":135.659995},{"town":"私部南四丁目","koaza":"","lat":34.780132,"lng":135.683113},{"town":"倉治五丁目","koaza":"","lat":34.797557,"lng":135.687896},{"town":"私部南二丁目","koaza":"","lat":34.78277,"lng":135.682014},{"town":"私部七丁目","koaza":"","lat":34.789047,"lng":135.686506},{"town":"星田六丁目","koaza":"","lat":34.762644,"lng":135.662235},{"town":"私部西三丁目","koaza":"","lat":34.784092,"lng":135.673289},{"town":"森南三丁目","koaza":"","lat":34.778494,"lng":135.689583},{"town":"倉治四丁目","koaza":"","lat":34.796672,"lng":135.686087},{"town":"寺一丁目","koaza":"","lat":34.782745,"lng":135.692696},{"town":"青山三丁目","koaza":"","lat":34.790148,"lng":135.690997},{"town":"郡津四丁目","koaza":"","lat":34.792494,"lng":135.672825},{"town":"私部五丁目","koaza":"","lat":34.789639,"lng":135.682682},{"town":"青山二丁目","koaza":"","lat":34.787339,"lng":135.690801},{"town":"天野が原町一丁目","koaza":"","lat":34.780211,"lng":135.679435},{"town":"私市二丁目","koaza":"","lat":34.774421,"lng":135.682702},{"town":"私部西五丁目","koaza":"","lat":34.780997,"lng":135.672585},{"town":"私部六丁目","koaza":"","lat":34.790749,"lng":135.681492},{"town":"星田四丁目","koaza":"","lat":34.764336,"lng":135.664722},{"town":"青山四丁目","koaza":"","lat":34.79046,"lng":135.694601},{"town":"星田三丁目","koaza":"","lat":34.76552,"lng":135.669955},{"town":"星田北八丁目","koaza":"","lat":34.773354,"lng":135.661354},{"town":"森北一丁目","koaza":"","lat":34.778089,"lng":135.68461},{"town":"星田二丁目","koaza":"","lat":34.765837,"lng":135.67307},{"town":"私市八丁目","koaza":"","lat":34.765013,"lng":135.690588},{"town":"私部西二丁目","koaza":"","lat":34.783811,"lng":135.675989},{"town":"倉治三丁目","koaza":"","lat":34.793878,"lng":135.686069},{"town":"星田北七丁目","koaza":"","lat":34.769773,"lng":135.663098},{"town":"向井田一丁目","koaza":"","lat":34.784647,"lng":135.684601},{"town":"私部西一丁目","koaza":"","lat":34.787304,"lng":135.673675},{"town":"私市一丁目","koaza":"","lat":34.772531,"lng":135.688483},{"town":"星田五丁目","koaza":"","lat":34.765855,"lng":135.663066},{"town":"星田西二丁目","koaza":"","lat":34.758474,"lng":135.664466},{"town":"向井田二丁目","koaza":"","lat":34.784397,"lng":135.688139},{"town":"星田北一丁目","koaza":"","lat":34.776186,"lng":135.674324},{"town":"倉治八丁目","koaza":"","lat":34.799241,"lng":135.693376},{"town":"梅が枝","koaza":"","lat":34.789686,"lng":135.670918},{"town":"神宮寺二丁目","koaza":"","lat":34.789679,"lng":135.699489},{"town":"向井田三丁目","koaza":"","lat":34.783935,"lng":135.690799},{"town":"天野が原町五丁目","koaza":"","lat":34.776318,"lng":135.680584},{"town":"私部二丁目","koaza":"","lat":34.786078,"lng":135.67834},{"town":"私部四丁目","koaza":"","lat":34.789799,"lng":135.675766},{"town":"寺三丁目","koaza":"","lat":34.784614,"lng":135.697455},{"town":"倉治七丁目","koaza":"","lat":34.797341,"lng":135.69602},{"town":"寺二丁目","koaza":"","lat":34.780996,"lng":135.694165},{"town":"私市四丁目","koaza":"","lat":34.771409,"lng":135.6835},{"town":"天野が原町二丁目","koaza":"","lat":34.779276,"lng":135.677398},{"town":"東倉治三丁目","koaza":"","lat":34.795138,"lng":135.702688},{"town":"神宮寺一丁目","koaza":"","lat":34.789655,"lng":135.6972},{"town":"倉治六丁目","koaza":"","lat":34.797102,"lng":135.692159},{"town":"郡津三丁目","koaza":"","lat":34.796485,"lng":135.674358},{"town":"星田一丁目","koaza":"","lat":34.768608,"lng":135.669653},{"town":"倉治二丁目","koaza":"","lat":34.793084,"lng":135.688753},{"town":"私市六丁目","koaza":"","lat":34.768699,"lng":135.68449},{"town":"星田北四丁目","koaza":"","lat":34.775453,"lng":135.671008},{"town":"星田七丁目","koaza":"","lat":34.760899,"lng":135.666851},{"town":"東倉治四丁目","koaza":"","lat":34.798018,"lng":135.700427},{"town":"星田北二丁目","koaza":"","lat":34.773135,"lng":135.674092},{"town":"星田八丁目","koaza":"","lat":34.763,"lng":135.669436},{"town":"倉治一丁目","koaza":"","lat":34.793363,"lng":135.69422},{"town":"東倉治二丁目","koaza":"","lat":34.793777,"lng":135.699635},{"town":"幾野六丁目","koaza":"","lat":34.800872,"lng":135.677283},{"town":"郡津一丁目","koaza":"","lat":34.792821,"lng":135.676639},{"town":"私部一丁目","koaza":"","lat":34.786475,"lng":135.682888},{"town":"星田北五丁目","koaza":"","lat":34.775061,"lng":135.66733},{"town":"星田北六丁目","koaza":"","lat":34.771754,"lng":135.6654},{"town":"松塚","koaza":"","lat":34.793832,"lng":135.668093},{"town":"郡津二丁目","koaza":"","lat":34.797806,"lng":135.677336},{"town":"郡津五丁目","koaza":"","lat":34.796602,"lng":135.670336},{"town":"星田西一丁目","koaza":"","lat":34.758949,"lng":135.660989},{"town":"星田九丁目","koaza":"","lat":34.758238,"lng":135.677725},{"town":"私市九丁目","koaza":"","lat":34.754523,"lng":135.689786},{"town":"大字傍示","koaza":"","lat":34.774262,"lng":135.705121},{"town":"大字森","koaza":"","lat":34.774751,"lng":135.694858},{"town":"大字寺","koaza":"","lat":34.780826,"lng":135.699766},{"town":"大字私部","koaza":"","lat":34.764948,"lng":135.704602},{"town":"大字倉治","koaza":"","lat":34.790619,"lng":135.709849},{"town":"大字星田","koaza":"","lat":34.750327,"lng":135.676331},{"town":"大字私市","koaza":"","lat":34.758638,"lng":135.694318}]