[{"town":"柏里二丁目","koaza":"","lat":"34.710406","lng":"135.466691"},{"town":"百島一丁目","koaza":"","lat":"34.695566","lng":"135.438173"},{"town":"野里三丁目","koaza":"","lat":"34.710509","lng":"135.458327"},{"town":"柏里三丁目","koaza":"","lat":"34.712500","lng":"135.466800"},{"town":"竹島一丁目","koaza":"","lat":"34.723089","lng":"135.458500"},{"town":"竹島三丁目","koaza":"","lat":"34.726420","lng":"135.452844"},{"town":"千舟一丁目","koaza":"","lat":"34.708706","lng":"135.453687"},{"town":"歌島三丁目","koaza":"","lat":"34.713146","lng":"135.460120"},{"town":"大和田三丁目","koaza":"","lat":"34.708554","lng":"135.447762"},{"town":"竹島二丁目","koaza":"","lat":"34.724973","lng":"135.454674"},{"town":"歌島四丁目","koaza":"","lat":"34.718968","lng":"135.461859"},{"town":"姫里二丁目","koaza":"","lat":"34.706636","lng":"135.459761"},{"town":"大野一丁目","koaza":"","lat":"34.702180","lng":"135.439407"},{"town":"大和田六丁目","koaza":"","lat":"34.705073","lng":"135.441158"},{"town":"出来島二丁目","koaza":"","lat":"34.705715","lng":"135.436528"},{"town":"大和田一丁目","koaza":"","lat":"34.706390","lng":"135.450555"},{"town":"姫島五丁目","koaza":"","lat":"34.703173","lng":"135.450998"},{"town":"歌島二丁目","koaza":"","lat":"34.714688","lng":"135.462394"},{"town":"大和田四丁目","koaza":"","lat":"34.707722","lng":"135.445689"},{"town":"千舟三丁目","koaza":"","lat":"34.709747","lng":"135.449660"},{"town":"歌島一丁目","koaza":"","lat":"34.715464","lng":"135.465145"},{"town":"大和田五丁目","koaza":"","lat":"34.708020","lng":"135.442894"},{"town":"姫里三丁目","koaza":"","lat":"34.707834","lng":"135.456515"},{"town":"福町三丁目","koaza":"","lat":"34.701673","lng":"135.444071"},{"town":"姫島六丁目","koaza":"","lat":"34.702410","lng":"135.446912"},{"town":"野里二丁目","koaza":"","lat":"34.709702","lng":"135.460993"},{"town":"柏里一丁目","koaza":"","lat":"34.708539","lng":"135.470857"},{"town":"大野二丁目","koaza":"","lat":"34.701428","lng":"135.436186"},{"town":"御幣島一丁目","koaza":"","lat":"34.712851","lng":"135.456994"},{"town":"大和田二丁目","koaza":"","lat":"34.703561","lng":"135.442086"},{"town":"姫島四丁目","koaza":"","lat":"34.705213","lng":"135.453203"},{"town":"千舟二丁目","koaza":"","lat":"34.711479","lng":"135.451204"},{"town":"野里一丁目","koaza":"","lat":"34.709968","lng":"135.463902"},{"town":"佃六丁目","koaza":"","lat":"34.710389","lng":"135.432659"},{"town":"姫島二丁目","koaza":"","lat":"34.700231","lng":"135.454142"},{"town":"佃四丁目","koaza":"","lat":"34.712695","lng":"135.438944"},{"town":"竹島四丁目","koaza":"","lat":"34.724018","lng":"135.449949"},{"town":"竹島五丁目","koaza":"","lat":"34.727025","lng":"135.448491"},{"town":"御幣島二丁目","koaza":"","lat":"34.713021","lng":"135.453482"},{"town":"出来島三丁目","koaza":"","lat":"34.703901","lng":"135.434302"},{"town":"御幣島四丁目","koaza":"","lat":"34.716341","lng":"135.453423"},{"town":"御幣島三丁目","koaza":"","lat":"34.716931","lng":"135.458486"},{"town":"出来島一丁目","koaza":"","lat":"34.707816","lng":"135.438613"},{"town":"花川二丁目","koaza":"","lat":"34.705962","lng":"135.464671"},{"town":"御幣島五丁目","koaza":"","lat":"34.721263","lng":"135.457666"},{"town":"佃七丁目","koaza":"","lat":"34.708886","lng":"135.429927"},{"town":"花川一丁目","koaza":"","lat":"34.706724","lng":"135.468576"},{"town":"御幣島六丁目","koaza":"","lat":"34.721183","lng":"135.452686"},{"town":"佃三丁目","koaza":"","lat":"34.713293","lng":"135.442206"},{"town":"佃五丁目","koaza":"","lat":"34.711523","lng":"135.435748"},{"town":"福町一丁目","koaza":"","lat":"34.696592","lng":"135.447687"},{"town":"佃二丁目","koaza":"","lat":"34.714194","lng":"135.446307"},{"town":"大野三丁目","koaza":"","lat":"34.698268","lng":"135.436380"},{"town":"佃一丁目","koaza":"","lat":"34.718471","lng":"135.448641"},{"town":"姫里一丁目","koaza":"","lat":"34.703221","lng":"135.462406"},{"town":"姫島一丁目","koaza":"","lat":"34.701026","lng":"135.458004"},{"town":"姫島三丁目","koaza":"","lat":"34.698083","lng":"135.452096"},{"town":"百島二丁目","koaza":"","lat":"34.692796","lng":"135.434649"},{"town":"西島一丁目","koaza":"","lat":"34.695647","lng":"135.430327"},{"town":"福町二丁目","koaza":"","lat":"34.694623","lng":"135.442974"},{"town":"中島一丁目","koaza":"","lat":"34.702568","lng":"135.425009"},{"town":"西島二丁目","koaza":"","lat":"34.689983","lng":"135.424648"},{"town":"中島二丁目","koaza":"","lat":"34.696517","lng":"135.417357"}]