[{"town":"大領一丁目","koaza":"","lat":34.619985,"lng":135.508079},{"town":"帝塚山中五丁目","koaza":"","lat":34.617166,"lng":135.498103},{"town":"帝塚山中四丁目","koaza":"","lat":34.61889,"lng":135.498743},{"town":"殿辻二丁目","koaza":"","lat":34.606365,"lng":135.497676},{"town":"万代東四丁目","koaza":"","lat":34.613084,"lng":135.502683},{"town":"帝塚山東二丁目","koaza":"","lat":34.62064,"lng":135.501943},{"town":"帝塚山東三丁目","koaza":"","lat":34.618447,"lng":135.500464},{"town":"帝塚山東四丁目","koaza":"","lat":34.616675,"lng":135.499482},{"town":"万代東二丁目","koaza":"","lat":34.618637,"lng":135.505851},{"town":"大領二丁目","koaza":"","lat":34.617805,"lng":135.507486},{"town":"帝塚山中二丁目","koaza":"","lat":34.622652,"lng":135.500283},{"town":"帝塚山東一丁目","koaza":"","lat":34.622544,"lng":135.503057},{"town":"帝塚山西三丁目","koaza":"","lat":34.619245,"lng":135.496238},{"town":"千躰一丁目","koaza":"","lat":34.608092,"lng":135.500391},{"town":"長峡町","koaza":"","lat":34.612171,"lng":135.490499},{"town":"帝塚山中一丁目","koaza":"","lat":34.623763,"lng":135.500729},{"town":"万代東一丁目","koaza":"","lat":34.621033,"lng":135.507273},{"town":"山之内元町","koaza":"","lat":34.597062,"lng":135.504515},{"town":"長居西三丁目","koaza":"","lat":34.607802,"lng":135.507688},{"town":"長居三丁目","koaza":"","lat":34.610643,"lng":135.511322},{"town":"千躰二丁目","koaza":"","lat":34.608201,"lng":135.498243},{"town":"遠里小野四丁目","koaza":"","lat":34.602314,"lng":135.495963},{"town":"東粉浜一丁目","koaza":"","lat":34.622294,"lng":135.493983},{"town":"万代二丁目","koaza":"","lat":34.62201,"lng":135.505388},{"town":"殿辻一丁目","koaza":"","lat":34.606102,"lng":135.49986},{"town":"帝塚山西二丁目","koaza":"","lat":34.620776,"lng":135.49657},{"town":"墨江一丁目","koaza":"","lat":34.6099,"lng":135.493381},{"town":"万代五丁目","koaza":"","lat":34.615707,"lng":135.501574},{"town":"我孫子一丁目","koaza":"","lat":34.605147,"lng":135.510159},{"town":"沢之町一丁目","koaza":"","lat":34.604466,"lng":135.498434},{"town":"帝塚山中三丁目","koaza":"","lat":34.62093,"lng":135.499568},{"town":"帝塚山東五丁目","koaza":"","lat":34.613824,"lng":135.498238},{"town":"苅田八丁目","koaza":"","lat":34.597365,"lng":135.519695},{"town":"万代東三丁目","koaza":"","lat":34.615775,"lng":135.504147},{"town":"我孫子西二丁目","koaza":"","lat":34.602433,"lng":135.505753},{"town":"沢之町二丁目","koaza":"","lat":34.602247,"lng":135.498445},{"town":"万代四丁目","koaza":"","lat":34.617447,"lng":135.502607},{"town":"我孫子二丁目","koaza":"","lat":34.602865,"lng":135.509289},{"town":"帝塚山西一丁目","koaza":"","lat":34.62295,"lng":135.49719},{"town":"苅田七丁目","koaza":"","lat":34.598862,"lng":135.515034},{"town":"長居西二丁目","koaza":"","lat":34.610696,"lng":135.509054},{"town":"長居二丁目","koaza":"","lat":34.612825,"lng":135.512005},{"town":"杉本一丁目","koaza":"","lat":34.595393,"lng":135.509069},{"town":"上住吉二丁目","koaza":"","lat":34.610886,"lng":135.495844},{"town":"長居四丁目","koaza":"","lat":34.607572,"lng":135.509589},{"town":"遠里小野七丁目","koaza":"","lat":34.596886,"lng":135.492092},{"town":"我孫子東二丁目","koaza":"","lat":34.599879,"lng":135.511752},{"town":"墨江二丁目","koaza":"","lat":34.608109,"lng":135.495217},{"town":"我孫子三丁目","koaza":"","lat":34.60159,"lng":135.508664},{"town":"大領三丁目","koaza":"","lat":34.615894,"lng":135.506781},{"town":"遠里小野一丁目","koaza":"","lat":34.599821,"lng":135.498404},{"town":"墨江三丁目","koaza":"","lat":34.607767,"lng":135.492003},{"town":"大領五丁目","koaza":"","lat":34.612256,"lng":135.505297},{"town":"苅田六丁目","koaza":"","lat":34.598885,"lng":135.52011},{"town":"上住吉一丁目","koaza":"","lat":34.610578,"lng":135.499012},{"town":"大領四丁目","koaza":"","lat":34.613787,"lng":135.506187},{"town":"我孫子五丁目","koaza":"","lat":34.599041,"lng":135.506146},{"town":"庭井一丁目","koaza":"","lat":34.595487,"lng":135.521247},{"town":"我孫子西一丁目","koaza":"","lat":34.604995,"lng":135.507329},{"town":"長居西一丁目","koaza":"","lat":34.614307,"lng":135.509256},{"town":"我孫子東三丁目","koaza":"","lat":34.595878,"lng":135.511368},{"town":"東粉浜二丁目","koaza":"","lat":34.61985,"lng":135.493403},{"town":"万代六丁目","koaza":"","lat":34.613607,"lng":135.500469},{"town":"山之内四丁目","koaza":"","lat":34.590076,"lng":135.5017},{"town":"南住吉四丁目","koaza":"","lat":34.602249,"lng":135.502182},{"town":"帝塚山西四丁目","koaza":"","lat":34.617474,"lng":135.49575},{"town":"山之内三丁目","koaza":"","lat":34.593749,"lng":135.501415},{"town":"墨江四丁目","koaza":"","lat":34.604875,"lng":135.495935},{"town":"万代三丁目","koaza":"","lat":34.619915,"lng":135.503301},{"town":"遠里小野六丁目","koaza":"","lat":34.596727,"lng":135.494347},{"town":"苅田二丁目","koaza":"","lat":34.604203,"lng":135.515939},{"town":"住吉一丁目","koaza":"","lat":34.613916,"lng":135.496317},{"town":"我孫子四丁目","koaza":"","lat":34.598524,"lng":135.509128},{"town":"我孫子東一丁目","koaza":"","lat":34.604002,"lng":135.512125},{"town":"東粉浜三丁目","koaza":"","lat":34.61602,"lng":135.492302},{"town":"遠里小野五丁目","koaza":"","lat":34.599929,"lng":135.49456},{"town":"苅田三丁目","koaza":"","lat":34.602423,"lng":135.515833},{"town":"浅香二丁目","koaza":"","lat":34.589403,"lng":135.507713},{"town":"苅田五丁目","koaza":"","lat":34.600505,"lng":135.515746},{"town":"長居東二丁目","koaza":"","lat":34.607279,"lng":135.518678},{"town":"苅田四丁目","koaza":"","lat":34.600892,"lng":135.520788},{"town":"杉本二丁目","koaza":"","lat":34.595743,"lng":135.505744},{"town":"苅田十丁目","koaza":"","lat":34.592731,"lng":135.514572},{"town":"長居東一丁目","koaza":"","lat":34.607302,"lng":135.521513},{"town":"苅田一丁目","koaza":"","lat":34.603915,"lng":135.520717},{"town":"山之内二丁目","koaza":"","lat":34.596847,"lng":135.50163},{"town":"苅田九丁目","koaza":"","lat":34.596443,"lng":135.514337},{"town":"長居東四丁目","koaza":"","lat":34.609816,"lng":135.512999},{"town":"遠里小野二丁目","koaza":"","lat":34.596727,"lng":135.497702},{"town":"山之内五丁目","koaza":"","lat":34.589266,"lng":135.499606},{"town":"遠里小野三丁目","koaza":"","lat":34.59375,"lng":135.498088},{"town":"南住吉二丁目","koaza":"","lat":34.608027,"lng":135.504084},{"town":"長居一丁目","koaza":"","lat":34.615044,"lng":135.512933},{"town":"山之内一丁目","koaza":"","lat":34.599943,"lng":135.502555},{"town":"清水丘一丁目","koaza":"","lat":34.604828,"lng":135.492362},{"town":"清水丘三丁目","koaza":"","lat":34.598081,"lng":135.489702},{"town":"清水丘二丁目","koaza":"","lat":34.601608,"lng":135.491565},{"town":"南住吉一丁目","koaza":"","lat":34.61061,"lng":135.504125},{"town":"住吉二丁目","koaza":"","lat":34.613129,"lng":135.493078},{"town":"長居東三丁目","koaza":"","lat":34.607293,"lng":135.515487},{"town":"南住吉三丁目","koaza":"","lat":34.605065,"lng":135.502776},{"town":"庭井二丁目","koaza":"","lat":34.594355,"lng":135.517582},{"town":"浅香一丁目","koaza":"","lat":34.591243,"lng":135.510936},{"town":"杉本三丁目","koaza":"","lat":34.590242,"lng":135.504515}]