[{"town":"曾根崎一丁目","koaza":"","lat":34.698852,"lng":135.50308},{"town":"曾根崎新地一丁目","koaza":"","lat":34.697324,"lng":135.49866},{"town":"曾根崎新地二丁目","koaza":"","lat":34.697427,"lng":135.493487},{"town":"曾根崎二丁目","koaza":"","lat":34.700105,"lng":135.500845},{"town":"池田町","koaza":"","lat":34.707319,"lng":135.51405},{"town":"浮田一丁目","koaza":"","lat":34.709092,"lng":135.508816},{"town":"浮田二丁目","koaza":"","lat":34.709644,"lng":135.507957},{"town":"梅田一丁目","koaza":"","lat":34.700013,"lng":135.497728},{"town":"梅田二丁目","koaza":"","lat":34.698571,"lng":135.49385},{"town":"梅田三丁目","koaza":"","lat":34.700837,"lng":135.493878},{"town":"扇町一丁目","koaza":"","lat":34.703566,"lng":135.509203},{"town":"扇町二丁目","koaza":"","lat":34.704932,"lng":135.508165},{"town":"大深町","koaza":"","lat":34.704761,"lng":135.494368},{"town":"大淀北一丁目","koaza":"","lat":34.708788,"lng":135.482656},{"town":"大淀北二丁目","koaza":"","lat":34.706566,"lng":135.4784},{"town":"大淀中一丁目","koaza":"","lat":34.706045,"lng":135.489321},{"town":"大淀中二丁目","koaza":"","lat":34.704697,"lng":135.486577},{"town":"大淀中三丁目","koaza":"","lat":34.704604,"lng":135.484366},{"town":"大淀中四丁目","koaza":"","lat":34.703779,"lng":135.482644},{"town":"大淀中五丁目","koaza":"","lat":34.703537,"lng":135.479885},{"town":"大淀南一丁目","koaza":"","lat":34.702979,"lng":135.488941},{"town":"大淀南二丁目","koaza":"","lat":34.701909,"lng":135.486012},{"town":"大淀南三丁目","koaza":"","lat":34.701012,"lng":135.482658},{"town":"角田町","koaza":"","lat":34.703749,"lng":135.499277},{"town":"神山町","koaza":"","lat":34.703469,"lng":135.506127},{"town":"菅栄町","koaza":"","lat":34.709209,"lng":135.514223},{"town":"黒崎町","koaza":"","lat":34.707333,"lng":135.508453},{"town":"紅梅町","koaza":"","lat":34.699134,"lng":135.513632},{"town":"国分寺一丁目","koaza":"","lat":34.709604,"lng":135.517258},{"town":"国分寺二丁目","koaza":"","lat":34.711563,"lng":135.512734},{"town":"小松原町","koaza":"","lat":34.70299,"lng":135.501002},{"town":"芝田一丁目","koaza":"","lat":34.706437,"lng":135.49771},{"town":"芝田二丁目","koaza":"","lat":34.706976,"lng":135.495791},{"town":"末広町","koaza":"","lat":34.701242,"lng":135.509987},{"town":"菅原町","koaza":"","lat":34.69301,"lng":135.510373},{"town":"太融寺町","koaza":"","lat":34.701677,"lng":135.50385},{"town":"茶屋町","koaza":"","lat":34.706799,"lng":135.499545},{"town":"鶴野町","koaza":"","lat":34.707634,"lng":135.501109},{"town":"天神西町","koaza":"","lat":34.694848,"lng":135.51018},{"town":"天神橋一丁目","koaza":"","lat":34.693518,"lng":135.512542},{"town":"天神橋二丁目","koaza":"","lat":34.696499,"lng":135.512382},{"town":"天神橋三丁目","koaza":"","lat":34.700779,"lng":135.511911},{"town":"天神橋四丁目","koaza":"","lat":34.70461,"lng":135.511669},{"town":"天神橋五丁目","koaza":"","lat":34.707657,"lng":135.51155},{"town":"天神橋六丁目","koaza":"","lat":34.709845,"lng":135.511862},{"town":"天神橋七丁目","koaza":"","lat":34.712967,"lng":135.51114},{"town":"天神橋八丁目","koaza":"","lat":34.717447,"lng":135.511549},{"town":"天満一丁目","koaza":"","lat":34.69441,"lng":135.520073},{"town":"天満二丁目","koaza":"","lat":34.693617,"lng":135.516756},{"town":"天満三丁目","koaza":"","lat":34.693626,"lng":135.515371},{"town":"天満四丁目","koaza":"","lat":34.693702,"lng":135.514174},{"town":"天満橋一丁目","koaza":"","lat":34.70007,"lng":135.519955},{"town":"天満橋二丁目","koaza":"","lat":34.705623,"lng":135.517045},{"town":"天満橋三丁目","koaza":"","lat":34.704817,"lng":135.515656},{"town":"兎我野町","koaza":"","lat":34.700562,"lng":135.50396},{"town":"豊崎一丁目","koaza":"","lat":34.711107,"lng":135.503145},{"town":"豊崎二丁目","koaza":"","lat":34.710603,"lng":135.501354},{"town":"豊崎三丁目","koaza":"","lat":34.710215,"lng":135.498345},{"town":"豊崎四丁目","koaza":"","lat":34.712826,"lng":135.501399},{"town":"豊崎五丁目","koaza":"","lat":34.712333,"lng":135.499025},{"town":"豊崎六丁目","koaza":"","lat":34.716488,"lng":135.501749},{"town":"豊崎七丁目","koaza":"","lat":34.716173,"lng":135.499266},{"town":"同心一丁目","koaza":"","lat":34.700909,"lng":135.51656},{"town":"同心二丁目","koaza":"","lat":34.70268,"lng":135.51532},{"town":"堂島一丁目","koaza":"","lat":34.696593,"lng":135.497659},{"town":"堂島二丁目","koaza":"","lat":34.696391,"lng":135.493729},{"town":"堂島三丁目","koaza":"","lat":34.69545,"lng":135.491253},{"town":"堂島浜一丁目","koaza":"","lat":34.695272,"lng":135.498431},{"town":"堂島浜二丁目","koaza":"","lat":34.694893,"lng":135.494076},{"town":"堂山町","koaza":"","lat":34.703705,"lng":135.503204},{"town":"中崎一丁目","koaza":"","lat":34.706897,"lng":135.506328},{"town":"中崎二丁目","koaza":"","lat":34.708874,"lng":135.506367},{"town":"中崎三丁目","koaza":"","lat":34.708582,"lng":135.505174},{"town":"中崎西一丁目","koaza":"","lat":34.70718,"lng":135.504428},{"town":"中崎西二丁目","koaza":"","lat":34.705968,"lng":135.50233},{"town":"中崎西三丁目","koaza":"","lat":34.707828,"lng":135.502471},{"town":"中崎西四丁目","koaza":"","lat":34.709176,"lng":135.503319},{"town":"中津一丁目","koaza":"","lat":34.711123,"lng":135.49576},{"town":"中津二丁目","koaza":"","lat":34.715565,"lng":135.496288},{"town":"中津三丁目","koaza":"","lat":34.713599,"lng":135.492823},{"town":"中津四丁目","koaza":"","lat":34.712887,"lng":135.489495},{"town":"中津五丁目","koaza":"","lat":34.706843,"lng":135.491603},{"town":"中津六丁目","koaza":"","lat":34.709029,"lng":135.490083},{"town":"中津七丁目","koaza":"","lat":34.711453,"lng":135.486073},{"town":"中之島一丁目","koaza":"","lat":34.692845,"lng":135.505432},{"town":"中之島二丁目","koaza":"","lat":34.693728,"lng":135.498496},{"town":"中之島三丁目","koaza":"","lat":34.69276,"lng":135.493961},{"town":"中之島四丁目","koaza":"","lat":34.691617,"lng":135.490988},{"town":"中之島五丁目","koaza":"","lat":34.690282,"lng":135.487948},{"town":"中之島六丁目","koaza":"","lat":34.68709,"lng":135.484386},{"town":"長柄中一丁目","koaza":"","lat":34.711324,"lng":135.514724},{"town":"長柄中二丁目","koaza":"","lat":34.713947,"lng":135.515234},{"town":"長柄中三丁目","koaza":"","lat":34.718052,"lng":135.514762},{"town":"長柄西一丁目","koaza":"","lat":34.713932,"lng":135.513068},{"town":"長柄西二丁目","koaza":"","lat":34.717736,"lng":135.513174},{"town":"長柄東一丁目","koaza":"","lat":34.711419,"lng":135.518461},{"town":"長柄東二丁目","koaza":"","lat":34.714968,"lng":135.518686},{"town":"長柄東三丁目","koaza":"","lat":34.718206,"lng":135.517552},{"town":"浪花町","koaza":"","lat":34.708405,"lng":135.510176},{"town":"錦町","koaza":"","lat":34.705195,"lng":135.51341},{"town":"西天満一丁目","koaza":"","lat":34.694216,"lng":135.507002},{"town":"西天満二丁目","koaza":"","lat":34.695696,"lng":135.503439},{"town":"西天満三丁目","koaza":"","lat":34.696006,"lng":135.507571},{"town":"西天満四丁目","koaza":"","lat":34.696982,"lng":135.503863},{"town":"西天満五丁目","koaza":"","lat":34.698791,"lng":135.507656},{"town":"西天満六丁目","koaza":"","lat":34.698863,"lng":135.505136},{"town":"野崎町","koaza":"","lat":34.701142,"lng":135.507085},{"town":"万歳町","koaza":"","lat":34.705472,"lng":135.504522},{"town":"東天満一丁目","koaza":"","lat":34.696594,"lng":135.515865},{"town":"東天満二丁目","koaza":"","lat":34.69784,"lng":135.514538},{"town":"樋之口町","koaza":"","lat":34.707728,"lng":135.516655},{"town":"本庄西一丁目","koaza":"","lat":34.71099,"lng":135.505472},{"town":"本庄西二丁目","koaza":"","lat":34.713382,"lng":135.504735},{"town":"本庄西三丁目","koaza":"","lat":34.716905,"lng":135.505006},{"town":"本庄東一丁目","koaza":"","lat":34.711518,"lng":135.508714},{"town":"本庄東二丁目","koaza":"","lat":34.713626,"lng":135.508591},{"town":"本庄東三丁目","koaza":"","lat":34.717381,"lng":135.508636},{"town":"松ケ枝町","koaza":"","lat":34.698973,"lng":135.516411},{"town":"南扇町","koaza":"","lat":34.701231,"lng":135.508693},{"town":"南森町一丁目","koaza":"","lat":34.696589,"lng":135.510137},{"town":"南森町二丁目","koaza":"","lat":34.698709,"lng":135.510081},{"town":"山崎町","koaza":"","lat":34.706082,"lng":135.508907},{"town":"与力町","koaza":"","lat":34.700977,"lng":135.513905}]