[{"town":"大字杉","koaza":"","lat":34.807013,"lng":135.719584},{"town":"大字津田","koaza":"","lat":34.798162,"lng":135.714013},{"town":"大字尊延寺","koaza":"","lat":34.804801,"lng":135.739502},{"town":"大字穂谷","koaza":"","lat":34.785685,"lng":135.726083},{"town":"朝日丘町","koaza":"","lat":34.810031,"lng":135.649569},{"town":"天之川町","koaza":"","lat":34.82111,"lng":135.649617},{"town":"伊加賀北町","koaza":"","lat":34.809115,"lng":135.641705},{"town":"伊加賀寿町","koaza":"","lat":34.80762,"lng":135.636001},{"town":"伊加賀栄町","koaza":"","lat":34.805155,"lng":135.634214},{"town":"伊加賀西町","koaza":"","lat":34.807297,"lng":135.628598},{"town":"伊加賀東町","koaza":"","lat":34.810292,"lng":135.63876},{"town":"伊加賀本町","koaza":"","lat":34.80992,"lng":135.63697},{"town":"伊加賀緑町","koaza":"","lat":34.807607,"lng":135.633567},{"town":"伊加賀南町","koaza":"","lat":34.807553,"lng":135.641264},{"town":"池之宮一丁目","koaza":"","lat":34.813318,"lng":135.674249},{"town":"池之宮二丁目","koaza":"","lat":34.811791,"lng":135.67186},{"town":"池之宮三丁目","koaza":"","lat":34.810482,"lng":135.676436},{"town":"池之宮四丁目","koaza":"","lat":34.811097,"lng":135.6804},{"town":"磯島北町","koaza":"","lat":34.827218,"lng":135.649098},{"town":"磯島茶屋町","koaza":"","lat":34.825422,"lng":135.651072},{"town":"磯島南町","koaza":"","lat":34.821215,"lng":135.646767},{"town":"磯島元町","koaza":"","lat":34.824057,"lng":135.647123},{"town":"印田町","koaza":"","lat":34.805189,"lng":135.664702},{"town":"上野一丁目","koaza":"","lat":34.829065,"lng":135.659506},{"town":"上野二丁目","koaza":"","lat":34.826819,"lng":135.660095},{"town":"上野三丁目","koaza":"","lat":34.827606,"lng":135.66679},{"town":"宇山町","koaza":"","lat":34.844431,"lng":135.670343},{"town":"宇山東町","koaza":"","lat":34.842431,"lng":135.673082},{"town":"大垣内町一丁目","koaza":"","lat":34.812756,"lng":135.650022},{"town":"大垣内町二丁目","koaza":"","lat":34.813546,"lng":135.652903},{"town":"大垣内町三丁目","koaza":"","lat":34.811015,"lng":135.654093},{"town":"大峰北町一丁目","koaza":"","lat":34.818574,"lng":135.685636},{"town":"大峰北町二丁目","koaza":"","lat":34.817295,"lng":135.688306},{"town":"大峰東町","koaza":"","lat":34.814017,"lng":135.690623},{"town":"大峰南町","koaza":"","lat":34.811677,"lng":135.688325},{"town":"大峰元町一丁目","koaza":"","lat":34.815544,"lng":135.68482},{"town":"大峰元町二丁目","koaza":"","lat":34.815438,"lng":135.686818},{"town":"岡東町","koaza":"","lat":34.815887,"lng":135.649872},{"town":"岡本町","koaza":"","lat":34.815435,"lng":135.646284},{"town":"岡南町","koaza":"","lat":34.813117,"lng":135.645807},{"town":"岡山手町","koaza":"","lat":34.810198,"lng":135.646386},{"town":"小倉町","koaza":"","lat":34.83421,"lng":135.663215},{"town":"小倉東町","koaza":"","lat":34.835273,"lng":135.66793},{"town":"甲斐田新町","koaza":"","lat":34.822644,"lng":135.676141},{"town":"甲斐田町","koaza":"","lat":34.825161,"lng":135.669424},{"town":"甲斐田東町","koaza":"","lat":34.82533,"lng":135.67325},{"town":"春日北町一丁目","koaza":"","lat":34.810243,"lng":135.683855},{"town":"春日北町二丁目","koaza":"","lat":34.807797,"lng":135.684067},{"town":"春日北町三丁目","koaza":"","lat":34.805289,"lng":135.68433},{"town":"春日北町四丁目","koaza":"","lat":34.804853,"lng":135.688601},{"town":"春日北町五丁目","koaza":"","lat":34.806422,"lng":135.688059},{"town":"春日西町一丁目","koaza":"","lat":34.806965,"lng":135.680817},{"town":"春日西町二丁目","koaza":"","lat":34.803912,"lng":135.679916},{"town":"春日西町三丁目","koaza":"","lat":34.801851,"lng":135.681675},{"town":"春日西町四丁目","koaza":"","lat":34.802622,"lng":135.684427},{"town":"春日野一丁目","koaza":"","lat":34.809258,"lng":135.6873},{"town":"春日野二丁目","koaza":"","lat":34.809223,"lng":135.690764},{"town":"春日東町一丁目","koaza":"","lat":34.803826,"lng":135.692612},{"town":"春日東町二丁目","koaza":"","lat":34.801529,"lng":135.6921},{"town":"春日元町一丁目","koaza":"","lat":34.802598,"lng":135.688191},{"town":"春日元町二丁目","koaza":"","lat":34.800659,"lng":135.687744},{"town":"片鉾東町","koaza":"","lat":34.834679,"lng":135.67501},{"town":"片鉾本町","koaza":"","lat":34.830601,"lng":135.672505},{"town":"上島町","koaza":"","lat":34.849434,"lng":135.669896},{"town":"上島東町","koaza":"","lat":34.850165,"lng":135.674939},{"town":"川原町","koaza":"","lat":34.815494,"lng":135.652909},{"town":"菊丘町","koaza":"","lat":34.804464,"lng":135.643071},{"town":"菊丘南町","koaza":"","lat":34.800747,"lng":135.643513},{"town":"北片鉾町","koaza":"","lat":34.835885,"lng":135.672123},{"town":"北楠葉町","koaza":"","lat":34.871044,"lng":135.682091},{"town":"北中振一丁目","koaza":"","lat":34.799114,"lng":135.632773},{"town":"北中振二丁目","koaza":"","lat":34.795911,"lng":135.632802},{"town":"北中振三丁目","koaza":"","lat":34.798184,"lng":135.629081},{"town":"北中振四丁目","koaza":"","lat":34.797254,"lng":135.626809},{"town":"北船橋町","koaza":"","lat":34.855132,"lng":135.680766},{"town":"北山一丁目","koaza":"","lat":34.841079,"lng":135.70276},{"town":"禁野本町一丁目","koaza":"","lat":34.81792,"lng":135.655971},{"town":"禁野本町二丁目","koaza":"","lat":34.820903,"lng":135.656422},{"town":"楠葉朝日一丁目","koaza":"","lat":34.856494,"lng":135.685679},{"town":"楠葉朝日二丁目","koaza":"","lat":34.858849,"lng":135.685674},{"town":"楠葉朝日三丁目","koaza":"","lat":34.860723,"lng":135.689748},{"town":"楠葉丘一丁目","koaza":"","lat":34.862591,"lng":135.688588},{"town":"楠葉丘二丁目","koaza":"","lat":34.865643,"lng":135.690263},{"town":"楠葉中之芝一丁目","koaza":"","lat":34.873497,"lng":135.680435},{"town":"楠葉中之芝二丁目","koaza":"","lat":34.87808,"lng":135.681819},{"town":"楠葉中町","koaza":"","lat":34.868383,"lng":135.681235},{"town":"楠葉並木一丁目","koaza":"","lat":34.856717,"lng":135.679953},{"town":"楠葉並木二丁目","koaza":"","lat":34.858995,"lng":135.680496},{"town":"楠葉野田一丁目","koaza":"","lat":34.866246,"lng":135.682817},{"town":"楠葉野田二丁目","koaza":"","lat":34.865988,"lng":135.686603},{"town":"楠葉野田三丁目","koaza":"","lat":34.868884,"lng":135.687882},{"town":"楠葉花園町","koaza":"","lat":34.859357,"lng":135.67579},{"town":"楠葉美咲一丁目","koaza":"","lat":34.854942,"lng":135.687106},{"town":"楠葉美咲二丁目","koaza":"","lat":34.856732,"lng":135.689288},{"town":"楠葉美咲三丁目","koaza":"","lat":34.858875,"lng":135.690305},{"town":"楠葉面取町","koaza":"","lat":34.854831,"lng":135.689576},{"town":"楠葉面取町一丁目","koaza":"","lat":34.851538,"lng":135.692147},{"town":"楠葉面取町二丁目","koaza":"","lat":34.854396,"lng":135.691254},{"town":"車塚一丁目","koaza":"","lat":34.834265,"lng":135.669859},{"town":"車塚二丁目","koaza":"","lat":34.833954,"lng":135.67169},{"town":"高田一丁目","koaza":"","lat":34.777678,"lng":135.659159},{"town":"高田二丁目","koaza":"","lat":34.779724,"lng":135.660861},{"town":"交北一丁目","koaza":"","lat":34.829038,"lng":135.674103},{"town":"交北二丁目","koaza":"","lat":34.830389,"lng":135.676465},{"town":"交北三丁目","koaza":"","lat":34.832083,"lng":135.679586},{"town":"交北四丁目","koaza":"","lat":34.829083,"lng":135.680276},{"town":"高野道一丁目","koaza":"","lat":34.84378,"lng":135.698389},{"town":"高野道二丁目","koaza":"","lat":34.848338,"lng":135.700216},{"town":"香里園桜木町","koaza":"","lat":34.791541,"lng":135.639996},{"town":"香里園町","koaza":"","lat":34.786972,"lng":135.636538},{"town":"香里園東之町","koaza":"","lat":34.787463,"lng":135.641806},{"town":"香里園山之手町","koaza":"","lat":34.789681,"lng":135.635928},{"town":"香里ケ丘一丁目","koaza":"","lat":34.792888,"lng":135.661212},{"town":"香里ケ丘十丁目","koaza":"","lat":34.787277,"lng":135.644952},{"town":"香里ケ丘十一丁目","koaza":"","lat":34.78663,"lng":135.651602},{"town":"香里ケ丘十二丁目","koaza":"","lat":34.788698,"lng":135.656741},{"town":"香里ケ丘二丁目","koaza":"","lat":34.793691,"lng":135.655438},{"town":"香里ケ丘三丁目","koaza":"","lat":34.790986,"lng":135.656038},{"town":"香里ケ丘四丁目","koaza":"","lat":34.789428,"lng":135.651689},{"town":"香里ケ丘五丁目","koaza":"","lat":34.793915,"lng":135.650054},{"town":"香里ケ丘六丁目","koaza":"","lat":34.797516,"lng":135.646909},{"town":"香里ケ丘七丁目","koaza":"","lat":34.793167,"lng":135.647472},{"town":"香里ケ丘八丁目","koaza":"","lat":34.792812,"lng":135.644398},{"town":"香里ケ丘九丁目","koaza":"","lat":34.789247,"lng":135.647214},{"town":"黄金野一丁目","koaza":"","lat":34.838927,"lng":135.665287},{"town":"黄金野二丁目","koaza":"","lat":34.837403,"lng":135.668388},{"town":"御殿山町","koaza":"","lat":34.828042,"lng":135.656418},{"town":"御殿山南町","koaza":"","lat":34.824307,"lng":135.657029},{"town":"桜丘町","koaza":"","lat":34.806433,"lng":135.670875},{"town":"桜町","koaza":"","lat":34.810402,"lng":135.63383},{"town":"釈尊寺町","koaza":"","lat":34.791763,"lng":135.66612},{"town":"招提大谷一丁目","koaza":"","lat":34.832882,"lng":135.692346},{"town":"招提大谷二丁目","koaza":"","lat":34.833992,"lng":135.695638},{"town":"招提大谷三丁目","koaza":"","lat":34.83129,"lng":135.694228},{"town":"招提北町一丁目","koaza":"","lat":34.846673,"lng":135.684765},{"town":"招提北町二丁目","koaza":"","lat":34.846219,"lng":135.688279},{"town":"招提北町三丁目","koaza":"","lat":34.848938,"lng":135.685963},{"town":"招提田近一丁目","koaza":"","lat":34.840604,"lng":135.692144},{"town":"招提田近二丁目","koaza":"","lat":34.842363,"lng":135.694005},{"town":"招提田近三丁目","koaza":"","lat":34.845252,"lng":135.695678},{"town":"招提中町一丁目","koaza":"","lat":34.837608,"lng":135.680243},{"town":"招提中町二丁目","koaza":"","lat":34.838091,"lng":135.683416},{"town":"招提中町三丁目","koaza":"","lat":34.837879,"lng":135.687961},{"town":"招提東町一丁目","koaza":"","lat":34.833146,"lng":135.690045},{"town":"招提東町二丁目","koaza":"","lat":34.835029,"lng":135.687684},{"town":"招提東町三丁目","koaza":"","lat":34.836567,"lng":135.690702},{"town":"招提平野町","koaza":"","lat":34.840093,"lng":135.679838},{"town":"招提南町一丁目","koaza":"","lat":34.833896,"lng":135.680576},{"town":"招提南町二丁目","koaza":"","lat":34.833478,"lng":135.683248},{"town":"招提南町三丁目","koaza":"","lat":34.831599,"lng":135.686239},{"town":"招提元町一丁目","koaza":"","lat":34.840497,"lng":135.685606},{"town":"招提元町二丁目","koaza":"","lat":34.843365,"lng":135.683572},{"town":"招提元町三丁目","koaza":"","lat":34.842957,"lng":135.686329},{"town":"招提元町四丁目","koaza":"","lat":34.8421,"lng":135.689018},{"town":"新之栄町","koaza":"","lat":34.823688,"lng":135.668201},{"town":"新町一丁目","koaza":"","lat":34.81735,"lng":135.648351},{"town":"新町二丁目","koaza":"","lat":34.817611,"lng":135.645563},{"town":"翠香園町","koaza":"","lat":34.800618,"lng":135.638881},{"town":"杉一丁目","koaza":"","lat":34.811008,"lng":135.719315},{"town":"杉二丁目","koaza":"","lat":34.811159,"lng":135.721712},{"town":"杉三丁目","koaza":"","lat":34.81529,"lng":135.716295},{"town":"杉四丁目","koaza":"","lat":34.815341,"lng":135.712271},{"town":"杉北町一丁目","koaza":"","lat":34.818468,"lng":135.729343},{"town":"杉責谷一丁目","koaza":"","lat":34.811078,"lng":135.72591},{"town":"杉山手一丁目","koaza":"","lat":34.816472,"lng":135.720685},{"town":"杉山手二丁目","koaza":"","lat":34.816189,"lng":135.722307},{"town":"杉山手三丁目","koaza":"","lat":34.815411,"lng":135.724065},{"town":"須山町","koaza":"","lat":34.821606,"lng":135.672658},{"town":"宗谷一丁目","koaza":"","lat":34.799423,"lng":135.733436},{"town":"宗谷二丁目","koaza":"","lat":34.798037,"lng":135.736136},{"town":"尊延寺一丁目","koaza":"","lat":34.805192,"lng":135.724416},{"town":"尊延寺二丁目","koaza":"","lat":34.806645,"lng":135.727002},{"town":"尊延寺三丁目","koaza":"","lat":34.802728,"lng":135.726619},{"town":"尊延寺四丁目","koaza":"","lat":34.806048,"lng":135.730983},{"town":"尊延寺五丁目","koaza":"","lat":34.800962,"lng":135.729244},{"town":"尊延寺六丁目","koaza":"","lat":34.803529,"lng":135.732078},{"town":"高塚町","koaza":"","lat":34.806115,"lng":135.644461},{"town":"田口一丁目","koaza":"","lat":34.826595,"lng":135.674568},{"town":"田口二丁目","koaza":"","lat":34.826715,"lng":135.679664},{"town":"田口三丁目","koaza":"","lat":34.823705,"lng":135.678425},{"town":"田口四丁目","koaza":"","lat":34.824785,"lng":135.680716},{"town":"田口五丁目","koaza":"","lat":34.828645,"lng":135.684366},{"town":"田口山一丁目","koaza":"","lat":34.829327,"lng":135.68921},{"town":"田口山二丁目","koaza":"","lat":34.828928,"lng":135.692157},{"town":"田口山三丁目","koaza":"","lat":34.827902,"lng":135.69574},{"town":"田宮本町","koaza":"","lat":34.807218,"lng":135.650793},{"town":"津田駅前一丁目","koaza":"","lat":34.80165,"lng":135.695794},{"town":"津田駅前二丁目","koaza":"","lat":34.80141,"lng":135.699769},{"town":"津田北町一丁目","koaza":"","lat":34.811381,"lng":135.698466},{"town":"津田北町二丁目","koaza":"","lat":34.811291,"lng":135.704251},{"town":"津田北町三丁目","koaza":"","lat":34.813868,"lng":135.712005},{"town":"津田西町一丁目","koaza":"","lat":34.809107,"lng":135.698196},{"town":"津田西町二丁目","koaza":"","lat":34.806295,"lng":135.697899},{"town":"津田西町三丁目","koaza":"","lat":34.804702,"lng":135.697053},{"town":"津田東町一丁目","koaza":"","lat":34.810714,"lng":135.70975},{"town":"津田東町二丁目","koaza":"","lat":34.80944,"lng":135.712936},{"town":"津田東町三丁目","koaza":"","lat":34.812218,"lng":135.713993},{"town":"津田南町一丁目","koaza":"","lat":34.799642,"lng":135.703121},{"town":"津田南町二丁目","koaza":"","lat":34.802008,"lng":135.704166},{"town":"津田元町一丁目","koaza":"","lat":34.807158,"lng":135.701025},{"town":"津田元町二丁目","koaza":"","lat":34.80836,"lng":135.705289},{"town":"津田元町三丁目","koaza":"","lat":34.805136,"lng":135.703001},{"town":"津田元町四丁目","koaza":"","lat":34.803127,"lng":135.700796},{"town":"津田山手一丁目","koaza":"","lat":34.806693,"lng":135.708558},{"town":"津田山手二丁目","koaza":"","lat":34.803167,"lng":135.711477},{"town":"堤町","koaza":"","lat":34.812185,"lng":135.638434},{"town":"出口一丁目","koaza":"","lat":34.80383,"lng":135.629192},{"town":"出口二丁目","koaza":"","lat":34.804468,"lng":135.62189},{"town":"出口三丁目","koaza":"","lat":34.800428,"lng":135.626706},{"town":"出口四丁目","koaza":"","lat":34.800452,"lng":135.622154},{"town":"出口五丁目","koaza":"","lat":34.797237,"lng":135.624003},{"town":"出口六丁目","koaza":"","lat":34.797435,"lng":135.620125},{"town":"出屋敷西町一丁目","koaza":"","lat":34.820675,"lng":135.678972},{"town":"出屋敷西町二丁目","koaza":"","lat":34.823483,"lng":135.682544},{"town":"出屋敷元町一丁目","koaza":"","lat":34.823584,"lng":135.685564},{"town":"出屋敷元町二丁目","koaza":"","lat":34.826233,"lng":135.686422},{"town":"藤田町","koaza":"","lat":34.796539,"lng":135.660462},{"town":"堂山一丁目","koaza":"","lat":34.81666,"lng":135.669397},{"town":"堂山二丁目","koaza":"","lat":34.816612,"lng":135.67117},{"town":"堂山三丁目","koaza":"","lat":34.818887,"lng":135.672411},{"town":"堂山東町","koaza":"","lat":34.815835,"lng":135.672292},{"town":"中宮大池一丁目","koaza":"","lat":34.816912,"lng":135.676343},{"town":"中宮大池二丁目","koaza":"","lat":34.814631,"lng":135.680907},{"town":"中宮大池三丁目","koaza":"","lat":34.816382,"lng":135.681741},{"town":"中宮大池四丁目","koaza":"","lat":34.819211,"lng":135.683384},{"town":"中宮北町","koaza":"","lat":34.823239,"lng":135.660278},{"town":"中宮西之町","koaza":"","lat":34.816887,"lng":135.661559},{"town":"中宮東之町","koaza":"","lat":34.820662,"lng":135.666065},{"town":"中宮本町","koaza":"","lat":34.819485,"lng":135.661405},{"town":"中宮山戸町","koaza":"","lat":34.817109,"lng":135.666168},{"town":"長尾荒阪一丁目","koaza":"","lat":34.831644,"lng":135.714194},{"town":"長尾荒阪二丁目","koaza":"","lat":34.836322,"lng":135.713615},{"town":"長尾家具町一丁目","koaza":"","lat":34.846109,"lng":135.703},{"town":"長尾家具町二丁目","koaza":"","lat":34.842336,"lng":135.709187},{"town":"長尾家具町三丁目","koaza":"","lat":34.83831,"lng":135.70867},{"town":"長尾家具町四丁目","koaza":"","lat":34.837139,"lng":135.707267},{"town":"長尾家具町五丁目","koaza":"","lat":34.837685,"lng":135.703907},{"town":"長尾北町一丁目","koaza":"","lat":34.83544,"lng":135.699853},{"town":"長尾北町二丁目","koaza":"","lat":34.835068,"lng":135.704158},{"town":"長尾北町三丁目","koaza":"","lat":34.834966,"lng":135.708619},{"town":"長尾谷町一丁目","koaza":"","lat":34.829903,"lng":135.699201},{"town":"長尾谷町二丁目","koaza":"","lat":34.824884,"lng":135.701602},{"town":"長尾谷町三丁目","koaza":"","lat":34.822949,"lng":135.700393},{"town":"長尾台一丁目","koaza":"","lat":34.821881,"lng":135.716609},{"town":"長尾台二丁目","koaza":"","lat":34.819504,"lng":135.716997},{"town":"長尾台三丁目","koaza":"","lat":34.817021,"lng":135.717881},{"town":"長尾台四丁目","koaza":"","lat":34.820274,"lng":135.72037},{"town":"長尾峠町","koaza":"","lat":34.848521,"lng":135.705333},{"town":"長尾西町一丁目","koaza":"","lat":34.831041,"lng":135.700813},{"town":"長尾西町二丁目","koaza":"","lat":34.832094,"lng":135.701621},{"town":"長尾西町三丁目","koaza":"","lat":34.832785,"lng":135.704218},{"town":"長尾播磨谷一丁目","koaza":"","lat":34.830564,"lng":135.717244},{"town":"長尾東町一丁目","koaza":"","lat":34.824713,"lng":135.716605},{"town":"長尾東町二丁目","koaza":"","lat":34.826906,"lng":135.719176},{"town":"長尾東町三丁目","koaza":"","lat":34.823761,"lng":135.722617},{"town":"長尾宮前一丁目","koaza":"","lat":34.822942,"lng":135.712716},{"town":"長尾宮前二丁目","koaza":"","lat":34.823978,"lng":135.714185},{"town":"長尾元町一丁目","koaza":"","lat":34.824758,"lng":135.706665},{"town":"長尾元町二丁目","koaza":"","lat":34.826629,"lng":135.705282},{"town":"長尾元町三丁目","koaza":"","lat":34.829483,"lng":135.706213},{"town":"長尾元町四丁目","koaza":"","lat":34.82796,"lng":135.709647},{"town":"長尾元町五丁目","koaza":"","lat":34.825264,"lng":135.711138},{"town":"長尾元町六丁目","koaza":"","lat":34.830559,"lng":135.711762},{"town":"長尾元町七丁目","koaza":"","lat":34.832273,"lng":135.708273},{"town":"渚内野一丁目","koaza":"","lat":34.83567,"lng":135.655043},{"town":"渚内野二丁目","koaza":"","lat":34.836823,"lng":135.65324},{"town":"渚内野三丁目","koaza":"","lat":34.840381,"lng":135.655466},{"town":"渚内野四丁目","koaza":"","lat":34.838877,"lng":135.657788},{"town":"渚栄町","koaza":"","lat":34.834536,"lng":135.660074},{"town":"渚西一丁目","koaza":"","lat":34.82937,"lng":135.651873},{"town":"渚西二丁目","koaza":"","lat":34.832499,"lng":135.653429},{"town":"渚西三丁目","koaza":"","lat":34.831944,"lng":135.650285},{"town":"渚東町","koaza":"","lat":34.830919,"lng":135.662805},{"town":"渚本町","koaza":"","lat":34.830086,"lng":135.656405},{"town":"渚南町","koaza":"","lat":34.825673,"lng":135.653823},{"town":"渚元町","koaza":"","lat":34.831866,"lng":135.657893},{"town":"茄子作一丁目","koaza":"","lat":34.786833,"lng":135.661573},{"town":"茄子作二丁目","koaza":"","lat":34.785646,"lng":135.666423},{"town":"茄子作三丁目","koaza":"","lat":34.782833,"lng":135.661974},{"town":"茄子作四丁目","koaza":"","lat":34.781981,"lng":135.667792},{"town":"茄子作五丁目","koaza":"","lat":34.779388,"lng":135.664389},{"town":"茄子作北町","koaza":"","lat":34.789605,"lng":135.663116},{"town":"茄子作東町","koaza":"","lat":34.786747,"lng":135.669871},{"town":"茄子作南町","koaza":"","lat":34.779475,"lng":135.669871},{"town":"西禁野一丁目","koaza":"","lat":34.820692,"lng":135.651213},{"town":"西禁野二丁目","koaza":"","lat":34.820852,"lng":135.652952},{"town":"西招提町","koaza":"","lat":34.846381,"lng":135.681738},{"town":"西田宮町","koaza":"","lat":34.806596,"lng":135.647429},{"town":"西船橋一丁目","koaza":"","lat":34.85332,"lng":135.676789},{"town":"西船橋二丁目","koaza":"","lat":34.853993,"lng":135.67334},{"town":"西牧野一丁目","koaza":"","lat":34.84177,"lng":135.659782},{"town":"西牧野二丁目","koaza":"","lat":34.843994,"lng":135.659966},{"town":"西牧野三丁目","koaza":"","lat":34.846483,"lng":135.661541},{"town":"西牧野四丁目","koaza":"","lat":34.844658,"lng":135.66349},{"town":"野村北町","koaza":"","lat":34.813075,"lng":135.695051},{"town":"野村中町","koaza":"","lat":34.809884,"lng":135.693521},{"town":"野村南町","koaza":"","lat":34.805622,"lng":135.693138},{"town":"野村元町","koaza":"","lat":34.807675,"lng":135.693963},{"town":"走谷一丁目","koaza":"","lat":34.802008,"lng":135.637131},{"town":"走谷二丁目","koaza":"","lat":34.80272,"lng":135.633085},{"town":"東香里一丁目","koaza":"","lat":34.779027,"lng":135.656017},{"town":"東香里二丁目","koaza":"","lat":34.780259,"lng":135.65141},{"town":"東香里三丁目","koaza":"","lat":34.784363,"lng":135.651106},{"town":"東香里新町","koaza":"","lat":34.785822,"lng":135.657774},{"town":"東香里南町","koaza":"","lat":34.776225,"lng":135.653617},{"town":"東香里元町","koaza":"","lat":34.782779,"lng":135.656568},{"town":"東田宮一丁目","koaza":"","lat":34.809332,"lng":135.652606},{"town":"東田宮二丁目","koaza":"","lat":34.807294,"lng":135.655511},{"town":"東藤田町","koaza":"","lat":34.795713,"lng":135.662059},{"town":"東中振一丁目","koaza":"","lat":34.797382,"lng":135.641643},{"town":"東中振二丁目","koaza":"","lat":34.795601,"lng":135.639032},{"town":"東船橋一丁目","koaza":"","lat":34.853154,"lng":135.684297},{"town":"東船橋二丁目","koaza":"","lat":34.85238,"lng":135.686748},{"town":"東牧野町","koaza":"","lat":34.838022,"lng":135.676829},{"town":"東山一丁目","koaza":"","lat":34.850851,"lng":135.689175},{"town":"東山二丁目","koaza":"","lat":34.848587,"lng":135.691502},{"town":"樋之上町","koaza":"","lat":34.853801,"lng":135.670048},{"town":"氷室台一丁目","koaza":"","lat":34.809512,"lng":135.729215},{"town":"枚方上之町","koaza":"","lat":34.811134,"lng":135.644149},{"town":"枚方公園町","koaza":"","lat":34.806447,"lng":135.638756},{"town":"枚方元町","koaza":"","lat":34.812545,"lng":135.64177},{"town":"藤阪北町","koaza":"","lat":34.822719,"lng":135.703985},{"town":"藤阪天神町","koaza":"","lat":34.81616,"lng":135.706761},{"town":"藤阪中町","koaza":"","lat":34.822194,"lng":135.706774},{"town":"藤阪西町","koaza":"","lat":34.820619,"lng":135.698419},{"town":"藤阪東町一丁目","koaza":"","lat":34.82019,"lng":135.709372},{"town":"藤阪東町二丁目","koaza":"","lat":34.821213,"lng":135.712735},{"town":"藤阪東町三丁目","koaza":"","lat":34.819439,"lng":135.713873},{"town":"藤阪東町四丁目","koaza":"","lat":34.817698,"lng":135.711596},{"town":"藤阪南町一丁目","koaza":"","lat":34.815304,"lng":135.696322},{"town":"藤阪南町二丁目","koaza":"","lat":34.815105,"lng":135.701251},{"town":"藤阪南町三丁目","koaza":"","lat":34.814488,"lng":135.706296},{"town":"藤阪元町一丁目","koaza":"","lat":34.81707,"lng":135.700253},{"town":"藤阪元町二丁目","koaza":"","lat":34.81891,"lng":135.69997},{"town":"藤阪元町三丁目","koaza":"","lat":34.819545,"lng":135.704344},{"town":"船橋本町一丁目","koaza":"","lat":34.852756,"lng":135.679954},{"town":"船橋本町二丁目","koaza":"","lat":34.852579,"lng":135.682544},{"town":"星丘一丁目","koaza":"","lat":34.806398,"lng":135.659859},{"town":"星丘二丁目","koaza":"","lat":34.809506,"lng":135.663312},{"town":"星丘三丁目","koaza":"","lat":34.806706,"lng":135.662719},{"town":"星丘四丁目","koaza":"","lat":34.810377,"lng":135.669539},{"town":"穂谷一丁目","koaza":"","lat":34.796698,"lng":135.732012},{"town":"穂谷二丁目","koaza":"","lat":34.793933,"lng":135.729376},{"town":"穂谷三丁目","koaza":"","lat":34.790758,"lng":135.73128},{"town":"穂谷四丁目","koaza":"","lat":34.792816,"lng":135.734312},{"town":"牧野北町","koaza":"","lat":34.848797,"lng":135.664035},{"town":"牧野阪一丁目","koaza":"","lat":34.843057,"lng":135.664255},{"town":"牧野阪二丁目","koaza":"","lat":34.84289,"lng":135.666801},{"town":"牧野阪三丁目","koaza":"","lat":34.840553,"lng":135.667053},{"town":"牧野下島町","koaza":"","lat":34.846128,"lng":135.667789},{"town":"牧野本町一丁目","koaza":"","lat":34.839675,"lng":135.670763},{"town":"牧野本町二丁目","koaza":"","lat":34.838942,"lng":135.674423},{"town":"町楠葉一丁目","koaza":"","lat":34.864448,"lng":135.678032},{"town":"町楠葉二丁目","koaza":"","lat":34.869401,"lng":135.677943},{"town":"松丘町","koaza":"","lat":34.813673,"lng":135.666316},{"town":"三矢町","koaza":"","lat":34.814084,"lng":135.641243},{"town":"南楠葉一丁目","koaza":"","lat":34.862509,"lng":135.68116},{"town":"南楠葉二丁目","koaza":"","lat":34.863085,"lng":135.684629},{"town":"南中振一丁目","koaza":"","lat":34.792291,"lng":135.632112},{"town":"南中振二丁目","koaza":"","lat":34.792414,"lng":135.627918},{"town":"南中振三丁目","koaza":"","lat":34.79296,"lng":135.622341},{"town":"南船橋一丁目","koaza":"","lat":34.847844,"lng":135.678724},{"town":"南船橋二丁目","koaza":"","lat":34.849558,"lng":135.680702},{"town":"都丘町","koaza":"","lat":34.821079,"lng":135.669459},{"town":"宮之阪一丁目","koaza":"","lat":34.814527,"lng":135.655479},{"town":"宮之阪二丁目","koaza":"","lat":34.815934,"lng":135.657519},{"town":"宮之阪三丁目","koaza":"","lat":34.813536,"lng":135.66053},{"town":"宮之阪四丁目","koaza":"","lat":34.811086,"lng":135.660264},{"town":"宮之阪五丁目","koaza":"","lat":34.810606,"lng":135.656906},{"town":"宮之下町","koaza":"","lat":34.795607,"lng":135.656005},{"town":"村野高見台","koaza":"","lat":34.805865,"lng":135.676045},{"town":"村野西町","koaza":"","lat":34.802028,"lng":135.661796},{"town":"村野東町","koaza":"","lat":34.800773,"lng":135.671715},{"town":"村野本町","koaza":"","lat":34.801578,"lng":135.667423},{"town":"村野南町","koaza":"","lat":34.797771,"lng":135.664777},{"town":"三栗一丁目","koaza":"","lat":34.834428,"lng":135.65715},{"town":"三栗二丁目","koaza":"","lat":34.839028,"lng":135.661355},{"town":"養父丘一丁目","koaza":"","lat":34.842914,"lng":135.67555},{"town":"養父丘二丁目","koaza":"","lat":34.842979,"lng":135.679555},{"town":"養父西町","koaza":"","lat":34.847608,"lng":135.67071},{"town":"養父東町","koaza":"","lat":34.845963,"lng":135.677403},{"town":"養父元町","koaza":"","lat":34.84784,"lng":135.674259},{"town":"山田池北町","koaza":"","lat":34.825778,"lng":135.693096},{"town":"山田池公園","koaza":"","lat":34.822314,"lng":135.690838},{"town":"山田池東町","koaza":"","lat":34.824214,"lng":135.696652},{"town":"山田池南町","koaza":"","lat":34.819992,"lng":135.689027},{"town":"山之上一丁目","koaza":"","lat":34.80069,"lng":135.655148},{"town":"山之上二丁目","koaza":"","lat":34.800325,"lng":135.657336},{"town":"山之上三丁目","koaza":"","lat":34.800734,"lng":135.659502},{"town":"山之上四丁目","koaza":"","lat":34.798389,"lng":135.655773},{"town":"山之上五丁目","koaza":"","lat":34.798273,"lng":135.650953},{"town":"山之上北町","koaza":"","lat":34.803445,"lng":135.652659},{"town":"山之上西町","koaza":"","lat":34.801911,"lng":135.647736},{"town":"山之上東町","koaza":"","lat":34.80452,"lng":135.656989},{"town":"王仁公園","koaza":"","lat":34.818298,"lng":135.706914}]