[{"town":"鳴滝","koaza":"","lat":"34.373508","lng":"135.275194"},{"town":"馬場","koaza":"","lat":"34.360966","lng":"135.271601"},{"town":"樽井","koaza":"","lat":"34.362486","lng":"135.273831"},{"town":"幡代","koaza":"","lat":"34.347490","lng":"135.265826"},{"town":"鳴滝二丁目","koaza":"","lat":"34.373564","lng":"135.273730"},{"town":"鳴滝一丁目","koaza":"","lat":"34.372300","lng":"135.273345"},{"town":"鳴滝三丁目","koaza":"","lat":"34.374311","lng":"135.271788"},{"town":"男里","koaza":"","lat":"34.375987","lng":"135.251777"},{"town":"北野一丁目","koaza":"","lat":"34.381780","lng":"135.281700"},{"town":"中小路三丁目","koaza":"","lat":"34.375860","lng":"135.275517"},{"town":"樽井九丁目","koaza":"","lat":"34.370322","lng":"135.272479"},{"town":"岡田七丁目","koaza":"","lat":"34.391853","lng":"135.281536"},{"town":"男里二丁目","koaza":"","lat":"34.361957","lng":"135.259331"},{"town":"男里一丁目","koaza":"","lat":"34.356143","lng":"135.260784"},{"town":"樽井八丁目","koaza":"","lat":"34.375120","lng":"135.268698"},{"town":"男里三丁目","koaza":"","lat":"34.361063","lng":"135.256138"},{"town":"樽井一丁目","koaza":"","lat":"34.368487","lng":"135.270888"},{"town":"中小路一丁目","koaza":"","lat":"34.377965","lng":"135.280481"},{"town":"馬場三丁目","koaza":"","lat":"34.358389","lng":"135.270220"},{"town":"岡田四丁目","koaza":"","lat":"34.384538","lng":"135.282566"},{"town":"北野","koaza":"","lat":"34.381127","lng":"135.288659"},{"town":"岡田三丁目","koaza":"","lat":"34.383188","lng":"135.278203"},{"town":"幡代三丁目","koaza":"","lat":"34.355856","lng":"135.270122"},{"town":"樽井六丁目","koaza":"","lat":"34.372364","lng":"135.264046"},{"town":"馬場一丁目","koaza":"","lat":"34.362067","lng":"135.268893"},{"town":"男里六丁目","koaza":"","lat":"34.368769","lng":"135.251869"},{"town":"幡代二丁目","koaza":"","lat":"34.349910","lng":"135.265248"},{"town":"岡田五丁目","koaza":"","lat":"34.385556","lng":"135.276634"},{"town":"岡田二丁目","koaza":"","lat":"34.380513","lng":"135.275003"},{"town":"中小路二丁目","koaza":"","lat":"34.374425","lng":"135.280097"},{"town":"樽井五丁目","koaza":"","lat":"34.371528","lng":"135.261241"},{"town":"男里七丁目","koaza":"","lat":"34.371642","lng":"135.253972"},{"town":"樽井七丁目","koaza":"","lat":"34.374739","lng":"135.265225"},{"town":"男里五丁目","koaza":"","lat":"34.367856","lng":"135.255767"},{"town":"樽井三丁目","koaza":"","lat":"34.364918","lng":"135.263984"},{"town":"岡田一丁目","koaza":"","lat":"34.378235","lng":"135.272180"},{"town":"岡田六丁目","koaza":"","lat":"34.389418","lng":"135.279553"},{"town":"北野二丁目","koaza":"","lat":"34.380055","lng":"135.284715"},{"town":"馬場二丁目","koaza":"","lat":"34.360922","lng":"135.263991"},{"town":"樽井四丁目","koaza":"","lat":"34.369758","lng":"135.259097"},{"town":"男里四丁目","koaza":"","lat":"34.363634","lng":"135.253791"},{"town":"幡代一丁目","koaza":"","lat":"34.355482","lng":"135.264150"},{"town":"樽井二丁目","koaza":"","lat":"34.366158","lng":"135.269098"},{"town":"別所","koaza":"","lat":"34.363715","lng":"135.318101"},{"town":"信達大苗代","koaza":"","lat":"34.370936","lng":"135.290362"},{"town":"兎田","koaza":"","lat":"34.373118","lng":"135.313660"},{"town":"りんくう南浜","koaza":"","lat":"34.382930","lng":"135.268806"},{"town":"信達牧野","koaza":"","lat":"34.359180","lng":"135.278849"},{"town":"泉州空港南","koaza":"","lat":"34.421154","lng":"135.228884"},{"town":"信達六尾","koaza":"","lat":"34.343764","lng":"135.299173"},{"town":"信達金熊寺","koaza":"","lat":"34.333394","lng":"135.290484"},{"town":"信達市場","koaza":"","lat":"34.360622","lng":"135.290033"},{"town":"信達童子畑","koaza":"","lat":"34.325474","lng":"135.307999"},{"town":"信達岡中","koaza":"","lat":"34.336896","lng":"135.274859"},{"town":"信達楠畑","koaza":"","lat":"34.314938","lng":"135.294508"},{"town":"信達葛畑","koaza":"","lat":"34.328115","lng":"135.326012"},{"town":"新家","koaza":"","lat":"34.358445","lng":"135.307721"}]