[{"town":"大字新井","lat":"36.438067","lng":"138.970280"},{"town":"大字上野原","lat":"36.459895","lng":"138.936629"},{"town":"大字長岡","lat":"36.450961","lng":"138.979964"},{"town":"大字広馬場","lat":"36.441590","lng":"138.941024"},{"town":"大字山子田","lat":"36.446486","lng":"138.966970"}]