[{"town":"赤城町勝保沢","lat":"36.523192","lng":"139.048309"},{"town":"赤城町上三原田","lat":"36.508536","lng":"139.043628"},{"town":"赤城町北赤城山","lat":"36.562036","lng":"139.138453"},{"town":"赤城町北上野","lat":"36.533952","lng":"139.054832"},{"town":"赤城町栄","lat":"36.516750","lng":"139.081483"},{"town":"赤城町敷島","lat":"36.534969","lng":"139.038727"},{"town":"赤城町滝沢","lat":"36.514255","lng":"139.043937"},{"town":"赤城町棚下","lat":"36.575661","lng":"139.061763"},{"town":"赤城町樽","lat":"36.508994","lng":"139.022321"},{"town":"赤城町津久田","lat":"36.551440","lng":"139.049646"},{"town":"赤城町長井小川田","lat":"36.561064","lng":"139.066489"},{"town":"赤城町溝呂木","lat":"36.518903","lng":"139.063149"},{"town":"赤城町見立","lat":"36.514616","lng":"139.034375"},{"town":"赤城町南赤城山","lat":"36.533282","lng":"139.098776"},{"town":"赤城町三原田","lat":"36.505948","lng":"139.030909"},{"town":"赤城町宮田","lat":"36.525189","lng":"139.030832"},{"town":"赤城町深山","lat":"36.564016","lng":"139.096408"},{"town":"赤城町持柏木","lat":"36.503269","lng":"139.052259"},{"town":"阿久津","lat":"36.506671","lng":"139.006712"},{"town":"有馬","lat":"36.469138","lng":"138.982007"},{"town":"伊香保町伊香保","lat":"36.490004","lng":"138.922353"},{"town":"伊香保町水沢","lat":"36.478689","lng":"138.944834"},{"town":"伊香保町湯中子","lat":"36.499627","lng":"138.900223"},{"town":"石原","lat":"36.487267","lng":"138.982217"},{"town":"祖母島","lat":"36.529489","lng":"138.949585"},{"town":"小野子","lat":"36.564547","lng":"138.956733"},{"town":"金井","lat":"36.511510","lng":"138.977948"},{"town":"上白井","lat":"36.563164","lng":"139.026635"},{"town":"川島","lat":"36.522591","lng":"138.967566"},{"town":"北牧","lat":"36.531446","lng":"138.990961"},{"town":"渋川","lat":"36.496038","lng":"138.978716"},{"town":"白井","lat":"36.512443","lng":"139.013015"},{"town":"中郷","lat":"36.555138","lng":"139.003391"},{"town":"中村","lat":"36.480736","lng":"139.016360"},{"town":"南牧","lat":"36.523226","lng":"138.988906"},{"town":"半田","lat":"36.463807","lng":"139.029575"},{"town":"吹屋","lat":"36.523302","lng":"139.014905"},{"town":"北橘町赤城山","lat":"36.507236","lng":"139.085236"},{"town":"北橘町上南室","lat":"36.497064","lng":"139.064439"},{"town":"北橘町上箱田","lat":"36.491471","lng":"139.070406"},{"town":"北橘町小室","lat":"36.492525","lng":"139.044817"},{"town":"北橘町下南室","lat":"36.487154","lng":"139.051492"},{"town":"北橘町下箱田","lat":"36.463838","lng":"139.043355"},{"town":"北橘町箱田","lat":"36.472262","lng":"139.052450"},{"town":"北橘町八崎","lat":"36.495205","lng":"139.029409"},{"town":"北橘町分郷八崎","lat":"36.483756","lng":"139.028455"},{"town":"北橘町真壁","lat":"36.479144","lng":"139.042420"},{"town":"行幸田","lat":"36.477439","lng":"138.983165"},{"town":"村上","lat":"36.567151","lng":"138.913381"},{"town":"八木原","lat":"36.464913","lng":"139.016970"},{"town":"横堀","lat":"36.553907","lng":"138.983210"}]