[{"town":"大字秋畑","lat":"36.185447","lng":"138.874489"},{"town":"大字天引","lat":"36.223722","lng":"138.951010"},{"town":"大字上野","lat":"36.236947","lng":"138.926077"},{"town":"大字小川","lat":"36.248780","lng":"138.934512"},{"town":"大字小幡","lat":"36.219174","lng":"138.919337"},{"town":"大字金井","lat":"36.254270","lng":"138.949726"},{"town":"大字国峰","lat":"36.221039","lng":"138.893856"},{"town":"大字白倉","lat":"36.225492","lng":"138.933592"},{"town":"大字善慶寺","lat":"36.233608","lng":"138.909449"},{"town":"大字造石","lat":"36.260296","lng":"138.946566"},{"town":"大字轟","lat":"36.205828","lng":"138.909917"},{"town":"大字庭谷","lat":"36.262246","lng":"138.939866"},{"town":"大字福島","lat":"36.253304","lng":"138.926143"}]