[{"town":"鮎川","lat":"36.234662","lng":"139.045154"},{"town":"牛田","lat":"36.211308","lng":"139.071798"},{"town":"岡之郷","lat":"36.264459","lng":"139.096584"},{"town":"鬼石","lat":"36.163222","lng":"139.054343"},{"town":"金井","lat":"36.214161","lng":"139.032364"},{"town":"上大塚","lat":"36.241624","lng":"139.052822"},{"town":"上落合","lat":"36.263928","lng":"139.040292"},{"town":"上栗須","lat":"36.263378","lng":"139.068999"},{"town":"上戸塚","lat":"36.247171","lng":"139.094628"},{"town":"上日野","lat":"36.173019","lng":"138.938118"},{"town":"川除","lat":"36.214051","lng":"139.077967"},{"town":"小林","lat":"36.239677","lng":"139.089407"},{"town":"坂原","lat":"36.130805","lng":"138.979234"},{"town":"三波川","lat":"36.160820","lng":"138.994830"},{"town":"三本木","lat":"36.210131","lng":"139.047930"},{"town":"篠塚","lat":"36.263197","lng":"139.061526"},{"town":"下大塚","lat":"36.257659","lng":"139.059332"},{"town":"下栗須","lat":"36.262773","lng":"139.086833"},{"town":"下戸塚","lat":"36.254154","lng":"139.095044"},{"town":"下日野","lat":"36.198327","lng":"138.997459"},{"town":"浄法寺","lat":"36.185400","lng":"139.048310"},{"town":"白石","lat":"36.248824","lng":"139.036215"},{"town":"神田","lat":"36.214228","lng":"139.064050"},{"town":"高山","lat":"36.192570","lng":"139.021959"},{"town":"立石","lat":"36.279345","lng":"139.088302"},{"town":"立石新田","lat":"36.283426","lng":"139.099998"},{"town":"中","lat":"36.276353","lng":"139.068312"},{"town":"中大塚","lat":"36.249375","lng":"139.054945"},{"town":"中栗須","lat":"36.261873","lng":"139.076337"},{"town":"中島","lat":"36.288178","lng":"139.080840"},{"town":"西平井","lat":"36.227461","lng":"139.025769"},{"town":"根岸","lat":"36.229672","lng":"139.084884"},{"town":"東平井","lat":"36.224682","lng":"139.044375"},{"town":"藤岡","lat":"36.239435","lng":"139.070946"},{"town":"保美","lat":"36.200139","lng":"139.057713"},{"town":"保美濃山","lat":"36.142284","lng":"139.007831"},{"town":"本郷","lat":"36.228689","lng":"139.075137"},{"town":"三ツ木","lat":"36.257092","lng":"139.027491"},{"town":"緑埜","lat":"36.236181","lng":"139.038186"},{"town":"本動堂","lat":"36.262200","lng":"139.052008"},{"town":"森","lat":"36.277238","lng":"139.076601"},{"town":"森新田","lat":"36.278866","lng":"139.059855"},{"town":"矢場","lat":"36.217629","lng":"139.053530"},{"town":"譲原","lat":"36.141090","lng":"139.031434"}]