[{"town":"大字一ノ谷","lat":"36.086480","lng":"139.820201"},{"town":"大字稲尾","lat":"36.142142","lng":"139.792792"},{"town":"大字内門","lat":"36.117218","lng":"139.827150"},{"town":"大字浦向","lat":"36.092253","lng":"139.808355"},{"town":"大字金岡","lat":"36.082812","lng":"139.810398"},{"town":"大字上小橋","lat":"36.117337","lng":"139.805179"},{"town":"大字桐ケ作","lat":"36.064544","lng":"139.818841"},{"town":"大字栗山","lat":"36.130082","lng":"139.826286"},{"town":"大字猿山","lat":"36.140758","lng":"139.802469"},{"town":"大字志鳥","lat":"36.149117","lng":"139.793725"},{"town":"大字下砂井","lat":"36.136796","lng":"139.824277"},{"town":"大字下小橋","lat":"36.103455","lng":"139.805966"},{"town":"大字蛇池","lat":"36.129930","lng":"139.812875"},{"town":"大字染谷","lat":"36.098024","lng":"139.817145"},{"town":"大字塚崎","lat":"36.123349","lng":"139.774225"},{"town":"大字長井戸","lat":"36.126908","lng":"139.796356"},{"town":"大字西泉田","lat":"36.117163","lng":"139.815800"},{"town":"大字新田戸","lat":"36.072362","lng":"139.813192"},{"town":"大字伏木","lat":"36.095454","lng":"139.829877"},{"town":"大字百戸","lat":"36.076234","lng":"139.821437"},{"town":"大字山崎","lat":"36.122678","lng":"139.836210"},{"town":"大字横塚","lat":"36.145636","lng":"139.782552"},{"town":"大字若林","lat":"36.073566","lng":"139.837762"},{"town":"大字大歩","lat":"36.108089","lng":"139.825568"},{"town":"陽光台一丁目","lat":"36.110855","lng":"139.805023"},{"town":"陽光台二丁目","lat":"36.108508","lng":"139.804746"},{"town":"（大字なし）","lat":"36.078699","lng":"139.807629"}]