[{"town":"阿曽浦","koaza":"","lat":34.260002,"lng":136.595635},{"town":"泉","koaza":"","lat":34.357696,"lng":136.725487},{"town":"伊勢路","koaza":"","lat":34.366164,"lng":136.655595},{"town":"相賀浦","koaza":"","lat":34.29366,"lng":136.63879},{"town":"大江","koaza":"","lat":34.299928,"lng":136.609321},{"town":"大方竈","koaza":"","lat":34.265909,"lng":136.596442},{"town":"小方竈","koaza":"","lat":34.246224,"lng":136.49087},{"town":"押渕","koaza":"","lat":34.321942,"lng":136.614312},{"town":"神前浦","koaza":"","lat":34.260021,"lng":136.505371},{"town":"木谷","koaza":"","lat":34.322944,"lng":136.722674},{"town":"切原","koaza":"","lat":34.373753,"lng":136.713443},{"town":"河内","koaza":"","lat":34.299453,"lng":136.518833},{"town":"古和浦","koaza":"","lat":34.269681,"lng":136.451053},{"town":"神津佐","koaza":"","lat":34.351515,"lng":136.735325},{"town":"五ヶ所浦","koaza":"","lat":34.355484,"lng":136.702194},{"town":"斎田","koaza":"","lat":34.352223,"lng":136.623164},{"town":"礫浦","koaza":"","lat":34.309082,"lng":136.667627},{"town":"新桑竈","koaza":"","lat":34.232896,"lng":136.436883},{"town":"下津浦","koaza":"","lat":34.330191,"lng":136.735003},{"town":"宿浦","koaza":"","lat":34.308193,"lng":136.699569},{"town":"慥柄浦","koaza":"","lat":34.292142,"lng":136.561495},{"town":"田曽浦","koaza":"","lat":34.294982,"lng":136.701744},{"town":"棚橋竈","koaza":"","lat":34.254914,"lng":136.429226},{"town":"東宮","koaza":"","lat":34.292051,"lng":136.543468},{"town":"栃木竈","koaza":"","lat":34.24461,"lng":136.471099},{"town":"内瀬","koaza":"","lat":34.348613,"lng":136.658795},{"town":"中津浜浦","koaza":"","lat":34.330078,"lng":136.686576},{"town":"奈屋浦","koaza":"","lat":34.278908,"lng":136.542068},{"town":"贄浦","koaza":"","lat":34.283462,"lng":136.553291},{"town":"迫間浦","koaza":"","lat":34.317639,"lng":136.637661},{"town":"始神","koaza":"","lat":34.340029,"lng":136.615602},{"town":"飯満","koaza":"","lat":34.345999,"lng":136.71089},{"town":"船越","koaza":"","lat":34.348395,"lng":136.680977},{"town":"方座浦","koaza":"","lat":34.252618,"lng":136.506496},{"town":"道方","koaza":"","lat":34.305308,"lng":136.572252},{"town":"道行竈","koaza":"","lat":34.282908,"lng":136.606781},{"town":"村山","koaza":"","lat":34.29957,"lng":136.480182}]