[{"town":"厳原町安神","lat":"34.146684","lng":"129.268475"},{"town":"厳原町浅藻","lat":"34.112966","lng":"129.218333"},{"town":"厳原町阿連","lat":"34.266857","lng":"129.213631"},{"town":"厳原町今屋敷","lat":"34.202871","lng":"129.289356"},{"town":"厳原町内山","lat":"34.159628","lng":"129.235004"},{"town":"厳原町尾浦","lat":"34.159739","lng":"129.279084"},{"town":"厳原町大手橋","lat":"34.201603","lng":"129.292808"},{"town":"厳原町樫根","lat":"34.197463","lng":"129.240096"},{"town":"厳原町北里","lat":"34.223702","lng":"129.276728"},{"town":"厳原町久田","lat":"34.186431","lng":"129.275967"},{"town":"厳原町久田道","lat":"34.196466","lng":"129.288012"},{"town":"厳原町久根田舎","lat":"34.176383","lng":"129.201548"},{"town":"厳原町久根浜","lat":"34.163336","lng":"129.184553"},{"town":"厳原町久和","lat":"34.131163","lng":"129.255428"},{"town":"厳原町上槻","lat":"34.195759","lng":"129.194213"},{"town":"厳原町小浦","lat":"34.233338","lng":"129.298417"},{"town":"厳原町国分","lat":"34.202149","lng":"129.288321"},{"town":"厳原町小茂田","lat":"34.233700","lng":"129.196960"},{"town":"厳原町桟原","lat":"34.216812","lng":"129.287398"},{"town":"厳原町佐須瀬","lat":"34.157027","lng":"129.203104"},{"town":"厳原町椎根","lat":"34.212199","lng":"129.206597"},{"town":"厳原町下原","lat":"34.212671","lng":"129.253815"},{"town":"厳原町田渕","lat":"34.203962","lng":"129.292479"},{"town":"厳原町豆酘","lat":"34.123214","lng":"129.187540"},{"town":"厳原町豆酘瀬","lat":"34.145178","lng":"129.193340"},{"town":"厳原町豆酘内院","lat":"34.115625","lng":"129.226052"},{"town":"厳原町天道茂","lat":"34.206580","lng":"129.294128"},{"town":"厳原町中村","lat":"34.207221","lng":"129.290330"},{"town":"厳原町南室","lat":"34.226486","lng":"129.292225"},{"town":"厳原町西里","lat":"34.204700","lng":"129.276852"},{"town":"厳原町東里","lat":"34.206015","lng":"129.298227"},{"town":"厳原町日吉","lat":"34.210126","lng":"129.292408"},{"town":"厳原町曲","lat":"34.222239","lng":"129.309425"},{"town":"厳原町宮谷","lat":"34.211297","lng":"129.284522"},{"town":"厳原町与良内院","lat":"34.123194","lng":"129.236833"},{"town":"上県町伊奈","lat":"34.566456","lng":"129.333170"},{"town":"上県町犬ケ浦","lat":"34.538146","lng":"129.337468"},{"town":"上県町女連","lat":"34.501297","lng":"129.305286"},{"town":"上県町飼所","lat":"34.521717","lng":"129.376560"},{"town":"上県町樫滝","lat":"34.521477","lng":"129.345529"},{"town":"上県町久原","lat":"34.505927","lng":"129.313984"},{"town":"上県町越高","lat":"34.552870","lng":"129.335966"},{"town":"上県町佐護","lat":"34.607711","lng":"129.353557"},{"town":"上県町佐須奈","lat":"34.632529","lng":"129.399474"},{"town":"上県町鹿見","lat":"34.515665","lng":"129.324311"},{"town":"上県町志多留","lat":"34.575685","lng":"129.310469"},{"town":"上県町瀬田","lat":"34.562561","lng":"129.387685"},{"town":"上県町西津屋","lat":"34.667325","lng":"129.409012"},{"town":"上県町御園","lat":"34.541240","lng":"129.331206"},{"town":"上対馬町芦見","lat":"34.546231","lng":"129.442442"},{"town":"上対馬町泉","lat":"34.674912","lng":"129.466762"},{"town":"上対馬町大浦","lat":"34.672866","lng":"129.440878"},{"town":"上対馬町大増","lat":"34.626980","lng":"129.435343"},{"town":"上対馬町小鹿","lat":"34.511725","lng":"129.424206"},{"town":"上対馬町河内","lat":"34.667567","lng":"129.426247"},{"town":"上対馬町琴","lat":"34.560053","lng":"129.452903"},{"town":"上対馬町玖須","lat":"34.643557","lng":"129.430807"},{"town":"上対馬町五根緒","lat":"34.593298","lng":"129.462643"},{"town":"上対馬町舟志","lat":"34.599411","lng":"129.428213"},{"town":"上対馬町唐舟志","lat":"34.626677","lng":"129.464866"},{"town":"上対馬町冨浦","lat":"34.636110","lng":"129.479797"},{"town":"上対馬町豊","lat":"34.688019","lng":"129.457517"},{"town":"上対馬町浜久須","lat":"34.636194","lng":"129.451319"},{"town":"上対馬町比田勝","lat":"34.653791","lng":"129.456215"},{"town":"上対馬町一重","lat":"34.539733","lng":"129.422762"},{"town":"上対馬町古里","lat":"34.663128","lng":"129.460944"},{"town":"上対馬町鰐浦","lat":"34.695725","lng":"129.445161"},{"town":"豊玉町糸瀬","lat":"34.373633","lng":"129.323860"},{"town":"豊玉町卯麦","lat":"34.393125","lng":"129.297942"},{"town":"豊玉町大綱","lat":"34.413046","lng":"129.298365"},{"town":"豊玉町貝口","lat":"34.369008","lng":"129.276105"},{"town":"豊玉町貝鮒","lat":"34.349325","lng":"129.287212"},{"town":"豊玉町唐洲","lat":"34.359395","lng":"129.259688"},{"town":"豊玉町小綱","lat":"34.422159","lng":"129.282986"},{"town":"豊玉町嵯峨","lat":"34.357623","lng":"129.317102"},{"town":"豊玉町佐志賀","lat":"34.368130","lng":"129.308064"},{"town":"豊玉町佐保","lat":"34.396204","lng":"129.281440"},{"town":"豊玉町志多浦","lat":"34.410716","lng":"129.280792"},{"town":"豊玉町曽","lat":"34.425408","lng":"129.349573"},{"town":"豊玉町田","lat":"34.427407","lng":"129.306080"},{"town":"豊玉町千尋藻","lat":"34.413324","lng":"129.369446"},{"town":"豊玉町仁位","lat":"34.396322","lng":"129.320048"},{"town":"豊玉町廻","lat":"34.360152","lng":"129.237164"},{"town":"豊玉町銘","lat":"34.433468","lng":"129.282250"},{"town":"豊玉町横浦","lat":"34.395943","lng":"129.388692"},{"town":"豊玉町和板","lat":"34.389762","lng":"129.340906"},{"town":"美津島町犬吠","lat":"34.316329","lng":"129.364403"},{"town":"美津島町今里","lat":"34.287413","lng":"129.214309"},{"town":"美津島町大船越","lat":"34.288321","lng":"129.338920"},{"town":"美津島町緒方","lat":"34.291577","lng":"129.382001"},{"town":"美津島町尾崎","lat":"34.312933","lng":"129.211218"},{"town":"美津島町大山","lat":"34.322852","lng":"129.341442"},{"town":"美津島町加志","lat":"34.280036","lng":"129.245226"},{"town":"美津島町鴨居瀬","lat":"34.346924","lng":"129.397931"},{"town":"美津島町賀谷","lat":"34.368331","lng":"129.367866"},{"town":"美津島町久須保","lat":"34.289309","lng":"129.366045"},{"town":"美津島町黒瀬","lat":"34.297129","lng":"129.289618"},{"town":"美津島町け知","lat":"34.271005","lng":"129.310351"},{"town":"美津島町島山","lat":"34.321384","lng":"129.320229"},{"town":"美津島町洲藻","lat":"34.266008","lng":"129.267436"},{"town":"美津島町竹敷","lat":"34.297077","lng":"129.296899"},{"town":"美津島町根緒","lat":"34.239150","lng":"129.312035"},{"town":"美津島町濃部","lat":"34.367847","lng":"129.354878"},{"town":"美津島町昼ケ浦","lat":"34.317139","lng":"129.276733"},{"town":"美津島町吹崎","lat":"34.299112","lng":"129.247439"},{"town":"美津島町箕形","lat":"34.291713","lng":"129.266118"},{"town":"美津島町芦浦","lat":"34.353582","lng":"129.375690"},{"town":"峰町青海","lat":"34.473679","lng":"129.282265"},{"town":"峰町賀佐","lat":"34.444252","lng":"129.303802"},{"town":"峰町狩尾","lat":"34.458155","lng":"129.296007"},{"town":"峰町木坂","lat":"34.462750","lng":"129.285053"},{"town":"峰町櫛","lat":"34.436871","lng":"129.363048"},{"town":"峰町佐賀","lat":"34.460839","lng":"129.369238"},{"town":"峰町津柳","lat":"34.486657","lng":"129.295616"},{"town":"峰町三根","lat":"34.476965","lng":"129.329480"},{"town":"峰町吉田","lat":"34.443178","lng":"129.331137"},{"town":"美津島町小船越","lat":"34.335168","lng":"129.360258"},{"town":"豊玉町鑓川","lat":"34.394717","lng":"129.351680"},{"town":"峰町志多賀","lat":"34.489486","lng":"129.393177"},{"town":"上対馬町網代","lat":"34.642019","lng":"129.470807"},{"town":"上対馬町西泊","lat":"34.659998","lng":"129.478976"}]