[{"town":"字大潟","koaza":"","lat":39.998211,"lng":139.965744},{"town":"字方上","koaza":"","lat":39.953168,"lng":139.999871},{"town":"字方口","koaza":"","lat":40.062444,"lng":140.012586},{"town":"字中央","koaza":"","lat":40.019498,"lng":139.959752},{"town":"字中野","koaza":"","lat":40.008926,"lng":139.999447},{"town":"字西野","koaza":"","lat":39.966598,"lng":139.951381},{"town":"字東野","koaza":"","lat":39.990793,"lng":140.040686},{"town":"字北一丁目","koaza":"","lat":40.028216,"lng":139.955905},{"town":"字西一丁目","koaza":"","lat":40.014578,"lng":139.955688},{"town":"字東一丁目","koaza":"","lat":40.014757,"lng":139.963941},{"town":"字南一丁目","koaza":"","lat":40.009722,"lng":139.959151},{"town":"字北二丁目","koaza":"","lat":40.028432,"lng":139.962982},{"town":"字西二丁目","koaza":"","lat":40.019316,"lng":139.955658},{"town":"字東二丁目","koaza":"","lat":40.018158,"lng":139.963906},{"town":"字南二丁目","koaza":"","lat":40.004424,"lng":139.957701},{"town":"字西三丁目","koaza":"","lat":40.02424,"lng":139.955535},{"town":"字東三丁目","koaza":"","lat":40.023642,"lng":139.963853},{"town":"字西四丁目","koaza":"","lat":40.027064,"lng":139.951291},{"town":"字東四丁目","koaza":"","lat":40.026013,"lng":139.972013},{"town":"字西五丁目","koaza":"","lat":40.009509,"lng":139.947044},{"town":"字東五丁目","koaza":"","lat":40.017027,"lng":139.972142}]