[{"town":"字アカシア一丁目","lat":"36.634066","lng":"136.635087"},{"town":"字アカシア二丁目","lat":"36.635306","lng":"136.635839"},{"town":"字旭ケ丘","lat":"36.629518","lng":"136.632406"},{"town":"字大根布","lat":"36.655892","lng":"136.655006"},{"town":"字大根布二丁目","lat":"36.650543","lng":"136.648961"},{"town":"字大根布三丁目","lat":"36.651584","lng":"136.650186"},{"town":"字大根布四丁目","lat":"36.653529","lng":"136.650261"},{"town":"字大根布五丁目","lat":"36.656515","lng":"136.651325"},{"town":"字大根布六丁目","lat":"36.648966","lng":"136.644398"},{"town":"字大根布七丁目","lat":"36.651305","lng":"136.646185"},{"town":"字大根布八丁目","lat":"36.647980","lng":"136.644659"},{"town":"字向陽台一丁目","lat":"36.637697","lng":"136.634310"},{"town":"字向陽台二丁目","lat":"36.638889","lng":"136.632942"},{"town":"字湖西","lat":"36.677199","lng":"136.680147"},{"town":"字大学一丁目","lat":"36.656461","lng":"136.646093"},{"town":"字大学二丁目","lat":"36.655242","lng":"136.648322"},{"town":"字大清台","lat":"36.650928","lng":"136.642799"},{"town":"字千鳥台一丁目","lat":"36.635471","lng":"136.626914"},{"town":"字千鳥台二丁目","lat":"36.643026","lng":"136.632995"},{"town":"字千鳥台三丁目","lat":"36.640800","lng":"136.629036"},{"town":"字千鳥台四丁目","lat":"36.638635","lng":"136.623353"},{"town":"字千鳥台五丁目","lat":"36.642241","lng":"136.625854"},{"town":"字鶴ケ丘一丁目","lat":"36.639501","lng":"136.641049"},{"town":"字鶴ケ丘三丁目","lat":"36.643422","lng":"136.640129"},{"town":"字鶴ケ丘四丁目","lat":"36.643288","lng":"136.637368"},{"town":"字鶴ケ丘五丁目","lat":"36.647080","lng":"136.640259"},{"town":"字西荒屋","lat":"36.683066","lng":"136.670665"},{"town":"字ハマナス一丁目","lat":"36.652698","lng":"136.641312"},{"town":"字ハマナス二丁目","lat":"36.657001","lng":"136.643981"},{"town":"字緑台一丁目","lat":"36.634738","lng":"136.630680"},{"town":"字緑台二丁目","lat":"36.632504","lng":"136.628652"},{"town":"字宮坂","lat":"36.673304","lng":"136.652627"},{"town":"字向粟崎一丁目","lat":"36.629087","lng":"136.635720"},{"town":"字向粟崎二丁目","lat":"36.633194","lng":"136.638290"},{"town":"字向粟崎三丁目","lat":"36.631391","lng":"136.632558"},{"town":"字向粟崎四丁目","lat":"36.631994","lng":"136.631601"},{"town":"字向粟崎五丁目","lat":"36.638052","lng":"136.638284"},{"town":"字室","lat":"36.693432","lng":"136.675695"},{"town":"白帆台一丁目","lat":"36.669041","lng":"136.655249"},{"town":"白帆台二丁目","lat":"36.675071","lng":"136.660339"},{"town":"字鶴ケ丘二丁目","lat":"36.643871","lng":"136.643757"},{"town":"字向粟崎","lat":"36.640364","lng":"136.646542"},{"town":"字大根布九丁目","lat":"36.645602","lng":"136.646896"},{"town":"字大根布一丁目","lat":"36.647356","lng":"136.647367"}]