[{"town":"秋常町","lat":"36.446746","lng":"136.515168"},{"town":"莇生町","lat":"36.446158","lng":"136.575532"},{"town":"荒屋町","lat":"36.443572","lng":"136.524959"},{"town":"石子町","lat":"36.438540","lng":"136.509989"},{"town":"泉台町","lat":"36.430879","lng":"136.522308"},{"town":"岩内町","lat":"36.446794","lng":"136.566930"},{"town":"岩本町","lat":"36.446445","lng":"136.613304"},{"town":"牛島町","lat":"36.427036","lng":"136.498353"},{"town":"大長野町","lat":"36.428414","lng":"136.487072"},{"town":"大浜町","lat":"36.457872","lng":"136.457726"},{"town":"上開発町","lat":"36.448042","lng":"136.539040"},{"town":"上清水町","lat":"36.457398","lng":"136.525704"},{"town":"北市町","lat":"36.454190","lng":"136.532211"},{"town":"倉重町","lat":"36.452717","lng":"136.542526"},{"town":"高座町","lat":"36.445532","lng":"136.520109"},{"town":"五間堂町","lat":"36.443487","lng":"136.483898"},{"town":"小杉町","lat":"36.420148","lng":"136.485813"},{"town":"小長野町","lat":"36.432870","lng":"136.489425"},{"town":"金剛寺町","lat":"36.427725","lng":"136.572190"},{"town":"佐野町","lat":"36.428128","lng":"136.508789"},{"town":"三道山町","lat":"36.447445","lng":"136.505615"},{"town":"下開発町","lat":"36.445047","lng":"136.531251"},{"town":"下清水町","lat":"36.461001","lng":"136.516635"},{"town":"下ノ江町","lat":"36.440049","lng":"136.457107"},{"town":"新保町","lat":"36.454273","lng":"136.515354"},{"town":"末信町","lat":"36.434239","lng":"136.500469"},{"town":"大成町","lat":"36.450356","lng":"136.462113"},{"town":"大成町一丁目","lat":"36.450088","lng":"136.466890"},{"town":"大成町二丁目","lat":"36.448375","lng":"136.466513"},{"town":"大成町三丁目","lat":"36.449320","lng":"136.469295"},{"town":"高坂町","lat":"36.438088","lng":"136.449624"},{"town":"舘町","lat":"36.425488","lng":"136.558650"},{"town":"辰口町","lat":"36.444967","lng":"136.547600"},{"town":"坪野町","lat":"36.425183","lng":"136.590829"},{"town":"出口町","lat":"36.457734","lng":"136.540517"},{"town":"寺井町","lat":"36.441257","lng":"136.497663"},{"town":"寺畠町","lat":"36.419981","lng":"136.550854"},{"town":"道林町","lat":"36.441682","lng":"136.444058"},{"town":"徳山町","lat":"36.433951","lng":"136.547876"},{"town":"徳久町","lat":"36.449200","lng":"136.527490"},{"town":"中ノ江町","lat":"36.440038","lng":"136.467571"},{"town":"中庄町","lat":"36.447341","lng":"136.479882"},{"town":"中町","lat":"36.451764","lng":"136.452464"},{"town":"鍋谷町","lat":"36.407536","lng":"136.585666"},{"town":"西旭台町","lat":"36.440676","lng":"136.565254"},{"town":"西任田町","lat":"36.449615","lng":"136.487715"},{"town":"西二口町","lat":"36.445015","lng":"136.470810"},{"town":"根上町","lat":"36.436699","lng":"136.444910"},{"town":"能美一丁目","lat":"36.454959","lng":"136.491529"},{"town":"能美二丁目","lat":"36.455607","lng":"136.489213"},{"town":"能美三丁目","lat":"36.453553","lng":"136.489012"},{"town":"浜開発町","lat":"36.445267","lng":"136.461864"},{"town":"浜町","lat":"36.447341","lng":"136.451020"},{"town":"東任田町","lat":"36.449615","lng":"136.493776"},{"town":"火釜町","lat":"36.453509","lng":"136.561060"},{"town":"福岡町","lat":"36.451033","lng":"136.475345"},{"town":"福島町","lat":"36.458137","lng":"136.470691"},{"town":"仏大寺町","lat":"36.403681","lng":"136.561355"},{"town":"松が岡一丁目","lat":"36.440297","lng":"136.528897"},{"town":"松が岡二丁目","lat":"36.438195","lng":"136.525404"},{"town":"松が岡三丁目","lat":"36.436090","lng":"136.526513"},{"town":"松が岡四丁目","lat":"36.437171","lng":"136.529573"},{"town":"松が岡五丁目","lat":"36.437418","lng":"136.532010"},{"town":"末寺町","lat":"36.447070","lng":"136.509471"},{"town":"三ツ口町","lat":"36.456687","lng":"136.577083"},{"town":"三ツ屋町","lat":"36.453064","lng":"136.549957"},{"town":"緑が丘十丁目","lat":"36.438220","lng":"136.534539"},{"town":"緑が丘十一丁目","lat":"36.440499","lng":"136.533328"},{"town":"緑が丘一丁目","lat":"36.445233","lng":"136.542073"},{"town":"緑が丘二丁目","lat":"36.443423","lng":"136.542389"},{"town":"緑が丘三丁目","lat":"36.442097","lng":"136.542254"},{"town":"緑が丘四丁目","lat":"36.441895","lng":"136.539923"},{"town":"緑が丘五丁目","lat":"36.444527","lng":"136.538555"},{"town":"緑が丘六丁目","lat":"36.440169","lng":"136.541014"},{"town":"緑が丘七丁目","lat":"36.438605","lng":"136.540486"},{"town":"緑が丘八丁目","lat":"36.437459","lng":"136.537012"},{"town":"緑が丘九丁目","lat":"36.440661","lng":"136.537229"},{"town":"山口町","lat":"36.433409","lng":"136.435082"},{"town":"山田町","lat":"36.458158","lng":"136.552611"},{"town":"湯谷町","lat":"36.437863","lng":"136.518284"},{"town":"湯屋町","lat":"36.440594","lng":"136.554788"},{"town":"吉原釜屋町","lat":"36.466345","lng":"136.466236"},{"town":"吉原町","lat":"36.463772","lng":"136.479008"},{"town":"吉光町","lat":"36.449131","lng":"136.498727"},{"town":"来丸町","lat":"36.444087","lng":"136.559650"},{"town":"和気町","lat":"36.422006","lng":"136.539941"},{"town":"和光台一丁目","lat":"36.425484","lng":"136.544521"},{"town":"和光台二丁目","lat":"36.427929","lng":"136.542909"},{"town":"和光台三丁目","lat":"36.427323","lng":"136.545148"},{"town":"和光台四丁目","lat":"36.429228","lng":"136.545137"},{"town":"和光台五丁目","lat":"36.430729","lng":"136.541240"},{"town":"和佐谷町","lat":"36.424794","lng":"136.616934"},{"town":"和田町","lat":"36.442074","lng":"136.506856"},{"town":"旭台三丁目","lat":"36.448259","lng":"136.584880"},{"town":"長滝町","lat":"36.442083","lng":"136.581792"},{"town":"旭台四丁目","lat":"36.444828","lng":"136.584854"},{"town":"宮竹町","lat":"36.452490","lng":"136.589526"},{"town":"灯台笹町","lat":"36.447625","lng":"136.601400"},{"town":"旭台町","lat":"36.441906","lng":"136.598053"},{"town":"大口町","lat":"36.429828","lng":"136.605296"},{"town":"旭台一丁目","lat":"36.443936","lng":"136.594134"},{"town":"旭台二丁目","lat":"36.449108","lng":"136.594009"},{"town":"粟生町","lat":"36.458758","lng":"136.502899"},{"town":"赤井町","lat":"36.457143","lng":"136.486229"}]