[{"town":"青草町","lat":"36.571525","lng":"136.656136"},{"town":"相合谷町","lat":"36.491987","lng":"136.707648"},{"town":"暁町","lat":"36.562942","lng":"136.672240"},{"town":"赤土町","lat":"36.583352","lng":"136.596634"},{"town":"浅丘町","lat":"36.638379","lng":"136.740653"},{"town":"朝加屋町","lat":"36.509489","lng":"136.724497"},{"town":"浅川町","lat":"36.516730","lng":"136.705331"},{"town":"浅野本町","lat":"36.586531","lng":"136.656886"},{"town":"浅野本町一丁目","lat":"36.580948","lng":"136.660871"},{"town":"浅野本町二丁目","lat":"36.584420","lng":"136.660460"},{"town":"朝日牧町","lat":"36.615406","lng":"136.758190"},{"town":"旭町一丁目","lat":"36.548614","lng":"136.686241"},{"town":"旭町二丁目","lat":"36.554182","lng":"136.683501"},{"town":"旭町三丁目","lat":"36.552990","lng":"136.681874"},{"town":"小豆沢町","lat":"36.525827","lng":"136.732955"},{"town":"油車","lat":"36.557665","lng":"136.656653"},{"town":"天池町","lat":"36.475802","lng":"136.711451"},{"town":"荒屋一丁目","lat":"36.615684","lng":"136.684239"},{"town":"荒屋町","lat":"36.614650","lng":"136.685684"},{"town":"荒山町","lat":"36.565563","lng":"136.784732"},{"town":"有松一丁目","lat":"36.542192","lng":"136.641574"},{"town":"有松二丁目","lat":"36.542978","lng":"136.637864"},{"town":"有松三丁目","lat":"36.539561","lng":"136.640295"},{"town":"有松四丁目","lat":"36.539755","lng":"136.636088"},{"town":"有松五丁目","lat":"36.538970","lng":"136.638080"},{"town":"粟崎浜町","lat":"36.634391","lng":"136.613521"},{"town":"粟崎町","lat":"36.620711","lng":"136.625269"},{"town":"粟崎町一丁目","lat":"36.626146","lng":"136.628321"},{"town":"粟崎町二丁目","lat":"36.628959","lng":"136.627660"},{"town":"粟崎町三丁目","lat":"36.626533","lng":"136.623959"},{"town":"粟崎町四丁目","lat":"36.630279","lng":"136.619645"},{"town":"粟崎町五丁目","lat":"36.623348","lng":"136.620324"},{"town":"粟崎町六丁目","lat":"36.621087","lng":"136.622143"},{"town":"池田町一番丁","lat":"36.557001","lng":"136.654600"},{"town":"池田町二番丁","lat":"36.557454","lng":"136.654416"},{"town":"池田町三番丁","lat":"36.558041","lng":"136.654297"},{"town":"池田町四番丁","lat":"36.557826","lng":"136.652999"},{"town":"池田町立丁","lat":"36.556636","lng":"136.653784"},{"town":"石黒町","lat":"36.481248","lng":"136.782442"},{"town":"石引一丁目","lat":"36.554944","lng":"136.672214"},{"town":"石引二丁目","lat":"36.554179","lng":"136.670508"},{"town":"石引三丁目","lat":"36.557599","lng":"136.669928"},{"town":"石引四丁目","lat":"36.557969","lng":"136.665987"},{"town":"泉一丁目","lat":"36.551171","lng":"136.643358"},{"town":"泉二丁目","lat":"36.548587","lng":"136.641684"},{"town":"泉三丁目","lat":"36.545600","lng":"136.640111"},{"town":"泉が丘一丁目","lat":"36.545713","lng":"136.646664"},{"town":"泉が丘二丁目","lat":"36.541872","lng":"136.646590"},{"town":"泉野出町一丁目","lat":"36.540420","lng":"136.653298"},{"town":"泉野出町二丁目","lat":"36.537543","lng":"136.652960"},{"town":"泉野出町三丁目","lat":"36.538828","lng":"136.649491"},{"town":"泉野出町四丁目","lat":"36.535740","lng":"136.650423"},{"town":"泉野町一丁目","lat":"36.546043","lng":"136.655426"},{"town":"泉野町二丁目","lat":"36.547389","lng":"136.653362"},{"town":"泉野町三丁目","lat":"36.548630","lng":"136.650872"},{"town":"泉野町四丁目","lat":"36.545694","lng":"136.650570"},{"town":"泉野町五丁目","lat":"36.542693","lng":"136.652714"},{"town":"泉野町六丁目","lat":"36.542623","lng":"136.650253"},{"town":"泉本町一丁目","lat":"36.546323","lng":"136.636604"},{"town":"泉本町二丁目","lat":"36.549408","lng":"136.638580"},{"town":"泉本町三丁目","lat":"36.549748","lng":"136.635372"},{"town":"泉本町四丁目","lat":"36.551883","lng":"136.639920"},{"town":"泉本町五丁目","lat":"36.552207","lng":"136.635644"},{"town":"泉本町六丁目","lat":"36.554177","lng":"136.637265"},{"town":"泉本町七丁目","lat":"36.553632","lng":"136.633309"},{"town":"出雲町","lat":"36.575561","lng":"136.625650"},{"town":"磯部町","lat":"36.596953","lng":"136.654629"},{"town":"板ケ谷町","lat":"36.489608","lng":"136.781568"},{"town":"市瀬町","lat":"36.576181","lng":"136.772333"},{"town":"糸田一丁目","lat":"36.557883","lng":"136.626874"},{"town":"糸田二丁目","lat":"36.558177","lng":"136.624002"},{"town":"糸田新町","lat":"36.557235","lng":"136.628944"},{"town":"糸田町","lat":"36.557863","lng":"136.628403"},{"town":"いなほ一丁目","lat":"36.552466","lng":"136.583532"},{"town":"いなほ二丁目","lat":"36.550306","lng":"136.580874"},{"town":"茨木町","lat":"36.557636","lng":"136.657778"},{"town":"今泉町","lat":"36.618616","lng":"136.766191"},{"town":"今昭町","lat":"36.609920","lng":"136.664577"},{"town":"今町","lat":"36.631467","lng":"136.705151"},{"town":"入江一丁目","lat":"36.566094","lng":"136.630306"},{"town":"入江二丁目","lat":"36.566425","lng":"136.625911"},{"town":"入江三丁目","lat":"36.567572","lng":"136.622799"},{"town":"岩出町","lat":"36.613637","lng":"136.702502"},{"town":"上野本町","lat":"36.542475","lng":"136.686198"},{"town":"上山町","lat":"36.501628","lng":"136.759673"},{"town":"魚帰町","lat":"36.514975","lng":"136.780576"},{"town":"鶯町","lat":"36.573311","lng":"136.669839"},{"town":"卯辰町","lat":"36.573478","lng":"136.673544"},{"town":"打尾町","lat":"36.522995","lng":"136.721332"},{"town":"打木町","lat":"36.567622","lng":"136.566580"},{"town":"畝田中一丁目","lat":"36.593064","lng":"136.611732"},{"town":"畝田中二丁目","lat":"36.596309","lng":"136.610928"},{"town":"畝田中三丁目","lat":"36.598418","lng":"136.610278"},{"town":"畝田中四丁目","lat":"36.600589","lng":"136.609633"},{"town":"畝田西一丁目","lat":"36.592617","lng":"136.608059"},{"town":"畝田西二丁目","lat":"36.594058","lng":"136.608521"},{"town":"畝田東一丁目","lat":"36.591855","lng":"136.615923"},{"town":"畝田東二丁目","lat":"36.594391","lng":"136.615807"},{"town":"畝田東三丁目","lat":"36.596754","lng":"136.615663"},{"town":"畝田東四丁目","lat":"36.598504","lng":"136.613281"},{"town":"畝田町","lat":"36.593108","lng":"136.605713"},{"town":"梅沢町","lat":"36.583501","lng":"136.654584"},{"town":"梅田町","lat":"36.624039","lng":"136.708246"},{"town":"鱗町","lat":"36.556353","lng":"136.656915"},{"town":"上平町","lat":"36.628356","lng":"136.777921"},{"town":"永安町","lat":"36.524095","lng":"136.688650"},{"town":"駅西新町一丁目","lat":"36.590549","lng":"136.639742"},{"town":"駅西新町二丁目","lat":"36.594607","lng":"136.639569"},{"town":"駅西新町三丁目","lat":"36.591994","lng":"136.634410"},{"town":"駅西本町一丁目","lat":"36.580048","lng":"136.639859"},{"town":"駅西本町二丁目","lat":"36.581571","lng":"136.637482"},{"town":"駅西本町三丁目","lat":"36.582778","lng":"136.635415"},{"town":"駅西本町四丁目","lat":"36.585206","lng":"136.632472"},{"town":"駅西本町五丁目","lat":"36.583710","lng":"136.630458"},{"town":"駅西本町六丁目","lat":"36.585374","lng":"136.626500"},{"town":"枝町","lat":"36.554315","lng":"136.656310"},{"town":"榎尾町","lat":"36.633317","lng":"136.748095"},{"town":"円光寺一丁目","lat":"36.532428","lng":"136.650819"},{"town":"円光寺二丁目","lat":"36.532920","lng":"136.648506"},{"town":"円光寺三丁目","lat":"36.532995","lng":"136.645513"},{"town":"円光寺本町","lat":"36.533019","lng":"136.642729"},{"town":"円光寺町","lat":"36.530681","lng":"136.653420"},{"town":"小池町","lat":"36.611054","lng":"136.745093"},{"town":"扇町","lat":"36.561793","lng":"136.669940"},{"town":"大浦町","lat":"36.620032","lng":"136.654227"},{"town":"大桑一丁目","lat":"36.532246","lng":"136.677224"},{"town":"大桑二丁目","lat":"36.535964","lng":"136.674673"},{"town":"大桑三丁目","lat":"36.535869","lng":"136.676837"},{"town":"大桑新町","lat":"36.540123","lng":"136.677911"},{"town":"大桑町","lat":"36.528253","lng":"136.685627"},{"town":"大手町","lat":"36.568584","lng":"136.662525"},{"town":"大額一丁目","lat":"36.514418","lng":"136.619876"},{"town":"大額二丁目","lat":"36.516367","lng":"136.624617"},{"town":"大額三丁目","lat":"36.513430","lng":"136.624323"},{"town":"大額町","lat":"36.501192","lng":"136.639714"},{"town":"大野町一丁目","lat":"36.611115","lng":"136.603486"},{"town":"大野町二丁目","lat":"36.611643","lng":"136.606278"},{"town":"大野町三丁目","lat":"36.612510","lng":"136.606419"},{"town":"大野町四丁目","lat":"36.622697","lng":"136.610592"},{"town":"大野町五丁目","lat":"36.612085","lng":"136.601924"},{"town":"大野町六丁目","lat":"36.613070","lng":"136.604100"},{"town":"大野町七丁目","lat":"36.613923","lng":"136.604233"},{"town":"大野町新町","lat":"36.628821","lng":"136.608190"},{"town":"大場町","lat":"36.627434","lng":"136.676729"},{"town":"大樋町","lat":"36.586217","lng":"136.676331"},{"town":"大平沢町","lat":"36.465975","lng":"136.686759"},{"town":"沖町","lat":"36.591474","lng":"136.654996"},{"town":"奥新保町","lat":"36.557460","lng":"136.798811"},{"town":"大河端町","lat":"36.616981","lng":"136.641193"},{"town":"押野一丁目","lat":"36.547616","lng":"136.620174"},{"town":"押野二丁目","lat":"36.548080","lng":"136.616758"},{"town":"押野三丁目","lat":"36.547748","lng":"136.613874"},{"town":"鴛原町","lat":"36.483779","lng":"136.717117"},{"town":"乙丸町","lat":"36.587218","lng":"136.663967"},{"town":"小原町","lat":"36.484657","lng":"136.677367"},{"town":"大菱池町","lat":"36.525312","lng":"136.779790"},{"town":"尾山町","lat":"36.567412","lng":"136.655532"},{"town":"折谷町","lat":"36.509715","lng":"136.762381"},{"town":"尾張町一丁目","lat":"36.570609","lng":"136.661346"},{"town":"尾張町二丁目","lat":"36.571790","lng":"136.659958"},{"town":"加賀朝日町","lat":"36.622133","lng":"136.755595"},{"town":"蚊爪町","lat":"36.628065","lng":"136.645480"},{"town":"柿木畠","lat":"36.560280","lng":"136.656080"},{"town":"角間新町","lat":"36.554398","lng":"136.699336"},{"town":"角間町","lat":"36.545948","lng":"136.709447"},{"town":"笠市町","lat":"36.578043","lng":"136.655061"},{"town":"笠舞一丁目","lat":"36.547812","lng":"136.674375"},{"town":"笠舞二丁目","lat":"36.550853","lng":"136.670287"},{"town":"笠舞三丁目","lat":"36.552804","lng":"136.667072"},{"town":"笠舞本町一丁目","lat":"36.546295","lng":"136.672872"},{"town":"笠舞本町二丁目","lat":"36.547744","lng":"136.669585"},{"town":"笠舞町","lat":"36.548892","lng":"136.675319"},{"town":"樫見町","lat":"36.484951","lng":"136.705672"},{"town":"主計町","lat":"36.572339","lng":"136.663591"},{"town":"春日町","lat":"36.583070","lng":"136.673329"},{"town":"堅田町","lat":"36.609517","lng":"136.703290"},{"town":"かたつ","lat":"36.629898","lng":"136.642602"},{"town":"片町一丁目","lat":"36.559958","lng":"136.653255"},{"town":"片町二丁目","lat":"36.560673","lng":"136.650627"},{"town":"金市町","lat":"36.610059","lng":"136.681491"},{"town":"金石相生町","lat":"36.613790","lng":"136.600132"},{"town":"金石海原","lat":"36.611104","lng":"136.591778"},{"town":"金石北二丁目","lat":"36.607420","lng":"136.595900"},{"town":"金石北三丁目","lat":"36.607201","lng":"136.599311"},{"town":"金石北四丁目","lat":"36.609942","lng":"136.597770"},{"town":"金石西一丁目","lat":"36.599640","lng":"136.590726"},{"town":"金石西二丁目","lat":"36.603842","lng":"136.589337"},{"town":"金石西三丁目","lat":"36.601719","lng":"136.594013"},{"town":"金石西四丁目","lat":"36.605400","lng":"136.592408"},{"town":"金石東一丁目","lat":"36.599750","lng":"136.598324"},{"town":"金石東三丁目","lat":"36.601229","lng":"136.595377"},{"town":"金石本町","lat":"36.598644","lng":"136.594918"},{"town":"金川町","lat":"36.521761","lng":"136.717167"},{"town":"上荒屋一丁目","lat":"36.546989","lng":"136.592866"},{"town":"上荒屋二丁目","lat":"36.550932","lng":"136.593561"},{"town":"上荒屋三丁目","lat":"36.550896","lng":"136.591477"},{"town":"上荒屋四丁目","lat":"36.554569","lng":"136.592750"},{"town":"上荒屋五丁目","lat":"36.556481","lng":"136.589438"},{"town":"上荒屋六丁目","lat":"36.554109","lng":"136.589254"},{"town":"上荒屋七丁目","lat":"36.551426","lng":"136.588552"},{"town":"上荒屋八丁目","lat":"36.549586","lng":"136.589702"},{"town":"上近江町","lat":"36.571061","lng":"136.657264"},{"town":"上柿木畠","lat":"36.559284","lng":"136.656855"},{"town":"上辰巳町","lat":"36.504539","lng":"136.709625"},{"town":"上堤町","lat":"36.568831","lng":"136.654472"},{"town":"上中町","lat":"36.520300","lng":"136.704015"},{"town":"神野一丁目","lat":"36.565674","lng":"136.598155"},{"town":"神野二丁目","lat":"36.564754","lng":"136.595821"},{"town":"神野三丁目","lat":"36.565473","lng":"136.593442"},{"town":"神野町","lat":"36.563293","lng":"136.597875"},{"town":"上安原一丁目","lat":"36.565915","lng":"136.590747"},{"town":"上安原二丁目","lat":"36.566013","lng":"136.588304"},{"town":"上安原町","lat":"36.562568","lng":"136.589432"},{"town":"上安原南","lat":"36.558415","lng":"136.591817"},{"town":"神谷内町","lat":"36.591985","lng":"136.695552"},{"town":"上若松町","lat":"36.551267","lng":"136.691758"},{"town":"上涌波町","lat":"36.584637","lng":"136.724208"},{"town":"川岸町","lat":"36.553945","lng":"136.655337"},{"town":"河原市町","lat":"36.604878","lng":"136.708254"},{"town":"神田一丁目","lat":"36.561499","lng":"136.636921"},{"town":"神田二丁目","lat":"36.559952","lng":"136.633721"},{"town":"神田町","lat":"36.559864","lng":"136.631322"},{"town":"観音堂町","lat":"36.590257","lng":"136.600734"},{"town":"観音町三丁目","lat":"36.570687","lng":"136.670282"},{"town":"上原町","lat":"36.482130","lng":"136.746990"},{"town":"観法寺町","lat":"36.618995","lng":"136.704434"},{"town":"菊川一丁目","lat":"36.550457","lng":"136.663251"},{"town":"菊川二丁目","lat":"36.551837","lng":"136.660322"},{"town":"菊水町","lat":"36.415553","lng":"136.693420"},{"town":"木倉町","lat":"36.561692","lng":"136.651866"},{"town":"木越一丁目","lat":"36.620441","lng":"136.669216"},{"town":"木越二丁目","lat":"36.620561","lng":"136.665586"},{"town":"木越三丁目","lat":"36.618117","lng":"136.667418"},{"town":"木越町","lat":"36.619927","lng":"136.661598"},{"town":"岸川町","lat":"36.639724","lng":"136.711654"},{"town":"北方町","lat":"36.584123","lng":"136.764591"},{"town":"北千石町","lat":"36.629289","lng":"136.767992"},{"town":"北塚町","lat":"36.571906","lng":"136.596448"},{"town":"北寺町","lat":"36.612411","lng":"136.648244"},{"town":"北袋町","lat":"36.505505","lng":"136.749145"},{"town":"北町","lat":"36.582520","lng":"136.627791"},{"town":"北間町","lat":"36.623901","lng":"136.638301"},{"town":"北森本町","lat":"36.624813","lng":"136.697009"},{"town":"北安江一丁目","lat":"36.582364","lng":"136.649562"},{"town":"北安江二丁目","lat":"36.586779","lng":"136.649445"},{"town":"北安江三丁目","lat":"36.584407","lng":"136.646487"},{"town":"北安江四丁目","lat":"36.587516","lng":"136.644897"},{"town":"北安江町","lat":"36.577115","lng":"136.647052"},{"town":"木ノ新保町","lat":"36.578255","lng":"136.648585"},{"town":"京町","lat":"36.582386","lng":"136.656553"},{"town":"清川町","lat":"36.552908","lng":"136.655727"},{"town":"清瀬町","lat":"36.495722","lng":"136.655947"},{"town":"桐山町","lat":"36.605978","lng":"136.735862"},{"town":"国見町","lat":"36.457371","lng":"136.701939"},{"town":"窪一丁目","lat":"36.524616","lng":"136.647653"},{"town":"窪二丁目","lat":"36.526062","lng":"136.646272"},{"town":"窪三丁目","lat":"36.523849","lng":"136.642375"},{"town":"窪四丁目","lat":"36.526758","lng":"136.641609"},{"town":"窪五丁目","lat":"36.526764","lng":"136.636869"},{"town":"窪六丁目","lat":"36.529377","lng":"136.642067"},{"town":"窪七丁目","lat":"36.530566","lng":"136.638471"},{"town":"窪町","lat":"36.514226","lng":"136.652698"},{"town":"熊走町","lat":"36.456505","lng":"136.711526"},{"town":"倉ケ嶽","lat":"36.474667","lng":"136.644332"},{"town":"倉谷町","lat":"36.382691","lng":"136.780865"},{"town":"鞍月一丁目","lat":"36.593998","lng":"136.625372"},{"town":"鞍月二丁目","lat":"36.594480","lng":"136.620537"},{"town":"鞍月三丁目","lat":"36.597818","lng":"136.619556"},{"town":"鞍月四丁目","lat":"36.598193","lng":"136.622318"},{"town":"鞍月五丁目","lat":"36.599120","lng":"136.624721"},{"town":"鞍月東一丁目","lat":"36.593007","lng":"136.630607"},{"town":"鞍月東二丁目","lat":"36.595744","lng":"136.629175"},{"town":"車町","lat":"36.585434","lng":"136.742628"},{"town":"黒田一丁目","lat":"36.562538","lng":"136.614283"},{"town":"黒田二丁目","lat":"36.560766","lng":"136.612706"},{"town":"黒田町","lat":"36.562551","lng":"136.615762"},{"town":"見定町","lat":"36.433815","lng":"136.724833"},{"town":"兼六町","lat":"36.562953","lng":"136.662307"},{"town":"兼六元町","lat":"36.566238","lng":"136.665273"},{"town":"香林坊一丁目","lat":"36.563454","lng":"136.654124"},{"town":"香林坊二丁目","lat":"36.564157","lng":"136.653091"},{"town":"小金町","lat":"36.582658","lng":"136.671191"},{"town":"古郷町","lat":"36.492264","lng":"136.767658"},{"town":"小坂町","lat":"36.590165","lng":"136.678247"},{"town":"小将町","lat":"36.564038","lng":"136.665435"},{"town":"御所町","lat":"36.584255","lng":"136.698890"},{"town":"御所町一丁目","lat":"36.581529","lng":"136.693642"},{"town":"御所町二丁目","lat":"36.580654","lng":"136.699789"},{"town":"小立野二丁目","lat":"36.549768","lng":"136.681413"},{"town":"小立野三丁目","lat":"36.548757","lng":"136.676601"},{"town":"小立野四丁目","lat":"36.551013","lng":"136.677374"},{"town":"小立野五丁目","lat":"36.555109","lng":"136.677175"},{"town":"琴坂町","lat":"36.632448","lng":"136.767778"},{"town":"琴町","lat":"36.630759","lng":"136.775044"},{"town":"湖南町","lat":"36.663248","lng":"136.684503"},{"town":"此花町","lat":"36.577745","lng":"136.651744"},{"town":"小野町","lat":"36.613917","lng":"136.736654"},{"town":"小橋町","lat":"36.578371","lng":"136.662506"},{"town":"小菱池町","lat":"36.523366","lng":"136.765692"},{"town":"古府一丁目","lat":"36.564238","lng":"136.607397"},{"town":"古府二丁目","lat":"36.567849","lng":"136.606404"},{"town":"古府三丁目","lat":"36.571562","lng":"136.607720"},{"town":"小二又町","lat":"36.556694","lng":"136.735346"},{"town":"古府西一丁目","lat":"36.573483","lng":"136.607159"},{"town":"古府町","lat":"36.571477","lng":"136.603318"},{"town":"駒帰町","lat":"36.481846","lng":"136.731523"},{"town":"小嶺町","lat":"36.577943","lng":"136.760142"},{"town":"湖陽一丁目","lat":"36.625697","lng":"136.689454"},{"town":"湖陽二丁目","lat":"36.627113","lng":"136.686863"},{"town":"子来町","lat":"36.571734","lng":"136.670291"},{"town":"五郎島町","lat":"36.617525","lng":"136.617203"},{"town":"才田町","lat":"36.643384","lng":"136.688249"},{"town":"西念一丁目","lat":"36.583014","lng":"136.642884"},{"town":"西念二丁目","lat":"36.585464","lng":"136.640472"},{"town":"西念三丁目","lat":"36.588854","lng":"136.636496"},{"town":"西念四丁目","lat":"36.587727","lng":"136.633162"},{"town":"西念町","lat":"36.591580","lng":"136.631014"},{"town":"材木町","lat":"36.567643","lng":"136.668960"},{"town":"幸町","lat":"36.553810","lng":"136.658420"},{"town":"佐奇森町","lat":"36.587854","lng":"136.585765"},{"town":"桜田町","lat":"36.575465","lng":"136.620294"},{"town":"桜田町一丁目","lat":"36.579475","lng":"136.619827"},{"town":"桜田町二丁目","lat":"36.577900","lng":"136.620914"},{"town":"桜田町三丁目","lat":"36.576397","lng":"136.619689"},{"town":"桜町","lat":"36.563076","lng":"136.676069"},{"town":"里見町","lat":"36.559118","lng":"136.655577"},{"town":"醒ケ井町","lat":"36.577043","lng":"136.643081"},{"town":"三社町","lat":"36.571192","lng":"136.644517"},{"town":"三十苅町","lat":"36.508064","lng":"136.617109"},{"town":"山王町一丁目","lat":"36.574955","lng":"136.700844"},{"town":"山王町二丁目","lat":"36.576717","lng":"136.695783"},{"town":"四王寺町","lat":"36.619457","lng":"136.722445"},{"town":"四十万三丁目","lat":"36.504098","lng":"136.618813"},{"town":"四十万四丁目","lat":"36.500208","lng":"136.617521"},{"town":"四十万五丁目","lat":"36.504274","lng":"136.615593"},{"town":"四十万六丁目","lat":"36.500260","lng":"136.615181"},{"town":"しじま台一丁目","lat":"36.506097","lng":"136.622869"},{"town":"しじま台二丁目","lat":"36.507306","lng":"136.621278"},{"town":"四十万町","lat":"36.495648","lng":"136.628689"},{"town":"地代町","lat":"36.623898","lng":"136.739520"},{"town":"十間町","lat":"36.570413","lng":"136.657181"},{"town":"芝原町","lat":"36.501708","lng":"136.766749"},{"town":"四坊高坂町","lat":"36.625995","lng":"136.727305"},{"town":"四坊町","lat":"36.626409","lng":"136.717466"},{"town":"清水谷町","lat":"36.595258","lng":"136.764990"},{"town":"清水町","lat":"36.545490","lng":"136.745197"},{"town":"示野中町","lat":"36.575037","lng":"136.616755"},{"town":"示野中町一丁目","lat":"36.577122","lng":"136.616684"},{"town":"示野中町二丁目","lat":"36.576196","lng":"136.616956"},{"town":"示野町","lat":"36.579346","lng":"136.611374"},{"town":"下石引町","lat":"36.560466","lng":"136.665974"},{"town":"下近江町","lat":"36.571567","lng":"136.657447"},{"town":"下鴛原町","lat":"36.491528","lng":"136.715068"},{"town":"下柿木畠","lat":"36.560351","lng":"136.654632"},{"town":"下新町","lat":"36.571834","lng":"136.662571"},{"town":"下谷町","lat":"36.491182","lng":"136.738655"},{"town":"下堤町","lat":"36.570902","lng":"136.655528"},{"town":"下本多町五番丁","lat":"36.556854","lng":"136.658046"},{"town":"下本多町六番丁","lat":"36.558200","lng":"136.658729"},{"town":"下松原町","lat":"36.570033","lng":"136.655524"},{"town":"下安原町","lat":"36.576931","lng":"136.575407"},{"town":"下涌波町","lat":"36.592296","lng":"136.711270"},{"town":"十一屋町","lat":"36.544864","lng":"136.660961"},{"town":"十三間町","lat":"36.556507","lng":"136.652387"},{"town":"十三間町中丁","lat":"36.557214","lng":"136.652739"},{"town":"昌永町","lat":"36.579511","lng":"136.659155"},{"town":"城南一丁目","lat":"36.544670","lng":"136.671047"},{"town":"城南二丁目","lat":"36.548657","lng":"136.664358"},{"town":"正部町","lat":"36.593141","lng":"136.734726"},{"town":"城力町","lat":"36.480337","lng":"136.721810"},{"town":"昭和町","lat":"36.574880","lng":"136.646973"},{"town":"白菊町","lat":"36.559484","lng":"136.647059"},{"town":"白見町","lat":"36.454643","lng":"136.750201"},{"town":"新神田一丁目","lat":"36.564835","lng":"136.634343"},{"town":"新神田二丁目","lat":"36.563049","lng":"136.632093"},{"town":"新神田三丁目","lat":"36.561050","lng":"136.631281"},{"town":"新神田四丁目","lat":"36.561485","lng":"136.628423"},{"town":"新神田五丁目","lat":"36.563054","lng":"136.627844"},{"town":"神宮寺一丁目","lat":"36.582558","lng":"136.667814"},{"town":"神宮寺二丁目","lat":"36.586825","lng":"136.668585"},{"town":"神宮寺三丁目","lat":"36.586191","lng":"136.666542"},{"town":"神宮寺町","lat":"36.588711","lng":"136.669732"},{"town":"新竪町三丁目","lat":"36.556061","lng":"136.655924"},{"town":"新保本一丁目","lat":"36.552466","lng":"136.605734"},{"town":"新保本二丁目","lat":"36.551851","lng":"136.602843"},{"town":"新保本三丁目","lat":"36.556505","lng":"136.602683"},{"town":"新保本四丁目","lat":"36.559629","lng":"136.603571"},{"town":"新保本五丁目","lat":"36.556664","lng":"136.605977"},{"town":"新保町","lat":"36.487051","lng":"136.663779"},{"town":"進和町","lat":"36.567087","lng":"136.611911"},{"town":"末広町","lat":"36.571104","lng":"136.678886"},{"town":"末町","lat":"36.517747","lng":"136.689329"},{"town":"菅池町","lat":"36.491120","lng":"136.727526"},{"town":"杉浦町","lat":"36.555140","lng":"136.655298"},{"town":"須崎町","lat":"36.624833","lng":"136.641820"},{"town":"折違町","lat":"36.576046","lng":"136.646303"},{"town":"鈴見台一丁目","lat":"36.563386","lng":"136.679761"},{"town":"鈴見台二丁目","lat":"36.562143","lng":"136.685709"},{"town":"鈴見台三丁目","lat":"36.564796","lng":"136.681625"},{"town":"鈴見台四丁目","lat":"36.563993","lng":"136.687740"},{"town":"鈴見台五丁目","lat":"36.566318","lng":"136.686724"},{"town":"鈴見町","lat":"36.562469","lng":"136.690474"},{"town":"砂子坂町","lat":"36.562589","lng":"136.803233"},{"town":"住吉町","lat":"36.477224","lng":"136.658455"},{"town":"西都一丁目","lat":"36.591728","lng":"136.628490"},{"town":"西都二丁目","lat":"36.589877","lng":"136.626214"},{"town":"千木一丁目","lat":"36.606033","lng":"136.675318"},{"town":"千木町","lat":"36.611822","lng":"136.670652"},{"town":"瀬領町","lat":"36.491479","lng":"136.721701"},{"town":"専光寺町","lat":"36.582485","lng":"136.585008"},{"town":"千田町","lat":"36.613029","lng":"136.659092"},{"town":"千日町","lat":"36.560605","lng":"136.648200"},{"town":"千杉町","lat":"36.626896","lng":"136.749545"},{"town":"大工町","lat":"36.558625","lng":"136.652866"},{"town":"田井町","lat":"36.559400","lng":"136.679938"},{"town":"太陽が丘一丁目","lat":"36.526059","lng":"136.709214"},{"town":"太陽が丘二丁目","lat":"36.531976","lng":"136.704277"},{"town":"太陽が丘三丁目","lat":"36.530489","lng":"136.708443"},{"town":"平等本町","lat":"36.521273","lng":"136.737736"},{"town":"平町","lat":"36.479904","lng":"136.699497"},{"town":"大和町","lat":"36.569380","lng":"136.638977"},{"town":"高池町","lat":"36.514223","lng":"136.726934"},{"town":"高尾一丁目","lat":"36.521682","lng":"136.640924"},{"town":"高尾二丁目","lat":"36.521880","lng":"136.638046"},{"town":"高尾三丁目","lat":"36.520978","lng":"136.635874"},{"town":"高岡町","lat":"36.568402","lng":"136.652677"},{"town":"高尾台一丁目","lat":"36.522624","lng":"136.634841"},{"town":"高尾台二丁目","lat":"36.523100","lng":"136.630588"},{"town":"高尾台三丁目","lat":"36.520922","lng":"136.628928"},{"town":"高尾台四丁目","lat":"36.522338","lng":"136.626881"},{"town":"高尾町","lat":"36.512364","lng":"136.645351"},{"town":"高尾南一丁目","lat":"36.516533","lng":"136.633631"},{"town":"高尾南二丁目","lat":"36.516930","lng":"136.631153"},{"town":"高尾南三丁目","lat":"36.518472","lng":"136.628267"},{"town":"高坂町","lat":"36.595544","lng":"136.742368"},{"town":"高畠一丁目","lat":"36.569704","lng":"136.615200"},{"town":"高畠二丁目","lat":"36.569783","lng":"136.610538"},{"town":"高畠三丁目","lat":"36.573686","lng":"136.612159"},{"town":"田上一丁目","lat":"36.542189","lng":"136.696553"},{"town":"田上新町","lat":"36.542618","lng":"136.698594"},{"town":"高柳町","lat":"36.594995","lng":"136.664969"},{"town":"宝町","lat":"36.557364","lng":"136.673051"},{"town":"滝下町","lat":"36.624086","lng":"136.780866"},{"town":"竹又町","lat":"36.603932","lng":"136.778463"},{"town":"忠縄町","lat":"36.630589","lng":"136.694499"},{"town":"舘町","lat":"36.525035","lng":"136.697827"},{"town":"舘山町","lat":"36.524241","lng":"136.694910"},{"town":"辰巳町","lat":"36.508502","lng":"136.699935"},{"town":"竪町","lat":"36.558885","lng":"136.654464"},{"town":"田中町","lat":"36.604431","lng":"136.662467"},{"town":"田島町","lat":"36.540864","lng":"136.763305"},{"town":"玉川町","lat":"36.570686","lng":"136.651282"},{"town":"玉鉾一丁目","lat":"36.570348","lng":"136.629764"},{"town":"玉鉾二丁目","lat":"36.572959","lng":"136.624591"},{"town":"玉鉾三丁目","lat":"36.570573","lng":"136.624246"},{"town":"玉鉾四丁目","lat":"36.573270","lng":"136.618370"},{"town":"玉鉾五丁目","lat":"36.570460","lng":"136.618729"},{"town":"玉鉾町","lat":"36.569188","lng":"136.621683"},{"town":"俵原町","lat":"36.633198","lng":"136.759623"},{"town":"俵町","lat":"36.530762","lng":"136.724308"},{"town":"茅原町","lat":"36.508897","lng":"136.714655"},{"town":"中央通町","lat":"36.563421","lng":"136.646831"},{"town":"銚子町","lat":"36.522996","lng":"136.703341"},{"town":"塚崎町","lat":"36.608748","lng":"136.696867"},{"town":"月浦町","lat":"36.603086","lng":"136.700714"},{"town":"月影町","lat":"36.629165","lng":"136.713976"},{"town":"土子原町","lat":"36.610683","lng":"136.769565"},{"town":"土清水一丁目","lat":"36.527529","lng":"136.692674"},{"town":"土清水二丁目","lat":"36.527035","lng":"136.690028"},{"town":"土清水三丁目","lat":"36.533053","lng":"136.690601"},{"town":"土清水町","lat":"36.536072","lng":"136.688252"},{"town":"つつじが丘","lat":"36.528207","lng":"136.680536"},{"town":"鞁筒町","lat":"36.620825","lng":"136.746807"},{"town":"坪野町","lat":"36.485797","lng":"136.653949"},{"town":"釣部町","lat":"36.567471","lng":"136.734494"},{"town":"寺地一丁目","lat":"36.536316","lng":"136.641946"},{"town":"寺地二丁目","lat":"36.536214","lng":"136.637270"},{"town":"寺津町","lat":"36.461144","lng":"136.722280"},{"town":"寺町一丁目","lat":"36.547466","lng":"136.657951"},{"town":"寺町二丁目","lat":"36.549399","lng":"136.654679"},{"town":"寺町三丁目","lat":"36.550890","lng":"136.656179"},{"town":"寺町四丁目","lat":"36.551000","lng":"136.652543"},{"town":"寺町五丁目","lat":"36.554878","lng":"136.650721"},{"town":"出羽町","lat":"36.559519","lng":"136.662084"},{"town":"天神町一丁目","lat":"36.558920","lng":"136.676923"},{"town":"天神町二丁目","lat":"36.559580","lng":"136.673520"},{"town":"伝燈寺町","lat":"36.568745","lng":"136.717235"},{"town":"戸板一丁目","lat":"36.578932","lng":"136.624532"},{"town":"戸板二丁目","lat":"36.580074","lng":"136.624965"},{"town":"戸板三丁目","lat":"36.580390","lng":"136.629356"},{"town":"戸板四丁目","lat":"36.581044","lng":"136.626010"},{"town":"戸板五丁目","lat":"36.581233","lng":"136.622116"},{"town":"戸板西一丁目","lat":"36.580888","lng":"136.617020"},{"town":"戸板西二丁目","lat":"36.579918","lng":"136.615313"},{"town":"問屋町一丁目","lat":"36.605962","lng":"136.636677"},{"town":"問屋町二丁目","lat":"36.606363","lng":"136.640827"},{"town":"問屋町三丁目","lat":"36.608680","lng":"136.637409"},{"town":"堂町","lat":"36.457617","lng":"136.666881"},{"town":"東力一丁目","lat":"36.561051","lng":"136.624256"},{"town":"東力二丁目","lat":"36.561092","lng":"136.620319"},{"town":"東力三丁目","lat":"36.563437","lng":"136.625761"},{"town":"東力四丁目","lat":"36.563924","lng":"136.623007"},{"town":"東力町","lat":"36.563328","lng":"136.619478"},{"town":"藤六町","lat":"36.507749","lng":"136.727532"},{"town":"富樫一丁目","lat":"36.538815","lng":"136.646525"},{"town":"富樫二丁目","lat":"36.536699","lng":"136.646150"},{"town":"富樫三丁目","lat":"36.538269","lng":"136.642977"},{"town":"利屋町","lat":"36.643673","lng":"136.718733"},{"town":"常盤町","lat":"36.566374","lng":"136.674374"},{"town":"栃尾町","lat":"36.500780","lng":"136.782849"},{"town":"飛梅町","lat":"36.558890","lng":"136.667762"},{"town":"戸水一丁目","lat":"36.603361","lng":"136.621738"},{"town":"戸水二丁目","lat":"36.602462","lng":"136.618751"},{"town":"戸水町","lat":"36.608468","lng":"136.620019"},{"town":"戸室新保","lat":"36.542638","lng":"136.735278"},{"town":"戸室別所","lat":"36.533774","lng":"136.740759"},{"town":"豊穂町","lat":"36.573930","lng":"136.588913"},{"town":"直江北一丁目","lat":"36.615670","lng":"136.633715"},{"town":"直江野町","lat":"36.588051","lng":"136.759529"},{"town":"中尾町","lat":"36.621372","lng":"136.777098"},{"town":"中川除町","lat":"36.555187","lng":"136.654003"},{"town":"長坂一丁目","lat":"36.537782","lng":"136.661558"},{"town":"長坂二丁目","lat":"36.537259","lng":"136.659615"},{"town":"長坂三丁目","lat":"36.536296","lng":"136.656706"},{"town":"長坂台","lat":"36.533173","lng":"136.653357"},{"town":"長坂町","lat":"36.531779","lng":"136.657131"},{"town":"長田一丁目","lat":"36.575507","lng":"136.642011"},{"town":"長田二丁目","lat":"36.576867","lng":"136.638998"},{"town":"長田本町","lat":"36.574007","lng":"136.638748"},{"town":"長田町","lat":"36.576860","lng":"136.641950"},{"town":"長土塀一丁目","lat":"36.568488","lng":"136.647612"},{"town":"長土塀二丁目","lat":"36.567991","lng":"136.644161"},{"town":"長土塀三丁目","lat":"36.566909","lng":"136.641630"},{"town":"中戸町","lat":"36.499275","lng":"136.694819"},{"town":"中橋町","lat":"36.575313","lng":"136.643817"},{"town":"長町一丁目","lat":"36.565193","lng":"136.650714"},{"town":"長町二丁目","lat":"36.563785","lng":"136.649169"},{"town":"長町三丁目","lat":"36.566606","lng":"136.647402"},{"town":"中村町","lat":"36.561372","lng":"136.642923"},{"town":"中屋一丁目","lat":"36.561279","lng":"136.584549"},{"town":"中屋二丁目","lat":"36.563497","lng":"136.584073"},{"town":"中屋町","lat":"36.558215","lng":"136.586184"},{"town":"中山町","lat":"36.540088","lng":"136.721395"},{"town":"中屋南","lat":"36.553468","lng":"136.586041"},{"town":"梨木町","lat":"36.602631","lng":"136.723169"},{"town":"七ツ屋町","lat":"36.586346","lng":"136.651632"},{"town":"七曲町","lat":"36.504500","lng":"136.717949"},{"town":"並木町","lat":"36.570566","lng":"136.666185"},{"town":"鳴瀬元町","lat":"36.602742","lng":"136.728323"},{"town":"鳴和一丁目","lat":"36.586721","lng":"136.674132"},{"town":"鳴和二丁目","lat":"36.585961","lng":"136.671204"},{"town":"鳴和台","lat":"36.578860","lng":"136.679867"},{"town":"鳴和町","lat":"36.581537","lng":"136.676071"},{"town":"西泉一丁目","lat":"36.545393","lng":"136.632174"},{"town":"西泉二丁目","lat":"36.548109","lng":"136.633198"},{"town":"西泉三丁目","lat":"36.547101","lng":"136.630092"},{"town":"西泉四丁目","lat":"36.550323","lng":"136.630676"},{"town":"西泉五丁目","lat":"36.552474","lng":"136.630048"},{"town":"西泉六丁目","lat":"36.554502","lng":"136.629163"},{"town":"西市瀬町","lat":"36.499713","lng":"136.726533"},{"town":"西大桑町","lat":"36.540596","lng":"136.671220"},{"town":"西金沢一丁目","lat":"36.551558","lng":"136.619860"},{"town":"西金沢二丁目","lat":"36.552032","lng":"136.616920"},{"town":"西金沢三丁目","lat":"36.552151","lng":"136.613758"},{"town":"西金沢四丁目","lat":"36.556863","lng":"136.612181"},{"town":"西金沢五丁目","lat":"36.556817","lng":"136.614984"},{"town":"西金沢新町","lat":"36.553893","lng":"136.617873"},{"town":"西町三番丁","lat":"36.569661","lng":"136.656387"},{"town":"西町四番丁","lat":"36.569788","lng":"136.657498"},{"town":"西町藪ノ内通","lat":"36.570032","lng":"136.656069"},{"town":"西堀川町","lat":"36.582815","lng":"136.652588"},{"town":"二宮町","lat":"36.586572","lng":"136.628804"},{"town":"額乙丸町","lat":"36.510976","lng":"136.620623"},{"town":"額新保一丁目","lat":"36.520501","lng":"136.617296"},{"town":"額新保二丁目","lat":"36.517420","lng":"136.616782"},{"town":"額新保三丁目","lat":"36.514838","lng":"136.616252"},{"town":"額新保町","lat":"36.490240","lng":"136.650702"},{"town":"額新町一丁目","lat":"36.519418","lng":"136.621522"},{"town":"額新町二丁目","lat":"36.517591","lng":"136.620797"},{"town":"額谷一丁目","lat":"36.511006","lng":"136.627569"},{"town":"額谷二丁目","lat":"36.508322","lng":"136.625591"},{"town":"額谷三丁目","lat":"36.509637","lng":"136.624179"},{"town":"額谷町","lat":"36.503128","lng":"136.632417"},{"town":"納年町","lat":"36.584305","lng":"136.754221"},{"town":"野田町","lat":"36.533099","lng":"136.665732"},{"town":"野町一丁目","lat":"36.555976","lng":"136.649095"},{"town":"野町二丁目","lat":"36.556183","lng":"136.647092"},{"town":"野町三丁目","lat":"36.551957","lng":"136.648472"},{"town":"野町四丁目","lat":"36.553018","lng":"136.645010"},{"town":"野町五丁目","lat":"36.554349","lng":"136.642399"},{"town":"博労町","lat":"36.571114","lng":"136.658513"},{"town":"橋場町","lat":"36.570090","lng":"136.665231"},{"town":"畠尾町","lat":"36.465676","lng":"136.741064"},{"town":"八幡町","lat":"36.572799","lng":"136.668755"},{"town":"八田町","lat":"36.635728","lng":"136.676440"},{"town":"花里町","lat":"36.539736","lng":"136.679738"},{"town":"花園八幡町","lat":"36.631867","lng":"136.717134"},{"town":"羽場町","lat":"36.486839","lng":"136.749613"},{"town":"日尾町","lat":"36.441291","lng":"136.744275"},{"town":"東荒屋町","lat":"36.512817","lng":"136.718966"},{"town":"東市瀬町","lat":"36.510051","lng":"136.735597"},{"town":"東蚊爪町","lat":"36.627453","lng":"136.648558"},{"town":"東蚊爪町一丁目","lat":"36.638894","lng":"136.660383"},{"town":"東蚊爪町二丁目","lat":"36.636402","lng":"136.662280"},{"town":"東兼六町","lat":"36.560905","lng":"136.667801"},{"town":"東長江町","lat":"36.568076","lng":"136.698550"},{"town":"東原町","lat":"36.590038","lng":"136.784411"},{"town":"東町","lat":"36.494432","lng":"136.762391"},{"town":"東御影町","lat":"36.568518","lng":"136.675795"},{"town":"東山一丁目","lat":"36.571401","lng":"136.666910"},{"town":"東山二丁目","lat":"36.575167","lng":"136.670050"},{"town":"東山三丁目","lat":"36.574792","lng":"136.664100"},{"town":"光が丘一丁目","lat":"36.519514","lng":"136.624999"},{"town":"光が丘二丁目","lat":"36.515922","lng":"136.628318"},{"town":"光が丘三丁目","lat":"36.513161","lng":"136.628216"},{"town":"疋田一丁目","lat":"36.601726","lng":"136.672806"},{"town":"疋田二丁目","lat":"36.602456","lng":"136.674662"},{"town":"疋田三丁目","lat":"36.604862","lng":"136.670427"},{"town":"疋田町","lat":"36.603440","lng":"136.676028"},{"town":"彦三町一丁目","lat":"36.574165","lng":"136.659892"},{"town":"彦三町二丁目","lat":"36.574462","lng":"136.657315"},{"town":"久安一丁目","lat":"36.532360","lng":"136.633090"},{"town":"久安二丁目","lat":"36.534539","lng":"136.630938"},{"town":"久安三丁目","lat":"36.536939","lng":"136.631682"},{"town":"久安四丁目","lat":"36.536793","lng":"136.633999"},{"town":"久安五丁目","lat":"36.541039","lng":"136.632318"},{"town":"久安六丁目","lat":"36.542550","lng":"136.633838"},{"town":"菱池小原町","lat":"36.515210","lng":"136.770012"},{"town":"瓢箪町","lat":"36.577643","lng":"136.658511"},{"town":"日吉町","lat":"36.576406","lng":"136.646433"},{"town":"平栗","lat":"36.509278","lng":"136.663870"},{"town":"広岡一丁目","lat":"36.578394","lng":"136.646306"},{"town":"広岡二丁目","lat":"36.578685","lng":"136.643067"},{"town":"広岡三丁目","lat":"36.581290","lng":"136.645169"},{"town":"広岡町","lat":"36.575803","lng":"136.646009"},{"town":"広坂一丁目","lat":"36.560745","lng":"136.657800"},{"town":"広坂二丁目","lat":"36.563435","lng":"136.656161"},{"town":"深谷町","lat":"36.613925","lng":"136.715649"},{"town":"福畠町","lat":"36.617023","lng":"136.730478"},{"town":"福久一丁目","lat":"36.619091","lng":"136.680223"},{"town":"福久二丁目","lat":"36.618052","lng":"136.682417"},{"town":"福久東一丁目","lat":"36.616820","lng":"136.683907"},{"town":"福久町","lat":"36.615336","lng":"136.677843"},{"town":"福増町","lat":"36.561449","lng":"136.579862"},{"town":"袋板屋町","lat":"36.516880","lng":"136.712167"},{"town":"袋畠町","lat":"36.578089","lng":"136.604617"},{"town":"袋町","lat":"36.572364","lng":"136.657287"},{"town":"藤江北一丁目","lat":"36.588660","lng":"136.624089"},{"town":"藤江北二丁目","lat":"36.588517","lng":"136.621706"},{"town":"藤江北三丁目","lat":"36.589105","lng":"136.619425"},{"town":"藤江北四丁目","lat":"36.591989","lng":"136.621449"},{"town":"藤江南一丁目","lat":"36.583800","lng":"136.623603"},{"town":"藤江南二丁目","lat":"36.584890","lng":"136.621648"},{"town":"藤江南三丁目","lat":"36.585213","lng":"136.619497"},{"town":"伏見新町","lat":"36.534373","lng":"136.650411"},{"town":"伏見台一丁目","lat":"36.533123","lng":"136.640164"},{"town":"伏見台二丁目","lat":"36.533454","lng":"136.637761"},{"town":"伏見台三丁目","lat":"36.532919","lng":"136.636037"},{"town":"普正寺町","lat":"36.594701","lng":"136.589989"},{"town":"二口町","lat":"36.576698","lng":"136.634885"},{"town":"二ツ寺町","lat":"36.583120","lng":"136.602923"},{"town":"二ツ屋町","lat":"36.588811","lng":"136.629028"},{"town":"二又新町","lat":"36.389128","lng":"136.725121"},{"town":"二俣町","lat":"36.545002","lng":"136.786921"},{"town":"二日市町","lat":"36.632540","lng":"136.725045"},{"town":"不動寺町","lat":"36.606968","lng":"136.716661"},{"town":"不室町","lat":"36.570397","lng":"136.747092"},{"town":"古屋谷町","lat":"36.590814","lng":"136.750845"},{"town":"平和町一丁目","lat":"36.537690","lng":"136.664642"},{"town":"平和町二丁目","lat":"36.541444","lng":"136.666451"},{"town":"平和町三丁目","lat":"36.540342","lng":"136.662553"},{"town":"別所町","lat":"36.506755","lng":"136.677471"},{"town":"法光寺町","lat":"36.601175","lng":"136.689986"},{"town":"芳斉一丁目","lat":"36.570143","lng":"136.647990"},{"town":"芳斉二丁目","lat":"36.572537","lng":"136.648500"},{"town":"法島町","lat":"36.546051","lng":"136.663522"},{"town":"北陽台一丁目","lat":"36.597326","lng":"136.726209"},{"town":"北陽台二丁目","lat":"36.597327","lng":"136.718950"},{"town":"北陽台三丁目","lat":"36.599571","lng":"136.707041"},{"town":"保古一丁目","lat":"36.557238","lng":"136.619593"},{"town":"保古二丁目","lat":"36.555634","lng":"136.617978"},{"town":"保古三丁目","lat":"36.559135","lng":"136.617829"},{"town":"保古町","lat":"36.556639","lng":"136.616457"},{"town":"堀川新町","lat":"36.580569","lng":"136.650784"},{"town":"堀川町","lat":"36.580586","lng":"136.653521"},{"town":"堀切町","lat":"36.604324","lng":"136.759975"},{"town":"本多町一丁目","lat":"36.554240","lng":"136.664125"},{"town":"本多町二丁目","lat":"36.555719","lng":"136.662260"},{"town":"本多町三丁目","lat":"36.558717","lng":"136.660318"},{"town":"本町一丁目","lat":"36.575052","lng":"136.652530"},{"town":"本町二丁目","lat":"36.575592","lng":"136.649822"},{"town":"馬替一丁目","lat":"36.523113","lng":"136.624798"},{"town":"馬替二丁目","lat":"36.522759","lng":"136.622079"},{"town":"馬替三丁目","lat":"36.523414","lng":"136.619273"},{"town":"牧町","lat":"36.559231","lng":"136.720388"},{"town":"牧山町","lat":"36.579182","lng":"136.748559"},{"town":"間明町","lat":"36.565758","lng":"136.610281"},{"town":"間明町一丁目","lat":"36.567275","lng":"136.617621"},{"town":"間明町二丁目","lat":"36.564499","lng":"136.616193"},{"town":"曲子原町","lat":"36.609177","lng":"136.762091"},{"town":"増泉一丁目","lat":"36.557286","lng":"136.644043"},{"town":"増泉二丁目","lat":"36.559426","lng":"136.639919"},{"town":"増泉三丁目","lat":"36.556159","lng":"136.638661"},{"town":"増泉四丁目","lat":"36.557060","lng":"136.635090"},{"town":"増泉五丁目","lat":"36.557476","lng":"136.632094"},{"town":"松島一丁目","lat":"36.561871","lng":"136.603396"},{"town":"松島二丁目","lat":"36.564020","lng":"136.602892"},{"town":"松島三丁目","lat":"36.567106","lng":"136.602771"},{"town":"松島町","lat":"36.569317","lng":"136.601345"},{"town":"松寺町","lat":"36.606428","lng":"136.653576"},{"town":"松根町","lat":"36.616017","lng":"136.775842"},{"town":"松村一丁目","lat":"36.588340","lng":"136.615531"},{"town":"松村二丁目","lat":"36.585039","lng":"136.616252"},{"town":"松村三丁目","lat":"36.583026","lng":"136.615549"},{"town":"松村四丁目","lat":"36.583996","lng":"136.611401"},{"town":"松村五丁目","lat":"36.589134","lng":"136.611890"},{"town":"松村六丁目","lat":"36.589403","lng":"136.609470"},{"town":"松村七丁目","lat":"36.586175","lng":"136.607476"},{"town":"松村町","lat":"36.590095","lng":"136.616505"},{"town":"大豆田本町","lat":"36.570356","lng":"136.634420"},{"town":"丸の内","lat":"36.566057","lng":"136.659351"},{"town":"三池栄町","lat":"36.596358","lng":"136.671028"},{"town":"三池新町","lat":"36.598828","lng":"136.670537"},{"town":"三池町","lat":"36.593520","lng":"136.672944"},{"town":"三浦町","lat":"36.597679","lng":"136.640190"},{"town":"御影町","lat":"36.564078","lng":"136.640418"},{"town":"みずき一丁目","lat":"36.619540","lng":"136.672933"},{"town":"みずき二丁目","lat":"36.623126","lng":"136.672750"},{"town":"みずき三丁目","lat":"36.623543","lng":"136.669098"},{"town":"みずき四丁目","lat":"36.623513","lng":"136.664927"},{"town":"水溜町","lat":"36.556419","lng":"136.654995"},{"town":"水淵町","lat":"36.499715","lng":"136.702951"},{"town":"水元町","lat":"36.576390","lng":"136.789163"},{"town":"三口新町","lat":"36.539855","lng":"136.678955"},{"town":"三口新町一丁目","lat":"36.541189","lng":"136.682575"},{"town":"三口新町二丁目","lat":"36.540365","lng":"136.680794"},{"town":"三口新町三丁目","lat":"36.544491","lng":"136.679366"},{"town":"三口新町四丁目","lat":"36.542819","lng":"136.678247"},{"town":"三口町","lat":"36.608023","lng":"136.643583"},{"town":"三小牛町","lat":"36.511743","lng":"136.669782"},{"town":"三ツ屋町","lat":"36.610802","lng":"136.644000"},{"town":"みどり一丁目","lat":"36.569315","lng":"136.590346"},{"town":"みどり二丁目","lat":"36.569176","lng":"136.585870"},{"town":"みどり三丁目","lat":"36.567518","lng":"136.583596"},{"town":"緑が丘","lat":"36.541801","lng":"136.656294"},{"town":"湊一丁目","lat":"36.643871","lng":"136.660390"},{"town":"湊二丁目","lat":"36.634859","lng":"136.647873"},{"town":"湊三丁目","lat":"36.621595","lng":"136.630799"},{"town":"湊四丁目","lat":"36.606028","lng":"136.618275"},{"town":"南御所町","lat":"36.580794","lng":"136.681842"},{"town":"南四十万一丁目","lat":"36.497724","lng":"136.620425"},{"town":"南四十万二丁目","lat":"36.497357","lng":"136.616972"},{"town":"南四十万三丁目","lat":"36.497444","lng":"136.614438"},{"town":"南新保町","lat":"36.597382","lng":"136.635873"},{"town":"南千谷町","lat":"36.623421","lng":"136.769929"},{"town":"南町","lat":"36.566363","lng":"136.653713"},{"town":"南塚町","lat":"36.567451","lng":"136.594797"},{"town":"南広岡町","lat":"36.571958","lng":"136.639947"},{"town":"南森本町","lat":"36.619482","lng":"136.693524"},{"town":"宮野町","lat":"36.599265","lng":"136.743905"},{"town":"宮保町","lat":"36.604810","lng":"136.667085"},{"town":"弥勒町","lat":"36.613864","lng":"136.689317"},{"town":"三馬一丁目","lat":"36.525852","lng":"136.631776"},{"town":"三馬二丁目","lat":"36.528949","lng":"136.635313"},{"town":"三馬三丁目","lat":"36.529128","lng":"136.631791"},{"town":"向中町","lat":"36.571699","lng":"136.639452"},{"town":"武蔵町","lat":"36.571843","lng":"136.654122"},{"town":"無量寺一丁目","lat":"36.602395","lng":"136.610003"},{"town":"無量寺二丁目","lat":"36.603976","lng":"136.609367"},{"town":"無量寺三丁目","lat":"36.605573","lng":"136.609283"},{"town":"無量寺四丁目","lat":"36.600506","lng":"136.614578"},{"town":"無量寺五丁目","lat":"36.602479","lng":"136.613193"},{"town":"無量寺町","lat":"36.604353","lng":"136.613320"},{"town":"娚杉町","lat":"36.458436","lng":"136.730565"},{"town":"本江町","lat":"36.567901","lng":"136.635023"},{"town":"元菊町","lat":"36.572163","lng":"136.642134"},{"town":"元町一丁目","lat":"36.580500","lng":"136.667348"},{"town":"元町二丁目","lat":"36.580542","lng":"136.664406"},{"town":"百坂町","lat":"36.607715","lng":"136.686273"},{"town":"森戸一丁目","lat":"36.558060","lng":"136.599912"},{"town":"森戸二丁目","lat":"36.558251","lng":"136.597686"},{"town":"もりの里一丁目","lat":"36.551413","lng":"136.689431"},{"town":"もりの里二丁目","lat":"36.555258","lng":"136.685596"},{"town":"もりの里三丁目","lat":"36.560271","lng":"136.682521"},{"town":"森山一丁目","lat":"36.576819","lng":"136.666678"},{"town":"森山二丁目","lat":"36.579351","lng":"136.668890"},{"town":"諸江町","lat":"36.597403","lng":"136.645580"},{"town":"矢木一丁目","lat":"36.556007","lng":"136.597012"},{"town":"矢木二丁目","lat":"36.555809","lng":"136.594704"},{"town":"矢木三丁目","lat":"36.560409","lng":"136.594012"},{"town":"薬師堂町","lat":"36.578076","lng":"136.629161"},{"town":"薬師町","lat":"36.588905","lng":"136.730845"},{"town":"安江町","lat":"36.574336","lng":"136.654970"},{"town":"柳橋町","lat":"36.601225","lng":"136.683505"},{"town":"山川町","lat":"36.501744","lng":"136.686781"},{"town":"山科一丁目","lat":"36.528405","lng":"136.649144"},{"town":"山科二丁目","lat":"36.530149","lng":"136.649373"},{"town":"山科三丁目","lat":"36.529780","lng":"136.645349"},{"town":"山科町","lat":"36.524021","lng":"136.658591"},{"town":"山田屋小路二番丁","lat":"36.555312","lng":"136.657120"},{"town":"山の上町","lat":"36.578084","lng":"136.671780"},{"town":"山ノ上町五丁目","lat":"36.577416","lng":"136.675889"},{"town":"弥生一丁目","lat":"36.549240","lng":"136.646740"},{"town":"弥生二丁目","lat":"36.546408","lng":"136.644072"},{"town":"弥生三丁目","lat":"36.542069","lng":"136.643302"},{"town":"夕日寺町","lat":"36.576068","lng":"136.716651"},{"town":"柚木町","lat":"36.567725","lng":"136.757626"},{"town":"弓取町","lat":"36.611030","lng":"136.640106"},{"town":"湯谷原町","lat":"36.528493","lng":"136.739296"},{"town":"湯涌荒屋町","lat":"36.467872","lng":"136.758835"},{"town":"湯涌河内町","lat":"36.459402","lng":"136.780613"},{"town":"湯涌田子島町","lat":"36.472954","lng":"136.750524"},{"town":"湯涌曲町","lat":"36.459126","lng":"136.767038"},{"town":"湯涌町","lat":"36.477685","lng":"136.755982"},{"town":"八日市一丁目","lat":"36.545098","lng":"136.610458"},{"town":"八日市二丁目","lat":"36.543651","lng":"136.606699"},{"town":"八日市三丁目","lat":"36.547204","lng":"136.604073"},{"town":"八日市四丁目","lat":"36.548589","lng":"136.607379"},{"town":"八日市五丁目","lat":"36.549455","lng":"136.610677"},{"town":"八日市出町","lat":"36.553767","lng":"136.609382"},{"town":"横川一丁目","lat":"36.535061","lng":"136.623810"},{"town":"横川二丁目","lat":"36.535405","lng":"136.627560"},{"town":"横川三丁目","lat":"36.538807","lng":"136.625856"},{"town":"横川四丁目","lat":"36.539711","lng":"136.629033"},{"town":"横川五丁目","lat":"36.542590","lng":"136.629686"},{"town":"横川六丁目","lat":"36.541439","lng":"136.625748"},{"town":"横川七丁目","lat":"36.542614","lng":"136.625067"},{"town":"横谷町","lat":"36.461674","lng":"136.789797"},{"town":"横枕町","lat":"36.607461","lng":"136.678551"},{"town":"横山町","lat":"36.564713","lng":"136.670475"},{"town":"吉原町","lat":"36.607645","lng":"136.692658"},{"town":"米泉町十丁目","lat":"36.555711","lng":"136.622762"},{"town":"米泉町一丁目","lat":"36.544554","lng":"136.626768"},{"town":"米泉町二丁目","lat":"36.544197","lng":"136.623413"},{"town":"米泉町三丁目","lat":"36.546774","lng":"136.623361"},{"town":"米泉町四丁目","lat":"36.546709","lng":"136.627055"},{"town":"米泉町五丁目","lat":"36.549133","lng":"136.626787"},{"town":"米泉町六丁目","lat":"36.549191","lng":"136.623253"},{"town":"米泉町七丁目","lat":"36.551830","lng":"136.622891"},{"town":"米泉町八丁目","lat":"36.551653","lng":"136.625956"},{"town":"米泉町九丁目","lat":"36.554345","lng":"136.624826"},{"town":"米丸町","lat":"36.568764","lng":"136.619601"},{"town":"蓮花町","lat":"36.512010","lng":"136.680897"},{"town":"蓮如町","lat":"36.517815","lng":"136.727842"},{"town":"六枚町","lat":"36.573543","lng":"136.647720"},{"town":"若草町","lat":"36.543265","lng":"136.659149"},{"town":"稚日野町","lat":"36.577082","lng":"136.598237"},{"town":"若松町","lat":"36.557019","lng":"136.699495"},{"town":"若松町一丁目","lat":"36.556861","lng":"136.690987"},{"town":"若松町二丁目","lat":"36.555688","lng":"136.688635"},{"town":"若松町三丁目","lat":"36.557911","lng":"136.687254"},{"town":"若宮一丁目","lat":"36.573321","lng":"136.631860"},{"town":"若宮二丁目","lat":"36.574652","lng":"136.629868"},{"town":"若宮町","lat":"36.578852","lng":"136.632129"},{"town":"涌波一丁目","lat":"36.532812","lng":"136.686425"},{"town":"涌波二丁目","lat":"36.536155","lng":"136.682275"},{"town":"涌波三丁目","lat":"36.536487","lng":"136.684356"},{"town":"涌波四丁目","lat":"36.537226","lng":"136.685881"},{"town":"涌波町","lat":"36.531637","lng":"136.688358"},{"town":"割出町","lat":"36.600680","lng":"136.640433"},{"town":"田上本町","lat":"36.531112","lng":"136.700201"},{"town":"田上二丁目","lat":"36.545304","lng":"136.695256"},{"town":"旭町","lat":"36.548238","lng":"136.689484"},{"town":"田上さくら三丁目","lat":"36.546402","lng":"136.689127"},{"town":"田上の里二丁目","lat":"36.547403","lng":"136.691660"},{"town":"田上の里一丁目","lat":"36.544191","lng":"136.693158"},{"town":"小立野一丁目","lat":"36.544332","lng":"136.684882"},{"town":"田上さくら一丁目","lat":"36.541252","lng":"136.690328"},{"town":"田上さくら二丁目","lat":"36.543907","lng":"136.689567"},{"town":"田上町神","lat":"36.541034","lng":"136.694265"},{"town":"田上町","lat":"36.542253","lng":"136.694305"},{"town":"田上本町三丁目","lat":"36.536927","lng":"136.696655"},{"town":"田上本町一丁目","lat":"36.532671","lng":"136.697226"},{"town":"田上本町二丁目","lat":"36.534672","lng":"136.698700"},{"town":"田上本町四丁目","lat":"36.538518","lng":"136.693619"},{"town":"錦町","lat":"36.537319","lng":"136.689038"},{"town":"朝霧台一丁目","lat":"36.534431","lng":"136.694808"},{"town":"大友一丁目","lat":"36.601605","lng":"136.628490"},{"town":"直江町","lat":"36.605059","lng":"136.633861"},{"town":"近岡町","lat":"36.610765","lng":"136.630890"},{"town":"大友二丁目","lat":"36.602691","lng":"136.627902"},{"town":"御供田町","lat":"36.606406","lng":"136.625935"},{"town":"大友町","lat":"36.604457","lng":"136.627198"},{"town":"大友三丁目","lat":"36.603641","lng":"136.626176"},{"town":"畝田西三丁目","lat":"36.596987","lng":"136.607174"},{"town":"金石東二丁目","lat":"36.602724","lng":"136.598417"},{"town":"金石北一丁目","lat":"36.604618","lng":"136.597427"},{"town":"畝田西四丁目","lat":"36.599985","lng":"136.606490"},{"town":"木曳野二丁目","lat":"36.599673","lng":"136.605197"},{"town":"木曳野四丁目","lat":"36.603008","lng":"136.601712"},{"town":"木曳野三丁目","lat":"36.602669","lng":"136.605546"},{"town":"桂町","lat":"36.605009","lng":"136.603980"},{"town":"寺中町","lat":"36.597368","lng":"136.602703"},{"town":"木曳野一丁目","lat":"36.599810","lng":"136.603296"},{"town":"大河端西二丁目","lat":"36.617502","lng":"136.639537"},{"town":"大河端西一丁目","lat":"36.613892","lng":"136.640635"},{"town":"野田四丁目","lat":"36.534484","lng":"136.663464"},{"town":"野田三丁目","lat":"36.533773","lng":"136.667533"},{"town":"野田二丁目","lat":"36.534807","lng":"136.670613"},{"town":"野田一丁目","lat":"36.531868","lng":"136.672699"},{"town":"直江東一丁目","lat":"36.613528","lng":"136.637266"},{"town":"直江東二丁目","lat":"36.615497","lng":"136.636344"},{"town":"直江西一丁目","lat":"36.611537","lng":"136.635268"},{"town":"直江南一丁目","lat":"36.605428","lng":"136.631618"},{"town":"直江南二丁目","lat":"36.610322","lng":"136.636569"},{"town":"観音町一丁目","lat":"36.572253","lng":"136.665685"},{"town":"観音町二丁目","lat":"36.571844","lng":"136.667252"},{"town":"金石下本町","lat":"36.602550","lng":"136.592725"},{"town":"金石通町","lat":"36.603804","lng":"136.593904"},{"town":"金石味噌屋町","lat":"36.603634","lng":"136.591595"}]