[{"town":"明石","lat":"35.024192","lng":"139.901215"},{"town":"荒川","lat":"35.115460","lng":"139.939622"},{"town":"安馬谷","lat":"35.007375","lng":"139.961229"},{"town":"池之内","lat":"35.027034","lng":"139.909627"},{"town":"石神","lat":"35.036369","lng":"139.955676"},{"town":"石堂","lat":"35.049667","lng":"139.956950"},{"town":"石堂原","lat":"35.060807","lng":"139.965701"},{"town":"市部","lat":"35.093992","lng":"139.855267"},{"town":"犬掛","lat":"35.078020","lng":"139.903802"},{"town":"井野","lat":"35.107480","lng":"139.891569"},{"town":"岩糸","lat":"35.027435","lng":"139.967189"},{"town":"海老敷","lat":"35.046375","lng":"139.913017"},{"town":"大井","lat":"35.093017","lng":"139.975503"},{"town":"大学口","lat":"35.036660","lng":"139.905157"},{"town":"小戸","lat":"35.042884","lng":"139.971211"},{"town":"上滝田","lat":"35.069900","lng":"139.902247"},{"town":"上堀","lat":"35.040315","lng":"139.885546"},{"town":"加茂","lat":"35.012453","lng":"139.947351"},{"town":"川上","lat":"35.106847","lng":"139.906750"},{"town":"川田","lat":"35.032472","lng":"139.897218"},{"town":"川谷","lat":"35.074143","lng":"139.966571"},{"town":"久枝","lat":"35.094156","lng":"139.844258"},{"town":"沓見","lat":"35.025275","lng":"139.942108"},{"town":"久保","lat":"35.000625","lng":"139.943686"},{"town":"検儀谷","lat":"35.104344","lng":"139.855248"},{"town":"合戸","lat":"35.093694","lng":"139.872736"},{"town":"小浦","lat":"35.075807","lng":"139.835822"},{"town":"下滝田","lat":"35.054545","lng":"139.894529"},{"town":"下堀","lat":"35.025705","lng":"139.888165"},{"town":"珠師ケ谷","lat":"35.056876","lng":"139.969914"},{"town":"白子","lat":"35.004740","lng":"139.974167"},{"town":"白浜町乙浜","lat":"34.916562","lng":"139.922848"},{"town":"白浜町白浜","lat":"34.917845","lng":"139.899971"},{"town":"白浜町滝口","lat":"34.913541","lng":"139.865606"},{"town":"白浜町根本","lat":"34.908805","lng":"139.838715"},{"town":"千代","lat":"35.037233","lng":"139.897657"},{"town":"高崎竹内","lat":"35.081529","lng":"139.856429"},{"town":"竹内","lat":"35.089298","lng":"139.851678"},{"town":"千倉町宇田","lat":"34.990496","lng":"139.939178"},{"town":"千倉町大川","lat":"34.934247","lng":"139.933804"},{"town":"千倉町大貫","lat":"34.968970","lng":"139.918651"},{"town":"千倉町川合","lat":"34.990004","lng":"139.961348"},{"town":"千倉町川口","lat":"34.943279","lng":"139.947408"},{"town":"千倉町川戸","lat":"34.973489","lng":"139.939375"},{"town":"千倉町北朝夷","lat":"34.968369","lng":"139.950749"},{"town":"千倉町久保","lat":"34.998567","lng":"139.954015"},{"town":"千倉町忽戸","lat":"34.947765","lng":"139.960042"},{"town":"千倉町白子","lat":"34.990034","lng":"139.967940"},{"town":"千倉町白間津","lat":"34.922744","lng":"139.933144"},{"town":"千倉町瀬戸","lat":"34.980333","lng":"139.958929"},{"town":"千倉町千田","lat":"34.934259","lng":"139.948581"},{"town":"千倉町平磯","lat":"34.938335","lng":"139.954470"},{"town":"千倉町平舘","lat":"34.954160","lng":"139.958899"},{"town":"千倉町牧田","lat":"34.975749","lng":"139.950915"},{"town":"千倉町南朝夷","lat":"34.953335","lng":"139.930563"},{"town":"富浦町青木","lat":"35.070314","lng":"139.887950"},{"town":"富浦町居倉","lat":"35.075851","lng":"139.870413"},{"town":"富浦町大津","lat":"35.068187","lng":"139.871487"},{"town":"富浦町多田良","lat":"35.037315","lng":"139.825339"},{"town":"富浦町手取","lat":"35.066326","lng":"139.860756"},{"town":"富浦町豊岡","lat":"35.054828","lng":"139.839332"},{"town":"富浦町南無谷","lat":"35.066234","lng":"139.833788"},{"town":"富浦町丹生","lat":"35.066210","lng":"139.852666"},{"town":"富浦町原岡","lat":"35.047668","lng":"139.840202"},{"town":"富浦町深名","lat":"35.043946","lng":"139.850550"},{"town":"富浦町福澤","lat":"35.042507","lng":"139.864067"},{"town":"富浦町宮本","lat":"35.053522","lng":"139.870662"},{"town":"中","lat":"35.021806","lng":"139.917699"},{"town":"西原","lat":"35.029099","lng":"139.958486"},{"town":"二部","lat":"35.103237","lng":"139.870986"},{"town":"平塚","lat":"35.107300","lng":"139.957586"},{"town":"府中","lat":"35.012975","lng":"139.888387"},{"town":"古川","lat":"35.017243","lng":"139.964909"},{"town":"平久里下","lat":"35.090132","lng":"139.911508"},{"town":"平久里中","lat":"35.097563","lng":"139.923573"},{"town":"前田","lat":"35.035934","lng":"139.945148"},{"town":"増間","lat":"35.072349","lng":"139.928774"},{"town":"丸本郷","lat":"35.040155","lng":"139.947697"},{"town":"丸山平塚","lat":"35.108875","lng":"139.988770"},{"town":"御子神","lat":"35.072325","lng":"139.954007"},{"town":"三坂","lat":"35.040222","lng":"139.891355"},{"town":"御庄","lat":"35.031266","lng":"139.929682"},{"town":"峰","lat":"34.996096","lng":"139.964831"},{"town":"宮下","lat":"35.071954","lng":"139.944498"},{"town":"宮谷","lat":"35.086834","lng":"139.875460"},{"town":"本織","lat":"35.016909","lng":"139.897637"},{"town":"山下","lat":"35.041209","lng":"139.904739"},{"town":"山田","lat":"35.096546","lng":"139.947563"},{"town":"山名","lat":"35.045495","lng":"139.931922"},{"town":"谷向","lat":"35.028766","lng":"139.899893"},{"town":"吉沢","lat":"35.093127","lng":"139.894136"},{"town":"和田町石堂","lat":"35.073851","lng":"139.985795"},{"town":"和田町小川","lat":"35.048381","lng":"140.002046"},{"town":"和田町海発","lat":"35.018497","lng":"139.981877"},{"town":"和田町上三原","lat":"35.071884","lng":"139.990833"},{"town":"和田町黒岩","lat":"35.057562","lng":"140.000432"},{"town":"和田町五十蔵","lat":"35.086204","lng":"140.014567"},{"town":"和田町小向","lat":"35.063741","lng":"140.003071"},{"town":"和田町柴","lat":"35.055993","lng":"140.020165"},{"town":"和田町下三原","lat":"35.033135","lng":"139.983168"},{"town":"和田町白渚","lat":"35.033250","lng":"140.000039"},{"town":"和田町磑森","lat":"35.082561","lng":"140.003664"},{"town":"和田町中三原","lat":"35.041667","lng":"139.984252"},{"town":"和田町仁我浦","lat":"35.043365","lng":"140.016948"},{"town":"和田町沼","lat":"35.023985","lng":"139.975010"},{"town":"和田町花園","lat":"35.063646","lng":"140.027480"},{"town":"和田町布野","lat":"35.079119","lng":"139.998093"},{"town":"和田町松田","lat":"35.023296","lng":"139.982454"},{"town":"和田町真浦","lat":"35.061380","lng":"140.014060"},{"town":"和田町真浦飛地","lat":"35.035540","lng":"139.996775"},{"town":"和田町和田","lat":"35.038773","lng":"140.015038"}]