[{"town":"氏家","lat":"36.686776","lng":"139.966872"},{"town":"氏家新田","lat":"36.673931","lng":"139.986256"},{"town":"卯の里一丁目","lat":"36.683325","lng":"139.957448"},{"town":"卯の里二丁目","lat":"36.683767","lng":"139.959929"},{"town":"卯の里三丁目","lat":"36.679483","lng":"139.961300"},{"town":"卯の里四丁目","lat":"36.679121","lng":"139.959113"},{"town":"卯の里五丁目","lat":"36.676868","lng":"139.960883"},{"town":"上野","lat":"36.687644","lng":"139.987455"},{"town":"小入","lat":"36.727891","lng":"139.994082"},{"town":"大中","lat":"36.680937","lng":"139.951101"},{"town":"押上","lat":"36.710983","lng":"139.931484"},{"town":"柿木澤","lat":"36.672561","lng":"140.005037"},{"town":"柿木澤新田","lat":"36.680856","lng":"139.992862"},{"town":"鍛冶ケ澤","lat":"36.688484","lng":"140.029158"},{"town":"葛城","lat":"36.703611","lng":"140.041737"},{"town":"金枝","lat":"36.742829","lng":"140.042482"},{"town":"鹿子畑","lat":"36.729362","lng":"140.058182"},{"town":"蒲須坂","lat":"36.723111","lng":"139.949421"},{"town":"上阿久津","lat":"36.651274","lng":"139.960741"},{"town":"上河戸","lat":"36.786502","lng":"139.992818"},{"town":"北草川一丁目","lat":"36.688466","lng":"139.952143"},{"town":"北草川二丁目","lat":"36.686541","lng":"139.955294"},{"town":"喜連川","lat":"36.731622","lng":"140.008552"},{"town":"草川","lat":"36.681676","lng":"139.955196"},{"town":"桜ヶ丘一丁目","lat":"36.745574","lng":"140.009932"},{"town":"桜ヶ丘二丁目","lat":"36.748798","lng":"140.008382"},{"town":"桜ヶ丘三丁目","lat":"36.748118","lng":"140.011470"},{"town":"櫻野","lat":"36.686695","lng":"139.977236"},{"town":"下河戸","lat":"36.766301","lng":"140.013265"},{"town":"早乙女","lat":"36.711355","lng":"140.007538"},{"town":"富野岡","lat":"36.695681","lng":"139.944043"},{"town":"長久保","lat":"36.709877","lng":"139.950998"},{"town":"箱森新田","lat":"36.720294","lng":"139.969827"},{"town":"狹間田","lat":"36.685339","lng":"140.008887"},{"town":"馬場","lat":"36.696954","lng":"139.954796"},{"town":"フィオーレ喜連川一丁目","lat":"36.736101","lng":"140.031383"},{"town":"フィオーレ喜連川二丁目","lat":"36.733562","lng":"140.029417"},{"town":"フィオーレ喜連川三丁目","lat":"36.736393","lng":"140.027059"},{"town":"フィオーレ喜連川四丁目","lat":"36.741118","lng":"140.026410"},{"town":"フィオーレ喜連川五丁目","lat":"36.742395","lng":"140.027732"},{"town":"穂積","lat":"36.758704","lng":"140.060820"},{"town":"松島","lat":"36.734402","lng":"139.973970"},{"town":"松山","lat":"36.701515","lng":"139.994263"},{"town":"松山新田","lat":"36.711236","lng":"139.980365"},{"town":"南和田","lat":"36.755157","lng":"140.029238"},{"town":"向河原","lat":"36.696793","lng":"139.936451"},{"town":"鷲宿","lat":"36.750863","lng":"139.987274"}]