[{"town":"青江","koaza":"","lat":34.613175,"lng":133.757815},{"town":"浅原","koaza":"","lat":34.63247,"lng":133.76256},{"town":"阿知三丁目","koaza":"","lat":34.598702,"lng":133.766591},{"town":"天城台一丁目","koaza":"","lat":34.570626,"lng":133.807342},{"town":"天城台二丁目","koaza":"","lat":34.56868,"lng":133.80752},{"town":"天城台三丁目","koaza":"","lat":34.570977,"lng":133.809095},{"town":"天城台四丁目","koaza":"","lat":34.573593,"lng":133.810042},{"town":"有城","koaza":"","lat":34.572839,"lng":133.798208},{"town":"生坂","koaza":"","lat":34.632299,"lng":133.785178},{"town":"五日市","koaza":"","lat":34.598902,"lng":133.792855},{"town":"稲荷町","koaza":"","lat":34.595064,"lng":133.765941},{"town":"石見町","koaza":"","lat":34.600459,"lng":133.761978},{"town":"潮通一丁目","koaza":"","lat":34.505699,"lng":133.74572},{"town":"潮通二丁目","koaza":"","lat":34.493823,"lng":133.753091},{"town":"潮通三丁目","koaza":"","lat":34.503355,"lng":133.756233},{"town":"浦田","koaza":"","lat":34.56477,"lng":133.759775},{"town":"老松町一丁目","koaza":"","lat":34.597864,"lng":133.75798},{"town":"老松町二丁目","koaza":"","lat":34.596506,"lng":133.759476},{"town":"老松町三丁目","koaza":"","lat":34.595717,"lng":133.761996},{"town":"老松町四丁目","koaza":"","lat":34.593239,"lng":133.761004},{"town":"老松町五丁目","koaza":"","lat":34.594033,"lng":133.755886},{"town":"大内","koaza":"","lat":34.606742,"lng":133.753542},{"town":"大島","koaza":"","lat":34.605694,"lng":133.779442},{"town":"大畠","koaza":"","lat":34.434317,"lng":133.816615},{"town":"大畠一丁目","koaza":"","lat":34.44334,"lng":133.810685},{"town":"大畠二丁目","koaza":"","lat":34.438548,"lng":133.812082},{"town":"沖","koaza":"","lat":34.589135,"lng":133.752992},{"town":"沖新町","koaza":"","lat":34.5836,"lng":133.754731},{"town":"尾原","koaza":"","lat":34.51129,"lng":133.834556},{"town":"帯高","koaza":"","lat":34.58052,"lng":133.812053},{"town":"加須山","koaza":"","lat":34.585659,"lng":133.795805},{"town":"片島町","koaza":"","lat":34.574379,"lng":133.716625},{"town":"上富井","koaza":"","lat":34.581082,"lng":133.746808},{"town":"亀島一丁目","koaza":"","lat":34.535766,"lng":133.728808},{"town":"亀島二丁目","koaza":"","lat":34.539947,"lng":133.727083},{"town":"亀山","koaza":"","lat":34.583046,"lng":133.80286},{"town":"川入","koaza":"","lat":34.607836,"lng":133.759271},{"town":"川西町","koaza":"","lat":34.598098,"lng":133.764207},{"town":"神田一丁目","koaza":"","lat":34.536436,"lng":133.734087},{"town":"神田二丁目","koaza":"","lat":34.54071,"lng":133.736126},{"town":"神田三丁目","koaza":"","lat":34.542049,"lng":133.73156},{"town":"神田四丁目","koaza":"","lat":34.543496,"lng":133.728249},{"town":"北畝一丁目","koaza":"","lat":34.537376,"lng":133.747743},{"town":"北畝二丁目","koaza":"","lat":34.541692,"lng":133.748741},{"town":"北畝三丁目","koaza":"","lat":34.548057,"lng":133.750179},{"town":"北畝四丁目","koaza":"","lat":34.536659,"lng":133.757067},{"town":"北畝五丁目","koaza":"","lat":34.538637,"lng":133.754509},{"town":"北畝六丁目","koaza":"","lat":34.542425,"lng":133.753642},{"town":"北畝七丁目","koaza":"","lat":34.548285,"lng":133.751866},{"town":"北浜町","koaza":"","lat":34.607595,"lng":133.764009},{"town":"木見","koaza":"","lat":34.526796,"lng":133.834021},{"town":"串田","koaza":"","lat":34.546413,"lng":133.810746},{"town":"倉敷ハイツ","koaza":"","lat":34.582545,"lng":133.792021},{"town":"栗坂","koaza":"","lat":34.630064,"lng":133.825874},{"town":"黒石","koaza":"","lat":34.562689,"lng":133.776659},{"town":"黒崎","koaza":"","lat":34.606565,"lng":133.794512},{"town":"児島赤崎","koaza":"","lat":34.449581,"lng":133.798778},{"town":"児島赤崎一丁目","koaza":"","lat":34.459251,"lng":133.800418},{"town":"児島赤崎二丁目","koaza":"","lat":34.453927,"lng":133.797842},{"town":"児島赤崎三丁目","koaza":"","lat":34.458324,"lng":133.795334},{"town":"児島赤崎四丁目","koaza":"","lat":34.461895,"lng":133.793643},{"town":"児島味野","koaza":"","lat":34.462419,"lng":133.810833},{"town":"児島味野一丁目","koaza":"","lat":34.472182,"lng":133.80318},{"town":"児島味野二丁目","koaza":"","lat":34.468758,"lng":133.802281},{"town":"児島味野三丁目","koaza":"","lat":34.466845,"lng":133.800866},{"town":"児島味野四丁目","koaza":"","lat":34.463894,"lng":133.800152},{"town":"児島味野五丁目","koaza":"","lat":34.466481,"lng":133.795478},{"town":"児島味野六丁目","koaza":"","lat":34.468769,"lng":133.797873},{"town":"児島味野上一丁目","koaza":"","lat":34.47642,"lng":133.798188},{"town":"児島味野上二丁目","koaza":"","lat":34.479437,"lng":133.794982},{"town":"児島味野城一丁目","koaza":"","lat":34.473053,"lng":133.800437},{"town":"児島味野城二丁目","koaza":"","lat":34.471759,"lng":133.79712},{"town":"児島味野城山","koaza":"","lat":34.476781,"lng":133.78758},{"town":"児島味野山田町","koaza":"","lat":34.469556,"lng":133.79088},{"town":"児島阿津一丁目","koaza":"","lat":34.454707,"lng":133.806512},{"town":"児島阿津二丁目","koaza":"","lat":34.449765,"lng":133.805651},{"town":"児島阿津三丁目","koaza":"","lat":34.452217,"lng":133.800538},{"town":"児島宇野津","koaza":"","lat":34.502021,"lng":133.777087},{"town":"児島駅前一丁目","koaza":"","lat":34.464205,"lng":133.805322},{"town":"児島駅前二丁目","koaza":"","lat":34.466818,"lng":133.805521},{"town":"児島駅前三丁目","koaza":"","lat":34.461917,"lng":133.80837},{"town":"児島駅前四丁目","koaza":"","lat":34.460071,"lng":133.805406},{"town":"児島小川十丁目","koaza":"","lat":34.487071,"lng":133.809648},{"town":"児島小川一丁目","koaza":"","lat":34.469322,"lng":133.809011},{"town":"児島小川二丁目","koaza":"","lat":34.471551,"lng":133.810596},{"town":"児島小川三丁目","koaza":"","lat":34.472233,"lng":133.806127},{"town":"児島小川四丁目","koaza":"","lat":34.474915,"lng":133.807146},{"town":"児島小川五丁目","koaza":"","lat":34.477241,"lng":133.805081},{"town":"児島小川六丁目","koaza":"","lat":34.479166,"lng":133.803183},{"town":"児島小川七丁目","koaza":"","lat":34.482055,"lng":133.802605},{"town":"児島小川八丁目","koaza":"","lat":34.486644,"lng":133.801895},{"town":"児島小川九丁目","koaza":"","lat":34.490219,"lng":133.805779},{"town":"児島小川町","koaza":"","lat":34.482571,"lng":133.808434},{"town":"児島上の町","koaza":"","lat":34.497074,"lng":133.827184},{"town":"児島上の町一丁目","koaza":"","lat":34.483449,"lng":133.812389},{"town":"児島上の町二丁目","koaza":"","lat":34.490676,"lng":133.812954},{"town":"児島上の町三丁目","koaza":"","lat":34.492653,"lng":133.818236},{"town":"児島上の町四丁目","koaza":"","lat":34.487823,"lng":133.820416},{"town":"児島通生","koaza":"","lat":34.459392,"lng":133.781618},{"town":"児島唐琴一丁目","koaza":"","lat":34.471897,"lng":133.859152},{"town":"児島唐琴二丁目","koaza":"","lat":34.472426,"lng":133.862774},{"town":"児島唐琴三丁目","koaza":"","lat":34.469493,"lng":133.866123},{"town":"児島唐琴四丁目","koaza":"","lat":34.467876,"lng":133.864739},{"town":"児島唐琴町","koaza":"","lat":34.469444,"lng":133.87243},{"town":"児島塩生","koaza":"","lat":34.479668,"lng":133.77054},{"town":"児島下の町","koaza":"","lat":34.489233,"lng":133.833623},{"town":"児島下の町十丁目","koaza":"","lat":34.473277,"lng":133.826715},{"town":"児島下の町一丁目","koaza":"","lat":34.471,"lng":133.816778},{"town":"児島下の町二丁目","koaza":"","lat":34.472671,"lng":133.819894},{"town":"児島下の町三丁目","koaza":"","lat":34.476523,"lng":133.816628},{"town":"児島下の町四丁目","koaza":"","lat":34.48121,"lng":133.815284},{"town":"児島下の町五丁目","koaza":"","lat":34.480017,"lng":133.820933},{"town":"児島下の町六丁目","koaza":"","lat":34.483177,"lng":133.824453},{"town":"児島下の町七丁目","koaza":"","lat":34.479354,"lng":133.826468},{"town":"児島下の町八丁目","koaza":"","lat":34.481155,"lng":133.831475},{"town":"児島下の町九丁目","koaza":"","lat":34.47368,"lng":133.831388},{"town":"児島白尾","koaza":"","lat":34.4898,"lng":133.855633},{"town":"児島田の口","koaza":"","lat":34.484679,"lng":133.840935},{"town":"児島田の口一丁目","koaza":"","lat":34.478751,"lng":133.83419},{"town":"児島田の口二丁目","koaza":"","lat":34.477637,"lng":133.83896},{"town":"児島田の口三丁目","koaza":"","lat":34.475467,"lng":133.842307},{"town":"児島田の口四丁目","koaza":"","lat":34.478059,"lng":133.846955},{"town":"児島田の口五丁目","koaza":"","lat":34.473685,"lng":133.847629},{"town":"児島田の口六丁目","koaza":"","lat":34.471115,"lng":133.843127},{"town":"児島田の口七丁目","koaza":"","lat":34.473502,"lng":133.838761},{"town":"児島稗田町","koaza":"","lat":34.503745,"lng":133.804893},{"town":"児島元浜町","koaza":"","lat":34.453701,"lng":133.808957},{"town":"児島柳田町","koaza":"","lat":34.490274,"lng":133.789849},{"town":"児島由加","koaza":"","lat":34.505595,"lng":133.856441},{"town":"寿町","koaza":"","lat":34.603754,"lng":133.763745},{"town":"菰池","koaza":"","lat":34.450037,"lng":133.792537},{"town":"菰池一丁目","koaza":"","lat":34.453722,"lng":133.792029},{"town":"菰池二丁目","koaza":"","lat":34.453319,"lng":133.786647},{"town":"菰池三丁目","koaza":"","lat":34.45714,"lng":133.7897},{"town":"幸町","koaza":"","lat":34.604863,"lng":133.774657},{"town":"酒津","koaza":"","lat":34.615688,"lng":133.743919},{"town":"笹沖","koaza":"","lat":34.5767,"lng":133.765934},{"town":"四十瀬","koaza":"","lat":34.586009,"lng":133.749029},{"town":"下庄","koaza":"","lat":34.638387,"lng":133.827515},{"town":"下津井","koaza":"","lat":34.444792,"lng":133.784906},{"town":"下津井一丁目","koaza":"","lat":34.438043,"lng":133.797759},{"town":"下津井二丁目","koaza":"","lat":34.440283,"lng":133.79196},{"town":"下津井三丁目","koaza":"","lat":34.442573,"lng":133.789284},{"town":"下津井四丁目","koaza":"","lat":34.438435,"lng":133.78701},{"town":"下津井五丁目","koaza":"","lat":34.442583,"lng":133.782527},{"town":"下津井田之浦","koaza":"","lat":34.435197,"lng":133.811294},{"town":"下津井田之浦一丁目","koaza":"","lat":34.436707,"lng":133.806614},{"town":"下津井田之浦二丁目","koaza":"","lat":34.439912,"lng":133.805305},{"town":"下津井吹上","koaza":"","lat":34.444481,"lng":133.798924},{"town":"下津井吹上一丁目","koaza":"","lat":34.439843,"lng":133.802411},{"town":"下津井吹上二丁目","koaza":"","lat":34.439992,"lng":133.799616},{"town":"庄新町","koaza":"","lat":34.660622,"lng":133.82505},{"town":"上東","koaza":"","lat":34.647483,"lng":133.823213},{"town":"新倉敷駅前一丁目","koaza":"","lat":34.56285,"lng":133.67819},{"town":"新倉敷駅前二丁目","koaza":"","lat":34.565165,"lng":133.680672},{"town":"新倉敷駅前三丁目","koaza":"","lat":34.563775,"lng":133.682676},{"town":"新倉敷駅前四丁目","koaza":"","lat":34.560847,"lng":133.680514},{"town":"新倉敷駅前五丁目","koaza":"","lat":34.559999,"lng":133.677199},{"town":"新田","koaza":"","lat":34.580013,"lng":133.778885},{"town":"祐安","koaza":"","lat":34.619174,"lng":133.758333},{"town":"曽原","koaza":"","lat":34.53566,"lng":133.798354},{"town":"高須賀","koaza":"","lat":34.586574,"lng":133.822203},{"town":"田ノ上","koaza":"","lat":34.588549,"lng":133.758096},{"town":"田ノ上新町","koaza":"","lat":34.585458,"lng":133.756063},{"town":"玉島","koaza":"","lat":34.552789,"lng":133.684793},{"town":"玉島一丁目","koaza":"","lat":34.545573,"lng":133.675403},{"town":"玉島二丁目","koaza":"","lat":34.541826,"lng":133.676724},{"town":"玉島三丁目","koaza":"","lat":34.539454,"lng":133.672185},{"town":"玉島阿賀崎","koaza":"","lat":34.544535,"lng":133.658244},{"town":"玉島阿賀崎一丁目","koaza":"","lat":34.550685,"lng":133.67642},{"town":"玉島阿賀崎二丁目","koaza":"","lat":34.549336,"lng":133.672727},{"town":"玉島阿賀崎三丁目","koaza":"","lat":34.549566,"lng":133.670417},{"town":"玉島阿賀崎四丁目","koaza":"","lat":34.549868,"lng":133.667756},{"town":"玉島阿賀崎五丁目","koaza":"","lat":34.552876,"lng":133.669255},{"town":"玉島上成","koaza":"","lat":34.559959,"lng":133.692708},{"town":"玉島柏島","koaza":"","lat":34.531936,"lng":133.658119},{"town":"玉島柏台一丁目","koaza":"","lat":34.533682,"lng":133.650199},{"town":"玉島柏台二丁目","koaza":"","lat":34.532465,"lng":133.648969},{"town":"玉島柏台三丁目","koaza":"","lat":34.531315,"lng":133.652038},{"town":"玉島柏台四丁目","koaza":"","lat":34.530462,"lng":133.649421},{"town":"玉島柏台五丁目","koaza":"","lat":34.528842,"lng":133.653268},{"town":"玉島黒崎","koaza":"","lat":34.514239,"lng":133.635141},{"town":"玉島黒崎新町","koaza":"","lat":34.515027,"lng":133.649915},{"town":"玉島陶","koaza":"","lat":34.591353,"lng":133.66571},{"town":"玉島中央町一丁目","koaza":"","lat":34.544015,"lng":133.672216},{"town":"玉島中央町二丁目","koaza":"","lat":34.546307,"lng":133.669872},{"town":"玉島中央町三丁目","koaza":"","lat":34.544046,"lng":133.669372},{"town":"玉島爪崎","koaza":"","lat":34.561119,"lng":133.684421},{"town":"玉島富","koaza":"","lat":34.576591,"lng":133.631395},{"town":"玉島長尾","koaza":"","lat":34.575487,"lng":133.680785},{"town":"玉島服部","koaza":"","lat":34.606991,"lng":133.683251},{"town":"玉島道口","koaza":"","lat":34.57312,"lng":133.6489},{"town":"玉島道越","koaza":"","lat":34.553444,"lng":133.656437},{"town":"玉島八島","koaza":"","lat":34.564064,"lng":133.665141},{"town":"玉島勇崎","koaza":"","lat":34.526587,"lng":133.644459},{"town":"茶屋町","koaza":"","lat":34.578075,"lng":133.831108},{"town":"茶屋町早沖","koaza":"","lat":34.588636,"lng":133.835585},{"town":"中央一丁目","koaza":"","lat":34.591933,"lng":133.771328},{"town":"中央二丁目","koaza":"","lat":34.593233,"lng":133.768936},{"town":"粒浦","koaza":"","lat":34.569069,"lng":133.786115},{"town":"粒江","koaza":"","lat":34.55211,"lng":133.798275},{"town":"粒江団地","koaza":"","lat":34.563454,"lng":133.804359},{"town":"連島一丁目","koaza":"","lat":34.545281,"lng":133.737775},{"town":"連島二丁目","koaza":"","lat":34.548901,"lng":133.739284},{"town":"連島三丁目","koaza":"","lat":34.551446,"lng":133.743357},{"town":"連島四丁目","koaza":"","lat":34.552367,"lng":133.741348},{"town":"連島五丁目","koaza":"","lat":34.550923,"lng":133.738055},{"town":"連島中央一丁目","koaza":"","lat":34.546524,"lng":133.733777},{"town":"連島中央二丁目","koaza":"","lat":34.5496,"lng":133.733806},{"town":"連島中央三丁目","koaza":"","lat":34.548588,"lng":133.730859},{"town":"連島中央四丁目","koaza":"","lat":34.5477,"lng":133.729268},{"town":"連島中央五丁目","koaza":"","lat":34.546397,"lng":133.724828},{"town":"連島町亀島新田","koaza":"","lat":34.550201,"lng":133.726922},{"town":"連島町連島","koaza":"","lat":34.562098,"lng":133.738436},{"town":"連島町鶴新田","koaza":"","lat":34.538777,"lng":133.711384},{"town":"連島町西之浦","koaza":"","lat":34.555971,"lng":133.710605},{"town":"連島町矢柄","koaza":"","lat":34.560822,"lng":133.723064},{"town":"鶴形一丁目","koaza":"","lat":34.600881,"lng":133.771605},{"town":"鶴形二丁目","koaza":"","lat":34.598862,"lng":133.772333},{"town":"鶴の浦一丁目","koaza":"","lat":34.551029,"lng":133.704529},{"town":"鶴の浦二丁目","koaza":"","lat":34.544238,"lng":133.705796},{"town":"鶴の浦三丁目","koaza":"","lat":34.548192,"lng":133.710222},{"town":"徳芳","koaza":"","lat":34.624237,"lng":133.817948},{"town":"鳥羽","koaza":"","lat":34.619399,"lng":133.809599},{"town":"中帯江","koaza":"","lat":34.601284,"lng":133.801744},{"town":"中島","koaza":"","lat":34.580676,"lng":133.734368},{"town":"中庄","koaza":"","lat":34.618986,"lng":133.79578},{"town":"中庄団地","koaza":"","lat":34.612934,"lng":133.790682},{"town":"中畝十丁目","koaza":"","lat":34.534093,"lng":133.753271},{"town":"中畝一丁目","koaza":"","lat":34.525751,"lng":133.744462},{"town":"中畝二丁目","koaza":"","lat":34.526852,"lng":133.746792},{"town":"中畝三丁目","koaza":"","lat":34.529777,"lng":133.745985},{"town":"中畝四丁目","koaza":"","lat":34.531959,"lng":133.746474},{"town":"中畝五丁目","koaza":"","lat":34.534353,"lng":133.747033},{"town":"中畝六丁目","koaza":"","lat":34.523766,"lng":133.751601},{"town":"中畝七丁目","koaza":"","lat":34.525259,"lng":133.752861},{"town":"中畝八丁目","koaza":"","lat":34.528703,"lng":133.753026},{"town":"中畝九丁目","koaza":"","lat":34.531763,"lng":133.753161},{"town":"西阿知町","koaza":"","lat":34.589951,"lng":133.73194},{"town":"西阿知町新田","koaza":"","lat":34.572284,"lng":133.727412},{"town":"西阿知町西原","koaza":"","lat":34.588483,"lng":133.721052},{"town":"西尾","koaza":"","lat":34.655549,"lng":133.826046},{"town":"西岡","koaza":"","lat":34.618756,"lng":133.767899},{"town":"西坂","koaza":"","lat":34.630666,"lng":133.774329},{"town":"西田","koaza":"","lat":34.59315,"lng":133.810926},{"town":"西富井","koaza":"","lat":34.574114,"lng":133.747411},{"town":"西中新田","koaza":"","lat":34.582184,"lng":133.761643},{"town":"白楽町","koaza":"","lat":34.588619,"lng":133.766755},{"town":"羽島","koaza":"","lat":34.595696,"lng":133.784775},{"town":"八王寺町","koaza":"","lat":34.600914,"lng":133.751472},{"town":"八軒屋","koaza":"","lat":34.57493,"lng":133.787965},{"town":"浜ノ茶屋","koaza":"","lat":34.613257,"lng":133.769944},{"town":"浜ノ茶屋一丁目","koaza":"","lat":34.61108,"lng":133.769963},{"town":"浜ノ茶屋二丁目","koaza":"","lat":34.612088,"lng":133.772799},{"town":"浜町一丁目","koaza":"","lat":34.607919,"lng":133.76874},{"town":"浜町二丁目","koaza":"","lat":34.608341,"lng":133.772658},{"town":"林","koaza":"","lat":34.533262,"lng":133.813534},{"town":"早高","koaza":"","lat":34.589493,"lng":133.816333},{"town":"東塚一丁目","koaza":"","lat":34.523747,"lng":133.758904},{"town":"東塚二丁目","koaza":"","lat":34.526163,"lng":133.758998},{"town":"東塚三丁目","koaza":"","lat":34.528989,"lng":133.759095},{"town":"東塚四丁目","koaza":"","lat":34.532633,"lng":133.759209},{"town":"東塚五丁目","koaza":"","lat":34.529266,"lng":133.764905},{"town":"東塚六丁目","koaza":"","lat":34.526048,"lng":133.766119},{"town":"東塚七丁目","koaza":"","lat":34.523556,"lng":133.76565},{"town":"東粒浦","koaza":"","lat":34.566317,"lng":133.798997},{"town":"東富井","koaza":"","lat":34.574541,"lng":133.75441},{"town":"東町","koaza":"","lat":34.596061,"lng":133.777318},{"town":"日ノ出町二丁目","koaza":"","lat":34.607918,"lng":133.766186},{"town":"日畑","koaza":"","lat":34.658664,"lng":133.832148},{"town":"日吉町","koaza":"","lat":34.601361,"lng":133.757129},{"town":"平田","koaza":"","lat":34.614686,"lng":133.779601},{"town":"広江一丁目","koaza":"","lat":34.520082,"lng":133.773935},{"town":"広江二丁目","koaza":"","lat":34.526284,"lng":133.772049},{"town":"広江三丁目","koaza":"","lat":34.526761,"lng":133.7769},{"town":"広江四丁目","koaza":"","lat":34.528827,"lng":133.781762},{"town":"広江五丁目","koaza":"","lat":34.525859,"lng":133.782287},{"town":"広江六丁目","koaza":"","lat":34.521554,"lng":133.78021},{"town":"広江七丁目","koaza":"","lat":34.523035,"lng":133.787652},{"town":"広江八丁目","koaza":"","lat":34.528898,"lng":133.791728},{"town":"福井","koaza":"","lat":34.568132,"lng":133.749847},{"town":"福江","koaza":"","lat":34.520502,"lng":133.803175},{"town":"福島","koaza":"","lat":34.604056,"lng":133.783376},{"town":"福田町浦田","koaza":"","lat":34.556511,"lng":133.765159},{"town":"福田町古新田","koaza":"","lat":34.539606,"lng":133.765395},{"town":"福田町東塚","koaza":"","lat":34.53422,"lng":133.761312},{"town":"福田町広江","koaza":"","lat":34.518004,"lng":133.784976},{"town":"福田町福田","koaza":"","lat":34.543491,"lng":133.778444},{"town":"福田町南畝","koaza":"","lat":34.513024,"lng":133.743507},{"town":"藤戸町天城","koaza":"","lat":34.568998,"lng":133.814446},{"town":"藤戸町藤戸","koaza":"","lat":34.558824,"lng":133.819169},{"town":"二子","koaza":"","lat":34.640028,"lng":133.808608},{"town":"二日市","koaza":"","lat":34.590167,"lng":133.792953},{"town":"船穂町船穂","koaza":"","lat":34.581759,"lng":133.70211},{"town":"船穂町水江","koaza":"","lat":34.598986,"lng":133.720071},{"town":"船穂町柳井原","koaza":"","lat":34.61346,"lng":133.718286},{"town":"船倉町","koaza":"","lat":34.591498,"lng":133.773294},{"town":"堀南","koaza":"","lat":34.573667,"lng":133.758151},{"town":"本町","koaza":"","lat":34.596249,"lng":133.774176},{"town":"松江一丁目","koaza":"","lat":34.519701,"lng":133.758771},{"town":"松江二丁目","koaza":"","lat":34.515598,"lng":133.758636},{"town":"松江三丁目","koaza":"","lat":34.511477,"lng":133.755565},{"town":"松江四丁目","koaza":"","lat":34.514706,"lng":133.766032},{"town":"松島","koaza":"","lat":34.63129,"lng":133.813464},{"town":"真備町有井","koaza":"","lat":34.634303,"lng":133.704639},{"town":"真備町市場","koaza":"","lat":34.651391,"lng":133.680804},{"town":"真備町岡田","koaza":"","lat":34.649529,"lng":133.70454},{"town":"真備町尾崎","koaza":"","lat":34.629486,"lng":133.668408},{"town":"真備町上二万","koaza":"","lat":34.606274,"lng":133.703461},{"town":"真備町川辺","koaza":"","lat":34.633831,"lng":133.718809},{"town":"真備町下二万","koaza":"","lat":34.619784,"lng":133.70954},{"town":"真備町妹","koaza":"","lat":34.624253,"lng":133.644787},{"town":"真備町辻田","koaza":"","lat":34.650028,"lng":133.716729},{"town":"真備町服部","koaza":"","lat":34.614314,"lng":133.670568},{"town":"真備町箭田","koaza":"","lat":34.626403,"lng":133.688409},{"town":"水江","koaza":"","lat":34.603918,"lng":133.737793},{"town":"水島相生町","koaza":"","lat":34.550587,"lng":133.749089},{"town":"水島青葉町","koaza":"","lat":34.534908,"lng":133.738038},{"town":"水島海岸通一丁目","koaza":"","lat":34.525702,"lng":133.733777},{"town":"水島海岸通二丁目","koaza":"","lat":34.519952,"lng":133.73366},{"town":"水島海岸通三丁目","koaza":"","lat":34.514446,"lng":133.733336},{"town":"水島海岸通四丁目","koaza":"","lat":34.509692,"lng":133.733451},{"town":"水島海岸通五丁目","koaza":"","lat":34.5032,"lng":133.728922},{"town":"水島川崎通一丁目","koaza":"","lat":34.507474,"lng":133.714843},{"town":"水島北春日町","koaza":"","lat":34.544836,"lng":133.742969},{"town":"水島北亀島町","koaza":"","lat":34.532276,"lng":133.726799},{"town":"水島北幸町","koaza":"","lat":34.540579,"lng":133.740684},{"town":"水島北瑞穂町","koaza":"","lat":34.548304,"lng":133.742553},{"town":"水島北緑町","koaza":"","lat":34.548657,"lng":133.745144},{"town":"水島高砂町","koaza":"","lat":34.530396,"lng":133.735995},{"town":"水島中通一丁目","koaza":"","lat":34.525669,"lng":133.727396},{"town":"水島中通二丁目","koaza":"","lat":34.520103,"lng":133.727345},{"town":"水島中通三丁目","koaza":"","lat":34.514387,"lng":133.726981},{"town":"水島中通四丁目","koaza":"","lat":34.509657,"lng":133.727029},{"town":"水島西寿町","koaza":"","lat":34.546896,"lng":133.746674},{"town":"水島西栄町","koaza":"","lat":34.538584,"lng":133.742646},{"town":"水島西千鳥町","koaza":"","lat":34.529612,"lng":133.738692},{"town":"水島西通一丁目","koaza":"","lat":34.525832,"lng":133.722021},{"town":"水島西通二丁目","koaza":"","lat":34.519832,"lng":133.72226},{"town":"水島西常盤町","koaza":"","lat":34.53418,"lng":133.74071},{"town":"水島西弥生町","koaza":"","lat":34.542963,"lng":133.744767},{"town":"水島東川町","koaza":"","lat":34.550289,"lng":133.746038},{"town":"水島東寿町","koaza":"","lat":34.54648,"lng":133.748087},{"town":"水島東栄町","koaza":"","lat":34.537998,"lng":133.744234},{"town":"水島東千鳥町","koaza":"","lat":34.529298,"lng":133.740536},{"town":"水島東常盤町","koaza":"","lat":34.533625,"lng":133.74234},{"town":"水島東弥生町","koaza":"","lat":34.542435,"lng":133.746243},{"town":"水島福崎町","koaza":"","lat":34.525863,"lng":133.738773},{"town":"水島南春日町","koaza":"","lat":34.542701,"lng":133.741792},{"town":"水島南亀島町","koaza":"","lat":34.529624,"lng":133.726528},{"town":"水島南幸町","koaza":"","lat":34.538326,"lng":133.739609},{"town":"水島南瑞穂町","koaza":"","lat":34.544451,"lng":133.740236},{"town":"水島南緑町","koaza":"","lat":34.546852,"lng":133.744118},{"town":"水島明神町","koaza":"","lat":34.531454,"lng":133.732632},{"town":"三田","koaza":"","lat":34.63291,"lng":133.796516},{"town":"南畝一丁目","koaza":"","lat":34.521134,"lng":133.74087},{"town":"南畝二丁目","koaza":"","lat":34.521353,"lng":133.743583},{"town":"南畝三丁目","koaza":"","lat":34.521308,"lng":133.746067},{"town":"南畝四丁目","koaza":"","lat":34.513997,"lng":133.746617},{"town":"南畝五丁目","koaza":"","lat":34.521193,"lng":133.74852},{"town":"南畝六丁目","koaza":"","lat":34.517234,"lng":133.751579},{"town":"南畝七丁目","koaza":"","lat":34.518122,"lng":133.753826},{"town":"南町","koaza":"","lat":34.592909,"lng":133.766114},{"town":"宮前","koaza":"","lat":34.612335,"lng":133.763432},{"town":"美和一丁目","koaza":"","lat":34.601334,"lng":133.775948},{"town":"美和二丁目","koaza":"","lat":34.598754,"lng":133.776131},{"town":"向山","koaza":"","lat":34.590261,"lng":133.777944},{"town":"安江","koaza":"","lat":34.59558,"lng":133.750225},{"town":"矢部","koaza":"","lat":34.663481,"lng":133.814013},{"town":"山地","koaza":"","lat":34.653982,"lng":133.810933},{"town":"吉岡","koaza":"","lat":34.568569,"lng":133.767601},{"town":"呼松一丁目","koaza":"","lat":34.515282,"lng":133.771237},{"town":"呼松二丁目","koaza":"","lat":34.511199,"lng":133.771392},{"town":"呼松三丁目","koaza":"","lat":34.508967,"lng":133.769918},{"town":"呼松町","koaza":"","lat":34.513687,"lng":133.775308},{"town":"日ノ出町一丁目","koaza":"","lat":34.605294,"lng":133.768923},{"town":"阿知二丁目","koaza":"","lat":34.599602,"lng":133.768942},{"town":"玉島乙島","koaza":"","lat":34.522543,"lng":133.676441},{"town":"阿知一丁目","koaza":"","lat":34.601736,"lng":133.766382},{"town":"昭和一丁目","koaza":"","lat":34.604836,"lng":133.77098},{"town":"昭和二丁目","koaza":"","lat":34.603379,"lng":133.7714},{"town":"中島","koaza":"小溝","lat":34.571983,"lng":133.739789},{"town":"中島","koaza":"松之内","lat":34.58162,"lng":133.740361},{"town":"笹沖","koaza":"太田山","lat":34.580611,"lng":133.771521},{"town":"松島","koaza":"堤中","lat":34.630679,"lng":133.805235}]