[{"town":"牛窓町牛窓","koaza":"","lat":"34.628302","lng":"134.159125"},{"town":"牛窓町鹿忍","koaza":"","lat":"34.614290","lng":"134.133803"},{"town":"牛窓町千手","koaza":"","lat":"34.613346","lng":"134.116156"},{"town":"牛窓町長浜","koaza":"","lat":"34.642269","lng":"134.135238"},{"town":"邑久町大窪","koaza":"","lat":"34.657395","lng":"134.083624"},{"town":"邑久町大富","koaza":"","lat":"34.661984","lng":"134.072143"},{"town":"邑久町尾張","koaza":"","lat":"34.661459","lng":"134.103182"},{"town":"邑久町上笠加","koaza":"","lat":"34.687685","lng":"134.103003"},{"town":"邑久町上山田","koaza":"","lat":"34.636969","lng":"134.113811"},{"town":"邑久町北池","koaza":"","lat":"34.681092","lng":"134.110318"},{"town":"邑久町北島","koaza":"","lat":"34.652424","lng":"134.070378"},{"town":"邑久町下笠加","koaza":"","lat":"34.680527","lng":"134.096922"},{"town":"邑久町下山田","koaza":"","lat":"34.649346","lng":"134.109057"},{"town":"邑久町庄田","koaza":"","lat":"34.672343","lng":"134.161226"},{"town":"邑久町尻海","koaza":"","lat":"34.659801","lng":"134.160827"},{"town":"邑久町宗三","koaza":"","lat":"34.666961","lng":"134.078814"},{"town":"邑久町豊原","koaza":"","lat":"34.648710","lng":"134.094493"},{"town":"邑久町豊安","koaza":"","lat":"34.657625","lng":"134.094649"},{"town":"邑久町東谷","koaza":"","lat":"34.641244","lng":"134.077845"},{"town":"邑久町福谷","koaza":"","lat":"34.674995","lng":"134.186506"},{"town":"邑久町福中","koaza":"","lat":"34.672213","lng":"134.072646"},{"town":"邑久町福元","koaza":"","lat":"34.675907","lng":"134.084852"},{"town":"邑久町福山","koaza":"","lat":"34.664894","lng":"134.061674"},{"town":"邑久町本庄","koaza":"","lat":"34.656171","lng":"134.120941"},{"town":"邑久町豆田","koaza":"","lat":"34.686063","lng":"134.083391"},{"town":"邑久町箕輪","koaza":"","lat":"34.686501","lng":"134.090847"},{"town":"邑久町向山","koaza":"","lat":"34.658056","lng":"134.065749"},{"town":"邑久町百田","koaza":"","lat":"34.665632","lng":"134.084498"},{"town":"邑久町山田庄","koaza":"","lat":"34.671354","lng":"134.096743"},{"town":"邑久町山手","koaza":"","lat":"34.670774","lng":"134.112357"},{"town":"長船町飯井","koaza":"","lat":"34.696551","lng":"134.147048"},{"town":"長船町磯上","koaza":"","lat":"34.711375","lng":"134.143141"},{"town":"長船町牛文","koaza":"","lat":"34.692603","lng":"134.130747"},{"town":"長船町長船","koaza":"","lat":"34.720860","lng":"134.104339"},{"town":"長船町西須恵","koaza":"","lat":"34.675359","lng":"134.132577"},{"town":"長船町土師","koaza":"","lat":"34.692972","lng":"134.111663"},{"town":"長船町服部","koaza":"","lat":"34.707395","lng":"134.106862"},{"town":"長船町東須恵","koaza":"","lat":"34.682733","lng":"134.151639"},{"town":"長船町福岡","koaza":"","lat":"34.702590","lng":"134.092225"},{"town":"長船町福里","koaza":"","lat":"34.701937","lng":"134.121453"},{"town":"長船町八日市","koaza":"","lat":"34.712356","lng":"134.095784"},{"town":"邑久町虫明","koaza":"","lat":"34.693723","lng":"134.213652"}]