[{"town":"間之町","koaza":"","lat":34.792855,"lng":133.61845},{"town":"旭町","koaza":"","lat":34.788307,"lng":133.61539},{"town":"伊賀町","koaza":"","lat":34.797658,"lng":133.623994},{"town":"石火矢町","koaza":"","lat":34.799341,"lng":133.6183},{"town":"有漢町有漢","koaza":"","lat":34.899272,"lng":133.663601},{"town":"有漢町上有漢","koaza":"","lat":34.9295,"lng":133.68275},{"town":"宇治町穴田","koaza":"","lat":34.816956,"lng":133.470169},{"town":"宇治町宇治","koaza":"","lat":34.844555,"lng":133.49},{"town":"宇治町遠原","koaza":"","lat":34.851511,"lng":133.506375},{"town":"宇治町本郷","koaza":"","lat":34.837846,"lng":133.484045},{"town":"内山下","koaza":"","lat":34.809562,"lng":133.6231},{"town":"奥万田町","koaza":"","lat":34.796308,"lng":133.633716},{"town":"落合町阿部","koaza":"","lat":34.784831,"lng":133.583982},{"town":"落合町福地","koaza":"","lat":34.794712,"lng":133.548621},{"town":"落合町近似","koaza":"","lat":34.795559,"lng":133.603012},{"town":"落合町原田","koaza":"","lat":34.800958,"lng":133.578238},{"town":"御前町","koaza":"","lat":34.799154,"lng":133.619594},{"town":"柿木町","koaza":"","lat":34.795479,"lng":133.617408},{"town":"鍜冶町","koaza":"","lat":34.794782,"lng":133.616187},{"town":"片原町","koaza":"","lat":34.799188,"lng":133.617485},{"town":"上谷町","koaza":"","lat":34.784355,"lng":133.62353},{"town":"川上町大原","koaza":"","lat":34.747722,"lng":133.414451},{"town":"川上町上大竹","koaza":"","lat":34.713881,"lng":133.433524},{"town":"川上町高山","koaza":"","lat":34.745269,"lng":133.429813},{"town":"川上町高山市","koaza":"","lat":34.748772,"lng":133.39035},{"town":"川上町地頭","koaza":"","lat":34.733227,"lng":133.481223},{"town":"川上町下大竹","koaza":"","lat":34.734591,"lng":133.454313},{"town":"川上町臘数","koaza":"","lat":34.758552,"lng":133.509026},{"town":"川上町七地","koaza":"","lat":34.759037,"lng":133.465406},{"town":"川上町仁賀","koaza":"","lat":34.708401,"lng":133.467109},{"town":"川上町三沢","koaza":"","lat":34.71923,"lng":133.505463},{"town":"川上町吉木","koaza":"","lat":34.774957,"lng":133.50227},{"town":"川上町領家","koaza":"","lat":34.757314,"lng":133.493135},{"town":"川端町","koaza":"","lat":34.803075,"lng":133.615537},{"town":"川面町","koaza":"","lat":34.859152,"lng":133.594702},{"town":"甲賀町","koaza":"","lat":34.794111,"lng":133.616846},{"town":"荒神町","koaza":"","lat":34.794751,"lng":133.61673},{"town":"小高下町","koaza":"","lat":34.806956,"lng":133.639973},{"town":"巨瀬町","koaza":"","lat":34.874612,"lng":133.635906},{"town":"栄町","koaza":"","lat":34.790339,"lng":133.61544},{"town":"下谷町","koaza":"","lat":34.781923,"lng":133.61784},{"town":"下町","koaza":"","lat":34.794825,"lng":133.615451},{"town":"新町","koaza":"","lat":34.798385,"lng":133.616991},{"town":"大工町","koaza":"","lat":34.795718,"lng":133.616996},{"town":"高倉町飯部","koaza":"","lat":34.858546,"lng":133.544042},{"town":"高倉町大瀬八長","koaza":"","lat":34.812238,"lng":133.606738},{"town":"高倉町田井","koaza":"","lat":34.83816,"lng":133.583358},{"town":"玉川町下切","koaza":"","lat":34.752646,"lng":133.573613},{"town":"玉川町玉","koaza":"","lat":34.755941,"lng":133.600396},{"town":"玉川町増原","koaza":"","lat":34.733823,"lng":133.579872},{"town":"段町","koaza":"","lat":34.779639,"lng":133.603816},{"town":"中間町","koaza":"","lat":34.79505,"lng":133.614553},{"town":"津川町今津","koaza":"","lat":34.823118,"lng":133.633204},{"town":"津川町八川","koaza":"","lat":34.847489,"lng":133.630658},{"town":"鉄砲町","koaza":"","lat":34.791414,"lng":133.613006},{"town":"寺町","koaza":"","lat":34.795736,"lng":133.619353},{"town":"中井町津々","koaza":"","lat":34.925704,"lng":133.603598},{"town":"中井町西方","koaza":"","lat":34.898499,"lng":133.585423},{"town":"中之町","koaza":"","lat":34.797275,"lng":133.618007},{"town":"中原町","koaza":"","lat":34.785004,"lng":133.612226},{"town":"成羽町相坂","koaza":"","lat":34.79555,"lng":133.471682},{"town":"成羽町長地","koaza":"","lat":34.801666,"lng":133.46834},{"town":"成羽町上日名","koaza":"","lat":34.74587,"lng":133.534644},{"town":"成羽町小泉","koaza":"","lat":34.795284,"lng":133.492076},{"town":"成羽町坂本","koaza":"","lat":34.865263,"lng":133.438451},{"town":"成羽町佐々木","koaza":"","lat":34.774368,"lng":133.512804},{"town":"成羽町下原","koaza":"","lat":34.770635,"lng":133.532996},{"town":"成羽町下日名","koaza":"","lat":34.767627,"lng":133.552373},{"town":"成羽町中野","koaza":"","lat":34.838603,"lng":133.460675},{"town":"成羽町成羽","koaza":"","lat":34.789993,"lng":133.5271},{"town":"成羽町羽根","koaza":"","lat":34.806637,"lng":133.485467},{"town":"成羽町羽山","koaza":"","lat":34.810561,"lng":133.508012},{"town":"成羽町吹屋","koaza":"","lat":34.868155,"lng":133.478685},{"town":"成羽町布寄","koaza":"","lat":34.807151,"lng":133.44966},{"town":"成羽町星原","koaza":"","lat":34.771825,"lng":133.524663},{"town":"浜町","koaza":"","lat":34.789587,"lng":133.61864},{"town":"原田北町","koaza":"","lat":34.78605,"lng":133.615927},{"town":"原田南町","koaza":"","lat":34.782855,"lng":133.613023},{"town":"東町","koaza":"","lat":34.792291,"lng":133.61581},{"town":"備中町志藤用瀬","koaza":"","lat":34.781834,"lng":133.485247},{"town":"備中町長屋","koaza":"","lat":34.788602,"lng":133.458989},{"town":"備中町西山","koaza":"","lat":34.853305,"lng":133.356751},{"town":"備中町西油野","koaza":"","lat":34.851737,"lng":133.4074},{"town":"備中町東油野","koaza":"","lat":34.832545,"lng":133.428248},{"town":"備中町平川","koaza":"","lat":34.796811,"lng":133.403962},{"town":"備中町布賀","koaza":"","lat":34.774529,"lng":133.430878},{"town":"備中町布瀬","koaza":"","lat":34.773168,"lng":133.460146},{"town":"本町","koaza":"","lat":34.798375,"lng":133.615706},{"town":"正宗町","koaza":"","lat":34.790473,"lng":133.617042},{"town":"松原町大津寄","koaza":"","lat":34.809592,"lng":133.560389},{"town":"松原町神原","koaza":"","lat":34.819921,"lng":133.584563},{"town":"松原町春木","koaza":"","lat":34.831501,"lng":133.562116},{"town":"松原町松岡","koaza":"","lat":34.821454,"lng":133.538337},{"town":"松原通","koaza":"","lat":34.79233,"lng":133.617086},{"town":"松山","koaza":"","lat":34.781205,"lng":133.641663},{"town":"南町","koaza":"","lat":34.789365,"lng":133.613711},{"town":"向町","koaza":"","lat":34.795379,"lng":133.618256},{"town":"八幡町","koaza":"","lat":34.793682,"lng":133.616773},{"town":"弓之町","koaza":"","lat":34.790993,"lng":133.613958},{"town":"横町","koaza":"","lat":34.786496,"lng":133.610301},{"town":"頼久寺町","koaza":"","lat":34.797379,"lng":133.619028},{"town":"和田町","koaza":"","lat":34.792537,"lng":133.621285}]