[{"town":"大字綾垣","lat":"33.298901","lng":"131.137299"},{"town":"大字岩室","lat":"33.297755","lng":"131.200949"},{"town":"大字大隈","lat":"33.260574","lng":"131.163589"},{"town":"大字太田","lat":"33.341265","lng":"131.147890"},{"town":"大字小田","lat":"33.257325","lng":"131.113716"},{"town":"大字古後","lat":"33.353327","lng":"131.091570"},{"town":"大字塚脇","lat":"33.273634","lng":"131.157630"},{"town":"大字戸畑","lat":"33.288005","lng":"131.081673"},{"town":"大字日出生","lat":"33.307879","lng":"131.287005"},{"town":"大字帆足","lat":"33.294257","lng":"131.171188"},{"town":"大字森","lat":"33.326249","lng":"131.180595"},{"town":"大字山浦","lat":"33.232096","lng":"131.107721"},{"town":"大字山下","lat":"33.332198","lng":"131.113909"},{"town":"大字山田","lat":"33.255757","lng":"131.140042"},{"town":"大字四日市","lat":"33.303449","lng":"131.106195"}]