[{"town":"駅前通り","koaza":"","lat":"38.594300","lng":"140.375282"},{"town":"大字今宿","koaza":"","lat":"38.578165","lng":"140.392700"},{"town":"大字岩ケ袋","koaza":"","lat":"38.609460","lng":"140.370540"},{"town":"大字大石田","koaza":"","lat":"38.596061","lng":"140.375711"},{"town":"大字大浦","koaza":"","lat":"38.629104","lng":"140.315405"},{"town":"大字海谷","koaza":"","lat":"38.616975","lng":"140.361400"},{"town":"大字川前","koaza":"","lat":"38.604914","lng":"140.333390"},{"town":"大字駒籠","koaza":"","lat":"38.631995","lng":"140.340495"},{"town":"大字次年子","koaza":"","lat":"38.591364","lng":"140.297023"},{"town":"大字鷹巣","koaza":"","lat":"38.629428","lng":"140.364314"},{"town":"大字田沢","koaza":"","lat":"38.560928","lng":"140.361169"},{"town":"大字豊田","koaza":"","lat":"38.603550","lng":"140.357183"},{"town":"大字横山","koaza":"","lat":"38.582225","lng":"140.349713"},{"town":"桂木町","koaza":"","lat":"38.592205","lng":"140.366336"},{"town":"緑町","koaza":"","lat":"38.593652","lng":"140.371490"},{"town":"四日町","koaza":"","lat":"38.591006","lng":"140.369238"},{"town":"大字大石田","koaza":"甲","lat":"38.595711","lng":"140.372146"},{"town":"大字大石田","koaza":"乙","lat":"38.589464","lng":"140.370348"},{"town":"大字大石田","koaza":"丙","lat":"38.588995","lng":"140.373236"},{"town":"大字大石田","koaza":"丁","lat":"38.590269","lng":"140.374179"}]