[{"town":"大字有屋","koaza":"","lat":"38.915961","lng":"140.418005"},{"town":"大字漆野","koaza":"","lat":"38.919526","lng":"140.301553"},{"town":"大字上台","koaza":"","lat":"38.852106","lng":"140.329767"},{"town":"大字金山","koaza":"","lat":"38.886373","lng":"140.390639"},{"town":"大字下野明","koaza":"","lat":"38.857521","lng":"140.369072"},{"town":"大字昭和","koaza":"","lat":"38.848198","lng":"140.303234"},{"town":"大字谷口銀山","koaza":"","lat":"38.901243","lng":"140.299054"},{"town":"大字飛森","koaza":"","lat":"38.919969","lng":"140.293144"},{"town":"大字中田","koaza":"","lat":"38.933283","lng":"140.356811"},{"town":"大字朴山","koaza":"","lat":"38.873871","lng":"140.294645"},{"town":"大字安沢","koaza":"","lat":"38.871752","lng":"140.371605"},{"town":"大字山崎","koaza":"","lat":"38.861463","lng":"140.313163"},{"town":"大字金山","koaza":"荒屋","lat":"38.880581","lng":"140.323919"}]