[{"town":"大字五十沢","koaza":"","lat":38.542431,"lng":140.428343},{"town":"大字稲下","koaza":"","lat":38.484688,"lng":140.331879},{"town":"大字大久保","koaza":"","lat":38.467999,"lng":140.331967},{"town":"大字大槇","koaza":"","lat":38.503638,"lng":140.339279},{"town":"大字大淀","koaza":"","lat":38.515185,"lng":140.358424},{"town":"大字岩野","koaza":"","lat":38.501151,"lng":140.265753},{"town":"大字杉島","koaza":"","lat":38.486869,"lng":140.361891},{"town":"大字田沢","koaza":"","lat":38.539819,"lng":140.371631},{"town":"大字楯岡","koaza":"","lat":38.478952,"lng":140.421696},{"town":"大字白鳥","koaza":"","lat":38.515631,"lng":140.309224},{"town":"大字樽石","koaza":"","lat":38.505624,"lng":140.286134},{"town":"大字長善寺","koaza":"","lat":38.49469,"lng":140.316884},{"town":"大字たも山","koaza":"","lat":38.502937,"lng":140.432362},{"town":"大字富並","koaza":"","lat":38.544268,"lng":140.345681},{"town":"大字長島","koaza":"","lat":38.522934,"lng":140.337318},{"town":"大字名取","koaza":"","lat":38.510537,"lng":140.373375},{"town":"大字林崎","koaza":"","lat":38.501691,"lng":140.388892},{"town":"大字本飯田","koaza":"","lat":38.525365,"lng":140.39554},{"town":"大字山の内","koaza":"","lat":38.552179,"lng":140.281047},{"town":"大字湯沢","koaza":"","lat":38.492904,"lng":140.412577},{"town":"大字湯野沢","koaza":"","lat":38.477702,"lng":140.284028},{"town":"大字土生田","koaza":"","lat":38.548987,"lng":140.399857},{"town":"大字河島","koaza":"","lat":38.483206,"lng":140.352847},{"town":"大字河島","koaza":"乙","lat":38.489603,"lng":140.360965},{"town":"駅西","koaza":"","lat":38.478148,"lng":140.384586},{"town":"金谷","koaza":"","lat":38.515425,"lng":140.390398},{"town":"河島山","koaza":"","lat":38.495835,"lng":140.35993},{"town":"碁点","koaza":"","lat":38.485178,"lng":140.344602},{"town":"楯岡荒町一丁目","koaza":"","lat":38.478469,"lng":140.391461},{"town":"楯岡荒町二丁目","koaza":"","lat":38.474586,"lng":140.393564},{"town":"楯岡五日町","koaza":"","lat":38.479206,"lng":140.388201},{"town":"楯岡大沢川","koaza":"","lat":38.480447,"lng":140.392594},{"town":"楯岡北町一丁目","koaza":"","lat":38.49895,"lng":140.392976},{"town":"楯岡北町二丁目","koaza":"","lat":38.498979,"lng":140.397225},{"town":"楯岡新高田","koaza":"","lat":38.484945,"lng":140.387096},{"town":"楯岡新町一丁目","koaza":"","lat":38.473645,"lng":140.38739},{"town":"楯岡新町二丁目","koaza":"","lat":38.475856,"lng":140.389931},{"town":"楯岡新町三丁目","koaza":"","lat":38.471907,"lng":140.391076},{"town":"楯岡新町四丁目","koaza":"","lat":38.468906,"lng":140.391108},{"town":"楯岡新町六丁目","koaza":"","lat":null,"lng":null},{"town":"楯岡楯","koaza":"","lat":38.482793,"lng":140.393419},{"town":"楯岡俵町","koaza":"","lat":38.474038,"lng":140.384601},{"town":"楯岡鶴ケ町一丁目","koaza":"","lat":38.491294,"lng":140.39194},{"town":"楯岡鶴ケ町二丁目","koaza":"","lat":38.491131,"lng":140.395298},{"town":"楯岡十日町","koaza":"","lat":38.481645,"lng":140.388411},{"town":"楯岡中町","koaza":"","lat":38.482626,"lng":140.384517},{"town":"楯岡馬場","koaza":"","lat":38.480885,"lng":140.397788},{"town":"楯岡東沢","koaza":"","lat":38.483159,"lng":140.404226},{"town":"楯岡笛田一丁目","koaza":"","lat":38.478392,"lng":140.397508},{"town":"楯岡笛田二丁目","koaza":"","lat":38.477696,"lng":140.402236},{"town":"楯岡笛田三丁目","koaza":"","lat":38.473939,"lng":140.399384},{"town":"楯岡笛田四丁目","koaza":"","lat":38.472969,"lng":140.397668},{"town":"楯岡二日町","koaza":"","lat":38.485706,"lng":140.390171},{"town":"楯岡晦日町","koaza":"","lat":38.483242,"lng":140.38959},{"town":"楯岡湯沢","koaza":"","lat":38.492259,"lng":140.40051},{"town":"中央一丁目","koaza":"","lat":38.482369,"lng":140.380869},{"town":"中央二丁目","koaza":"","lat":38.482398,"lng":140.37466}]