[{"town":"芦沢","koaza":"","lat":38.087402,"lng":140.082349},{"town":"あら町","koaza":"","lat":38.101844,"lng":140.037788},{"town":"五十川","koaza":"","lat":38.13774,"lng":140.04756},{"town":"泉","koaza":"","lat":38.08419,"lng":140.039776},{"town":"今泉","koaza":"","lat":38.057391,"lng":140.048032},{"town":"歌丸","koaza":"","lat":38.058048,"lng":140.031434},{"town":"大町","koaza":"","lat":38.110472,"lng":140.038135},{"town":"片田町","koaza":"","lat":38.10393,"lng":140.040202},{"town":"上伊佐沢","koaza":"","lat":38.114238,"lng":140.087744},{"town":"河井","koaza":"","lat":38.072497,"lng":140.049902},{"town":"川原沢","koaza":"","lat":38.182688,"lng":139.930123},{"town":"勧進代","koaza":"","lat":38.159531,"lng":140.00827},{"town":"草岡","koaza":"","lat":38.169897,"lng":139.974501},{"town":"九野本","koaza":"","lat":38.091645,"lng":140.015472},{"town":"小出","koaza":"","lat":38.09639,"lng":140.056505},{"town":"高野町一丁目","koaza":"","lat":38.107986,"lng":140.034701},{"town":"高野町二丁目","koaza":"","lat":38.110343,"lng":140.034521},{"town":"幸町","koaza":"","lat":38.113299,"lng":140.030098},{"town":"栄町","koaza":"","lat":38.107696,"lng":140.037571},{"town":"清水町一丁目","koaza":"","lat":38.111512,"lng":140.025037},{"town":"清水町二丁目","koaza":"","lat":38.107412,"lng":140.018824},{"town":"下伊佐沢","koaza":"","lat":38.072532,"lng":140.070866},{"town":"白兎","koaza":"","lat":38.164154,"lng":140.02636},{"town":"新町","koaza":"","lat":38.110815,"lng":140.032082},{"town":"神明町","koaza":"","lat":38.102134,"lng":140.041227},{"town":"台町","koaza":"","lat":38.094816,"lng":140.033365},{"town":"館町北","koaza":"","lat":38.10034,"lng":140.042408},{"town":"館町南","koaza":"","lat":38.094034,"lng":140.042001},{"town":"寺泉","koaza":"","lat":38.123058,"lng":139.960906},{"town":"十日町一丁目","koaza":"","lat":38.112403,"lng":140.03876},{"town":"十日町二丁目","koaza":"","lat":38.114864,"lng":140.037295},{"town":"時庭","koaza":"","lat":38.070068,"lng":140.03041},{"town":"中伊佐沢","koaza":"","lat":38.08558,"lng":140.062623},{"town":"中道一丁目","koaza":"","lat":38.107249,"lng":140.027747},{"town":"中道二丁目","koaza":"","lat":38.105571,"lng":140.028874},{"town":"成田","koaza":"","lat":38.125922,"lng":140.040394},{"town":"花作町","koaza":"","lat":38.100569,"lng":140.031723},{"town":"日の出町","koaza":"","lat":38.094996,"lng":140.050056},{"town":"平野","koaza":"","lat":38.147164,"lng":139.909476},{"town":"平山","koaza":"","lat":38.098284,"lng":140.004777},{"town":"舟場","koaza":"","lat":38.119869,"lng":140.044046},{"town":"ままの上","koaza":"","lat":38.107103,"lng":140.040459},{"town":"緑町","koaza":"","lat":38.117895,"lng":140.039633},{"town":"宮","koaza":"","lat":38.100411,"lng":140.023563},{"town":"本町一丁目","koaza":"","lat":38.105647,"lng":140.036343},{"town":"本町二丁目","koaza":"","lat":38.103424,"lng":140.035822},{"town":"森","koaza":"","lat":38.12291,"lng":140.059248},{"town":"横町","koaza":"","lat":38.116074,"lng":140.034123},{"town":"四ツ谷一丁目","koaza":"","lat":38.099672,"lng":140.036084},{"town":"四ツ谷二丁目","koaza":"","lat":38.096171,"lng":140.036997},{"town":"東町","koaza":"","lat":38.106389,"lng":140.043752},{"town":"屋城町","koaza":"","lat":38.110102,"lng":140.044005}]