[{"town":"相生一丁目","koaza":"","lat":35.295331,"lng":136.816885},{"town":"相生二丁目","koaza":"","lat":35.295237,"lng":136.818274},{"town":"赤見一丁目","koaza":"","lat":35.302299,"lng":136.822643},{"town":"赤見二丁目","koaza":"","lat":35.305112,"lng":136.822423},{"town":"赤見三丁目","koaza":"","lat":35.30805,"lng":136.821604},{"town":"赤見四丁目","koaza":"","lat":35.310188,"lng":136.821153},{"town":"浅井町江森","koaza":"","lat":35.336457,"lng":136.820459},{"town":"浅井町大野","koaza":"","lat":35.353766,"lng":136.822582},{"town":"浅井町大日比野","koaza":"","lat":35.34223,"lng":136.821726},{"town":"浅井町尾関","koaza":"","lat":35.348453,"lng":136.825916},{"town":"浅井町黒岩","koaza":"","lat":35.353369,"lng":136.833877},{"town":"浅井町河田","koaza":"","lat":35.353955,"lng":136.828514},{"town":"浅井町河端","koaza":"","lat":35.335884,"lng":136.83281},{"town":"浅井町極楽寺","koaza":"","lat":35.355974,"lng":136.816798},{"town":"浅井町小日比野","koaza":"","lat":35.342572,"lng":136.835585},{"town":"浅井町西浅井","koaza":"","lat":35.33005,"lng":136.819466},{"town":"浅井町西海戸","koaza":"","lat":35.336403,"lng":136.827772},{"town":"浅井町東浅井","koaza":"","lat":35.330581,"lng":136.825999},{"town":"浅井町前野","koaza":"","lat":35.344503,"lng":136.829628},{"town":"浅野","koaza":"","lat":35.29407,"lng":136.828577},{"town":"朝日一丁目","koaza":"","lat":35.307836,"lng":136.815434},{"town":"朝日二丁目","koaza":"","lat":35.307472,"lng":136.818443},{"town":"朝日三丁目","koaza":"","lat":35.309933,"lng":136.818178},{"town":"あずら一丁目","koaza":"","lat":35.283918,"lng":136.822874},{"town":"あずら二丁目","koaza":"","lat":35.283635,"lng":136.825712},{"town":"あずら三丁目","koaza":"","lat":35.280395,"lng":136.821741},{"town":"一色町","koaza":"","lat":35.30989,"lng":136.786835},{"town":"石山町","koaza":"","lat":35.297976,"lng":136.80436},{"town":"泉一丁目","koaza":"","lat":35.302572,"lng":136.808071},{"town":"泉二丁目","koaza":"","lat":35.302315,"lng":136.809926},{"town":"泉三丁目","koaza":"","lat":35.301795,"lng":136.811869},{"town":"一宮","koaza":"","lat":35.324129,"lng":136.80554},{"town":"乾町","koaza":"","lat":35.325553,"lng":136.80212},{"town":"今伊勢町馬寄","koaza":"","lat":35.326821,"lng":136.788815},{"town":"今伊勢町新神戸","koaza":"","lat":35.314447,"lng":136.789573},{"town":"今伊勢町本神戸","koaza":"","lat":35.317335,"lng":136.796539},{"town":"今伊勢町宮後","koaza":"","lat":35.31749,"lng":136.78527},{"town":"印田通二丁目","koaza":"","lat":35.298733,"lng":136.813346},{"town":"印田通三丁目","koaza":"","lat":35.297639,"lng":136.813169},{"town":"印田通四丁目","koaza":"","lat":35.296235,"lng":136.812308},{"town":"印田通五丁目","koaza":"","lat":35.294991,"lng":136.811442},{"town":"牛野通一丁目","koaza":"","lat":35.290957,"lng":136.805171},{"town":"牛野通二丁目","koaza":"","lat":35.289556,"lng":136.806967},{"town":"牛野通三丁目","koaza":"","lat":35.287505,"lng":136.80798},{"town":"牛野通四丁目","koaza":"","lat":35.285199,"lng":136.807997},{"town":"大赤見","koaza":"","lat":35.311225,"lng":136.824634},{"town":"大江一丁目","koaza":"","lat":35.30445,"lng":136.805551},{"town":"大江二丁目","koaza":"","lat":35.3032,"lng":136.805209},{"town":"大江三丁目","koaza":"","lat":35.301964,"lng":136.805016},{"town":"大毛","koaza":"","lat":35.343289,"lng":136.802506},{"town":"大浜一丁目","koaza":"","lat":35.308755,"lng":136.809286},{"town":"大浜二丁目","koaza":"","lat":35.309406,"lng":136.810492},{"town":"大宮一丁目","koaza":"","lat":35.30733,"lng":136.799397},{"town":"大宮二丁目","koaza":"","lat":35.309194,"lng":136.799622},{"town":"大宮三丁目","koaza":"","lat":35.310744,"lng":136.799928},{"town":"大宮四丁目","koaza":"","lat":35.312558,"lng":136.800292},{"town":"大宮五丁目","koaza":"","lat":35.314048,"lng":136.802252},{"town":"奥町","koaza":"","lat":35.327706,"lng":136.760436},{"town":"小栗町","koaza":"","lat":35.324194,"lng":136.801286},{"town":"起","koaza":"","lat":35.310066,"lng":136.738375},{"town":"音羽一丁目","koaza":"","lat":35.307476,"lng":136.796384},{"town":"音羽二丁目","koaza":"","lat":35.309178,"lng":136.795981},{"town":"音羽三丁目","koaza":"","lat":35.311329,"lng":136.795652},{"town":"小原町","koaza":"","lat":35.320848,"lng":136.81686},{"town":"開明","koaza":"","lat":35.316697,"lng":136.765814},{"town":"篭屋一丁目","koaza":"","lat":35.309147,"lng":136.767092},{"town":"篭屋二丁目","koaza":"","lat":35.309247,"lng":136.76992},{"town":"篭屋三丁目","koaza":"","lat":35.308925,"lng":136.772709},{"town":"篭屋四丁目","koaza":"","lat":35.305758,"lng":136.771463},{"town":"篭屋五丁目","koaza":"","lat":35.305884,"lng":136.767291},{"town":"上祖父江","koaza":"","lat":35.276897,"lng":136.71822},{"town":"神山一丁目","koaza":"","lat":35.30311,"lng":136.792277},{"town":"神山二丁目","koaza":"","lat":35.303716,"lng":136.787923},{"town":"神山三丁目","koaza":"","lat":35.304043,"lng":136.784352},{"town":"苅安賀一丁目","koaza":"","lat":35.293098,"lng":136.782279},{"town":"苅安賀二丁目","koaza":"","lat":35.290208,"lng":136.784208},{"town":"川田町五丁目","koaza":"","lat":35.298033,"lng":136.805978},{"town":"観音寺一丁目","koaza":"","lat":35.28898,"lng":136.788423},{"town":"観音寺二丁目","koaza":"","lat":35.289027,"lng":136.785918},{"town":"観音町","koaza":"","lat":35.31426,"lng":136.81527},{"town":"神戸町","koaza":"","lat":35.311631,"lng":136.791229},{"town":"木曽川町内割田","koaza":"","lat":35.338467,"lng":136.777362},{"town":"木曽川町門間","koaza":"","lat":35.335286,"lng":136.790993},{"town":"木曽川町黒田","koaza":"","lat":35.343121,"lng":136.785526},{"town":"木曽川町里小牧","koaza":"","lat":35.349024,"lng":136.762919},{"town":"木曽川町外割田","koaza":"","lat":35.337952,"lng":136.771028},{"town":"木曽川町玉ノ井","koaza":"","lat":35.336772,"lng":136.758518},{"town":"木曽川町三ツ法寺","koaza":"","lat":35.331915,"lng":136.766683},{"town":"北今","koaza":"","lat":35.293834,"lng":136.754837},{"town":"北浦町","koaza":"","lat":35.311553,"lng":136.786737},{"town":"北小渕","koaza":"","lat":35.305988,"lng":136.837239},{"town":"北方町北方","koaza":"","lat":35.361475,"lng":136.782414},{"town":"北方町曽根","koaza":"","lat":35.353332,"lng":136.781399},{"town":"北方町中島","koaza":"","lat":35.358081,"lng":136.769875},{"town":"北神明町一丁目","koaza":"","lat":35.320759,"lng":136.803642},{"town":"北神明町二丁目","koaza":"","lat":35.322036,"lng":136.803909},{"town":"北神明町三丁目","koaza":"","lat":35.323619,"lng":136.804061},{"town":"北神明町四丁目","koaza":"","lat":35.325474,"lng":136.805125},{"town":"北園通一丁目","koaza":"","lat":35.296616,"lng":136.800655},{"town":"北園通二丁目","koaza":"","lat":35.296579,"lng":136.802206},{"town":"北園通三丁目","koaza":"","lat":35.296811,"lng":136.804451},{"town":"北園通四丁目","koaza":"","lat":35.29692,"lng":136.806169},{"town":"北園通五丁目","koaza":"","lat":35.296853,"lng":136.807943},{"town":"北園通六丁目","koaza":"","lat":35.296197,"lng":136.809686},{"town":"北園通七丁目","koaza":"","lat":35.297017,"lng":136.811864},{"town":"貴船一丁目","koaza":"","lat":35.311039,"lng":136.809049},{"town":"貴船二丁目","koaza":"","lat":35.313002,"lng":136.809566},{"town":"貴船町三丁目","koaza":"","lat":35.314,"lng":136.811116},{"town":"貴船町四丁目","koaza":"","lat":35.315139,"lng":136.811911},{"town":"九品町三丁目","koaza":"","lat":35.315334,"lng":136.8059},{"town":"九品町四丁目","koaza":"","lat":35.316671,"lng":136.806403},{"town":"小赤見","koaza":"","lat":35.309758,"lng":136.832373},{"town":"公園通三丁目","koaza":"","lat":35.297571,"lng":136.803222},{"town":"公園通四丁目","koaza":"","lat":35.295818,"lng":136.803747},{"town":"公園通五丁目","koaza":"","lat":35.29449,"lng":136.803981},{"town":"公園通六丁目","koaza":"","lat":35.293313,"lng":136.804461},{"town":"光明寺","koaza":"","lat":35.354451,"lng":136.803085},{"town":"古金町一丁目","koaza":"","lat":35.299371,"lng":136.810398},{"town":"古金町二丁目","koaza":"","lat":35.298,"lng":136.810841},{"town":"古見町","koaza":"","lat":35.317974,"lng":136.82048},{"town":"小信中島","koaza":"","lat":35.315014,"lng":136.74477},{"town":"栄一丁目","koaza":"","lat":35.304919,"lng":136.799102},{"town":"栄二丁目","koaza":"","lat":35.304958,"lng":136.796906},{"town":"栄三丁目","koaza":"","lat":35.301611,"lng":136.797747},{"town":"栄四丁目","koaza":"","lat":35.299953,"lng":136.79931},{"town":"桜一丁目","koaza":"","lat":35.305877,"lng":136.80657},{"town":"桜二丁目","koaza":"","lat":35.307509,"lng":136.806719},{"town":"桜三丁目","koaza":"","lat":35.308745,"lng":136.807237},{"town":"笹野","koaza":"","lat":35.350408,"lng":136.813995},{"town":"佐千原","koaza":"","lat":35.326401,"lng":136.810895},{"town":"更屋敷","koaza":"","lat":35.35577,"lng":136.790724},{"town":"猿海道一丁目","koaza":"","lat":35.285408,"lng":136.817149},{"town":"猿海道二丁目","koaza":"","lat":35.284161,"lng":136.820475},{"town":"猿海道三丁目","koaza":"","lat":35.282389,"lng":136.818284},{"town":"三条","koaza":"","lat":35.306926,"lng":136.761179},{"town":"三丹町","koaza":"","lat":35.32063,"lng":136.801823},{"town":"島崎一丁目","koaza":"","lat":35.284158,"lng":136.829085},{"town":"島崎二丁目","koaza":"","lat":35.281171,"lng":136.829619},{"town":"島村","koaza":"","lat":35.340473,"lng":136.811269},{"town":"下川田町一丁目","koaza":"","lat":35.291525,"lng":136.807332},{"town":"下川田町二丁目","koaza":"","lat":35.29023,"lng":136.808467},{"town":"下川田町三丁目","koaza":"","lat":35.288956,"lng":136.809172},{"town":"下川田町四丁目","koaza":"","lat":35.287285,"lng":136.809569},{"town":"下川田町五丁目","koaza":"","lat":35.284792,"lng":136.808995},{"town":"下田一丁目","koaza":"","lat":35.295017,"lng":136.813699},{"town":"下田二丁目","koaza":"","lat":35.294714,"lng":136.815189},{"town":"下沼町一丁目","koaza":"","lat":35.311899,"lng":136.812497},{"town":"下沼町二丁目","koaza":"","lat":35.312598,"lng":136.813718},{"town":"下沼町三丁目","koaza":"","lat":35.313106,"lng":136.815536},{"town":"下沼町四丁目","koaza":"","lat":35.313518,"lng":136.817429},{"town":"春明","koaza":"","lat":35.320426,"lng":136.846276},{"town":"常願通一丁目","koaza":"","lat":35.318319,"lng":136.803679},{"town":"常願通二丁目","koaza":"","lat":35.317797,"lng":136.805802},{"town":"常願通三丁目","koaza":"","lat":35.317329,"lng":136.807608},{"town":"常願通四丁目","koaza":"","lat":35.316794,"lng":136.809733},{"town":"常願通五丁目","koaza":"","lat":35.316351,"lng":136.811445},{"town":"常願通六丁目","koaza":"","lat":35.315852,"lng":136.813157},{"town":"常願通七丁目","koaza":"","lat":35.315825,"lng":136.814454},{"town":"常願通八丁目","koaza":"","lat":35.314931,"lng":136.817778},{"town":"常願通九丁目","koaza":"","lat":35.314575,"lng":136.819581},{"town":"定水寺","koaza":"","lat":35.312034,"lng":136.839283},{"town":"昭和一丁目","koaza":"","lat":35.294092,"lng":136.792267},{"town":"昭和二丁目","koaza":"","lat":35.292085,"lng":136.788536},{"town":"昭和三丁目","koaza":"","lat":35.291055,"lng":136.784896},{"town":"城崎通四丁目","koaza":"","lat":35.300704,"lng":136.807681},{"town":"城崎通五丁目","koaza":"","lat":35.300575,"lng":136.809077},{"town":"城崎通六丁目","koaza":"","lat":35.300359,"lng":136.810519},{"town":"城崎通七丁目","koaza":"","lat":35.300037,"lng":136.812959},{"town":"白旗通一丁目","koaza":"","lat":35.299048,"lng":136.81497},{"town":"白旗通二丁目","koaza":"","lat":35.298599,"lng":136.81613},{"town":"白旗通三丁目","koaza":"","lat":35.29823,"lng":136.817303},{"town":"白旗通四丁目","koaza":"","lat":35.297872,"lng":136.818499},{"town":"新生一丁目","koaza":"","lat":35.302103,"lng":136.795834},{"town":"新生二丁目","koaza":"","lat":35.299631,"lng":136.796253},{"town":"新生三丁目","koaza":"","lat":35.297643,"lng":136.796343},{"town":"新生四丁目","koaza":"","lat":35.295896,"lng":136.795767},{"town":"末広一丁目","koaza":"","lat":35.295818,"lng":136.792138},{"town":"末広二丁目","koaza":"","lat":35.295176,"lng":136.788243},{"town":"末広三丁目","koaza":"","lat":35.29451,"lng":136.784974},{"town":"杉山","koaza":"","lat":35.347344,"lng":136.808124},{"town":"住吉一丁目","koaza":"","lat":35.298858,"lng":136.787998},{"town":"住吉二丁目","koaza":"","lat":35.298517,"lng":136.784815},{"town":"瀬部","koaza":"","lat":35.333879,"lng":136.839715},{"town":"せんい一丁目","koaza":"","lat":35.288561,"lng":136.820842},{"town":"せんい二丁目","koaza":"","lat":35.28879,"lng":136.823341},{"town":"せんい三丁目","koaza":"","lat":35.288568,"lng":136.825362},{"town":"せんい四丁目","koaza":"","lat":35.287967,"lng":136.827024},{"town":"大志一丁目","koaza":"","lat":35.299948,"lng":136.803835},{"town":"大志二丁目","koaza":"","lat":35.299899,"lng":136.80584},{"town":"大正通一丁目","koaza":"","lat":35.311965,"lng":136.792744},{"town":"多加木一丁目","koaza":"","lat":35.282771,"lng":136.812644},{"town":"多加木二丁目","koaza":"","lat":35.278437,"lng":136.811747},{"town":"多加木三丁目","koaza":"","lat":35.280103,"lng":136.813594},{"town":"多加木四丁目","koaza":"","lat":35.28072,"lng":136.816861},{"town":"多加木五丁目","koaza":"","lat":35.277529,"lng":136.817466},{"town":"高田","koaza":"","lat":35.336008,"lng":136.802815},{"town":"高畑町一丁目","koaza":"","lat":35.317821,"lng":136.811057},{"town":"高畑町二丁目","koaza":"","lat":35.319497,"lng":136.811639},{"town":"高畑町三丁目","koaza":"","lat":35.3215,"lng":136.81279},{"town":"竹橋町","koaza":"","lat":35.301701,"lng":136.774597},{"town":"田島町","koaza":"","lat":35.31611,"lng":136.819525},{"town":"田所","koaza":"","lat":35.347251,"lng":136.795649},{"town":"玉野","koaza":"","lat":35.266648,"lng":136.744162},{"town":"丹陽町重吉","koaza":"","lat":35.284057,"lng":136.841898},{"town":"丹陽町多加木","koaza":"","lat":35.282269,"lng":136.809461},{"town":"丹陽町外崎","koaza":"","lat":35.27923,"lng":136.827716},{"town":"丹陽町三ツ井","koaza":"","lat":35.277716,"lng":136.842318},{"town":"丹陽町森本","koaza":"","lat":35.291151,"lng":136.808853},{"town":"千秋町浅野羽根","koaza":"","lat":35.290764,"lng":136.841428},{"town":"千秋町一色","koaza":"","lat":35.307794,"lng":136.854725},{"town":"千秋町浮野","koaza":"","lat":35.306923,"lng":136.84796},{"town":"千秋町小山","koaza":"","lat":35.28696,"lng":136.854397},{"town":"千秋町勝栗","koaza":"","lat":35.31262,"lng":136.858105},{"town":"千秋町加納馬場","koaza":"","lat":35.304573,"lng":136.867527},{"town":"千秋町加茂","koaza":"","lat":35.316057,"lng":136.851654},{"town":"千秋町佐野","koaza":"","lat":35.300212,"lng":136.853961},{"town":"千秋町塩尻","koaza":"","lat":35.284864,"lng":136.852097},{"town":"千秋町芝原","koaza":"","lat":35.298319,"lng":136.865298},{"town":"千秋町天摩","koaza":"","lat":35.295348,"lng":136.852901},{"town":"千秋町穂積塚本","koaza":"","lat":35.307481,"lng":136.858911},{"town":"千秋町町屋","koaza":"","lat":35.290101,"lng":136.860915},{"town":"寺島町一丁目","koaza":"","lat":35.313642,"lng":136.812919},{"town":"寺島町二丁目","koaza":"","lat":35.31475,"lng":136.813352},{"town":"寺前町","koaza":"","lat":35.299425,"lng":136.77294},{"town":"天王一丁目","koaza":"","lat":35.30724,"lng":136.793433},{"town":"天王二丁目","koaza":"","lat":35.309453,"lng":136.792484},{"town":"天王三丁目","koaza":"","lat":35.309535,"lng":136.790264},{"town":"天王四丁目","koaza":"","lat":35.309281,"lng":136.788168},{"town":"時之島","koaza":"","lat":35.323785,"lng":136.833945},{"town":"殿町一丁目","koaza":"","lat":35.29563,"lng":136.802233},{"town":"殿町二丁目","koaza":"","lat":35.294094,"lng":136.802123},{"town":"殿町三丁目","koaza":"","lat":35.292706,"lng":136.802747},{"town":"冨田","koaza":"","lat":35.298428,"lng":136.733524},{"town":"富塚","koaza":"","lat":35.332102,"lng":136.811073},{"town":"長島町一丁目","koaza":"","lat":35.318725,"lng":136.80719},{"town":"長島町二丁目","koaza":"","lat":35.320306,"lng":136.807788},{"town":"長島町三丁目","koaza":"","lat":35.321881,"lng":136.808559},{"town":"長島町四丁目","koaza":"","lat":35.323197,"lng":136.808996},{"town":"長島町五丁目","koaza":"","lat":35.323951,"lng":136.809924},{"town":"中島通一丁目","koaza":"","lat":35.318086,"lng":136.809094},{"town":"中島通二丁目","koaza":"","lat":35.319817,"lng":136.809739},{"town":"中島通三丁目","koaza":"","lat":35.321194,"lng":136.809948},{"town":"中島通四丁目","koaza":"","lat":35.321962,"lng":136.81081},{"town":"中島通五丁目","koaza":"","lat":35.323556,"lng":136.81183},{"town":"中町一丁目","koaza":"","lat":35.296872,"lng":136.799084},{"town":"中町二丁目","koaza":"","lat":35.292971,"lng":136.800594},{"town":"西五城","koaza":"","lat":35.29993,"lng":136.741661},{"town":"西大海道","koaza":"","lat":35.317266,"lng":136.835821},{"town":"西小原町","koaza":"","lat":35.321536,"lng":136.81532},{"town":"西島町一丁目","koaza":"","lat":35.319278,"lng":136.805192},{"town":"西島町二丁目","koaza":"","lat":35.320914,"lng":136.805563},{"town":"西島町三丁目","koaza":"","lat":35.322486,"lng":136.806384},{"town":"西島町四丁目","koaza":"","lat":35.323761,"lng":136.806984},{"town":"西島町五丁目","koaza":"","lat":35.325228,"lng":136.80745},{"town":"西出町","koaza":"","lat":35.310603,"lng":136.784087},{"town":"西中野","koaza":"","lat":35.278584,"lng":136.710266},{"town":"西萩原","koaza":"","lat":35.29044,"lng":136.748112},{"town":"日光町","koaza":"","lat":35.301846,"lng":136.778508},{"town":"丹羽","koaza":"","lat":35.321106,"lng":136.821144},{"town":"野口一丁目","koaza":"","lat":35.300075,"lng":136.79197},{"town":"野口二丁目","koaza":"","lat":35.298195,"lng":136.792014},{"town":"萩原町朝宮","koaza":"","lat":35.29028,"lng":136.758952},{"town":"萩原町河田方","koaza":"","lat":35.281123,"lng":136.770207},{"town":"萩原町串作","koaza":"","lat":35.277449,"lng":136.757932},{"town":"萩原町高木","koaza":"","lat":35.271735,"lng":136.767036},{"town":"萩原町高松","koaza":"","lat":35.27062,"lng":136.758524},{"town":"萩原町滝","koaza":"","lat":35.272983,"lng":136.760042},{"town":"萩原町築込","koaza":"","lat":35.268252,"lng":136.754865},{"town":"萩原町戸苅","koaza":"","lat":35.272781,"lng":136.75082},{"town":"萩原町富田方","koaza":"","lat":35.288313,"lng":136.766038},{"town":"萩原町中島","koaza":"","lat":35.267812,"lng":136.774685},{"town":"萩原町西御堂","koaza":"","lat":35.263713,"lng":136.769984},{"town":"萩原町西宮重","koaza":"","lat":35.275106,"lng":136.772542},{"town":"萩原町萩原","koaza":"","lat":35.2843,"lng":136.759815},{"town":"萩原町花井方","koaza":"","lat":35.296549,"lng":136.766095},{"town":"萩原町林野","koaza":"","lat":35.281894,"lng":136.776019},{"town":"萩原町東宮重","koaza":"","lat":35.273536,"lng":136.77895},{"town":"羽衣一丁目","koaza":"","lat":35.305154,"lng":136.809097},{"town":"羽衣二丁目","koaza":"","lat":35.304733,"lng":136.81169},{"town":"蓮池","koaza":"","lat":35.292044,"lng":136.740226},{"town":"八幡一丁目","koaza":"","lat":35.304922,"lng":136.795026},{"town":"八幡二丁目","koaza":"","lat":35.305008,"lng":136.79274},{"town":"八幡三丁目","koaza":"","lat":35.306287,"lng":136.792052},{"town":"八幡四丁目","koaza":"","lat":35.306549,"lng":136.788827},{"town":"八幡五丁目","koaza":"","lat":35.307038,"lng":136.785738},{"town":"八町通一丁目","koaza":"","lat":35.291671,"lng":136.803263},{"town":"八町通二丁目","koaza":"","lat":35.292377,"lng":136.805785},{"town":"花池一丁目","koaza":"","lat":35.293411,"lng":136.797313},{"town":"花池二丁目","koaza":"","lat":35.291199,"lng":136.793948},{"town":"花池三丁目","koaza":"","lat":35.28951,"lng":136.797001},{"town":"花池四丁目","koaza":"","lat":35.289332,"lng":136.801102},{"town":"浜町三丁目","koaza":"","lat":35.308466,"lng":136.811525},{"town":"浜町四丁目","koaza":"","lat":35.309277,"lng":136.812366},{"town":"浜町五丁目","koaza":"","lat":35.309935,"lng":136.81365},{"town":"浜町六丁目","koaza":"","lat":35.310642,"lng":136.815168},{"town":"東五城","koaza":"","lat":35.30456,"lng":136.746694},{"town":"東印田町","koaza":"","lat":35.2975,"lng":136.815164},{"town":"東加賀野井","koaza":"","lat":35.285212,"lng":136.719991},{"town":"東島町一丁目","koaza":"","lat":35.317252,"lng":136.813276},{"town":"東島町二丁目","koaza":"","lat":35.318848,"lng":136.813658},{"town":"東島町三丁目","koaza":"","lat":35.320236,"lng":136.813861},{"town":"東出町","koaza":"","lat":35.311285,"lng":136.78893},{"town":"東両郷町","koaza":"","lat":35.313438,"lng":136.822273},{"town":"平島一丁目","koaza":"","lat":35.285611,"lng":136.832591},{"town":"平島二丁目","koaza":"","lat":35.283151,"lng":136.832169},{"town":"平島三丁目","koaza":"","lat":35.28059,"lng":136.831529},{"town":"深坪町","koaza":"","lat":35.31176,"lng":136.781181},{"town":"富士一丁目","koaza":"","lat":35.304568,"lng":136.814927},{"town":"富士二丁目","koaza":"","lat":35.30424,"lng":136.817423},{"town":"富士三丁目","koaza":"","lat":35.302393,"lng":136.820148},{"town":"富士四丁目","koaza":"","lat":35.304887,"lng":136.820071},{"town":"藤塚町三丁目","koaza":"","lat":35.308862,"lng":136.814195},{"town":"藤塚町四丁目","koaza":"","lat":35.309796,"lng":136.815596},{"town":"藤塚町五丁目","koaza":"","lat":35.310571,"lng":136.817132},{"town":"文京一丁目","koaza":"","lat":35.311749,"lng":136.804344},{"town":"文京二丁目","koaza":"","lat":35.313554,"lng":136.805132},{"town":"平安一丁目","koaza":"","lat":35.287683,"lng":136.833769},{"town":"平安二丁目","koaza":"","lat":35.28781,"lng":136.835009},{"town":"平和一丁目","koaza":"","lat":35.301502,"lng":136.792158},{"town":"平和二丁目","koaza":"","lat":35.300916,"lng":136.78835},{"town":"平和三丁目","koaza":"","lat":35.301496,"lng":136.784695},{"town":"別明町一丁目","koaza":"","lat":35.310288,"lng":136.811619},{"town":"別明町二丁目","koaza":"","lat":35.31088,"lng":136.812991},{"town":"別明町三丁目","koaza":"","lat":35.311465,"lng":136.814425},{"town":"別明町四丁目","koaza":"","lat":35.312065,"lng":136.815962},{"town":"別明町五丁目","koaza":"","lat":35.312562,"lng":136.817416},{"town":"北丹町","koaza":"","lat":35.322379,"lng":136.80142},{"town":"本町一丁目","koaza":"","lat":35.305212,"lng":136.80217},{"town":"本町二丁目","koaza":"","lat":35.303983,"lng":136.801881},{"town":"本町三丁目","koaza":"","lat":35.302418,"lng":136.801438},{"town":"本町四丁目","koaza":"","lat":35.29998,"lng":136.801425},{"town":"本町通八丁目","koaza":"","lat":35.297625,"lng":136.801662},{"town":"真清田一丁目","koaza":"","lat":35.307136,"lng":136.801831},{"town":"真清田二丁目","koaza":"","lat":35.309902,"lng":136.802336},{"town":"松島町","koaza":"","lat":35.295401,"lng":136.801047},{"town":"松降一丁目","koaza":"","lat":35.306842,"lng":136.804046},{"town":"松降二丁目","koaza":"","lat":35.309711,"lng":136.804742},{"town":"松降通七丁目","koaza":"","lat":35.314688,"lng":136.8078},{"town":"松降通八丁目","koaza":"","lat":35.316288,"lng":136.808399},{"town":"松山町","koaza":"","lat":35.317644,"lng":136.822291},{"town":"馬見塚","koaza":"","lat":35.292805,"lng":136.820622},{"town":"水落町","koaza":"","lat":35.319455,"lng":136.802749},{"town":"水附町","koaza":"","lat":35.296938,"lng":136.817445},{"town":"三ツ井一丁目","koaza":"","lat":35.281258,"lng":136.834583},{"town":"三ツ井二丁目","koaza":"","lat":35.27771,"lng":136.833659},{"town":"三ツ井三丁目","koaza":"","lat":35.275539,"lng":136.828233},{"town":"三ツ井四丁目","koaza":"","lat":35.274998,"lng":136.83242},{"town":"三ツ井五丁目","koaza":"","lat":35.274927,"lng":136.837719},{"town":"三ツ井六丁目","koaza":"","lat":35.271636,"lng":136.836742},{"town":"三ツ井七丁目","koaza":"","lat":35.271386,"lng":136.839486},{"town":"三ツ井八丁目","koaza":"","lat":35.27256,"lng":136.842044},{"town":"緑一丁目","koaza":"","lat":35.301401,"lng":136.813912},{"town":"緑二丁目","koaza":"","lat":35.300986,"lng":136.816346},{"town":"緑三丁目","koaza":"","lat":35.299844,"lng":136.818759},{"town":"緑四丁目","koaza":"","lat":35.299847,"lng":136.822183},{"town":"緑五丁目","koaza":"","lat":35.297724,"lng":136.82264},{"town":"南印田一丁目","koaza":"","lat":35.296169,"lng":136.814219},{"town":"南印田二丁目","koaza":"","lat":35.295921,"lng":136.815438},{"town":"南小渕","koaza":"","lat":35.300035,"lng":136.840536},{"town":"南出町","koaza":"","lat":35.30864,"lng":136.784543},{"town":"宮地一丁目","koaza":"","lat":35.290651,"lng":136.790878},{"town":"宮地二丁目","koaza":"","lat":35.28802,"lng":136.792056},{"town":"宮西通七丁目","koaza":"","lat":35.316974,"lng":136.804329},{"town":"宮西通八丁目","koaza":"","lat":35.315771,"lng":136.803951},{"town":"妙興寺一丁目","koaza":"","lat":35.286809,"lng":136.800459},{"town":"妙興寺二丁目","koaza":"","lat":35.286601,"lng":136.803101},{"town":"向山町一丁目","koaza":"","lat":35.299956,"lng":136.807914},{"town":"向山町二丁目","koaza":"","lat":35.298063,"lng":136.808127},{"town":"向山町三丁目","koaza":"","lat":35.295545,"lng":136.807755},{"town":"向山南一丁目","koaza":"","lat":35.294107,"lng":136.808215},{"town":"向山南二丁目","koaza":"","lat":35.294467,"lng":136.810722},{"town":"明治通五丁目","koaza":"","lat":35.298143,"lng":136.79987},{"town":"明地","koaza":"","lat":35.278671,"lng":136.737099},{"town":"森本一丁目","koaza":"","lat":35.293301,"lng":136.813277},{"town":"森本二丁目","koaza":"","lat":35.290999,"lng":136.812705},{"town":"森本三丁目","koaza":"","lat":35.288458,"lng":136.813225},{"town":"森本四丁目","koaza":"","lat":35.289716,"lng":136.817142},{"town":"森本五丁目","koaza":"","lat":35.285543,"lng":136.812463},{"town":"柳戸町一丁目","koaza":"","lat":35.29537,"lng":136.805864},{"town":"柳戸町二丁目","koaza":"","lat":35.293866,"lng":136.806262},{"town":"大和町氏永","koaza":"","lat":35.275315,"lng":136.802728},{"town":"大和町於保","koaza":"","lat":35.273772,"lng":136.794688},{"town":"大和町苅安賀","koaza":"","lat":35.290402,"lng":136.776603},{"town":"大和町北高井","koaza":"","lat":35.279063,"lng":136.783125},{"town":"大和町戸塚","koaza":"","lat":35.27968,"lng":136.790359},{"town":"大和町福森","koaza":"","lat":35.300686,"lng":136.769548},{"town":"大和町馬引","koaza":"","lat":35.305902,"lng":136.778776},{"town":"大和町南高井","koaza":"","lat":35.271024,"lng":136.786747},{"town":"大和町宮地花池","koaza":"","lat":35.289224,"lng":136.804808},{"town":"大和町妙興寺","koaza":"","lat":35.281537,"lng":136.801348},{"town":"大和町毛受","koaza":"","lat":35.298576,"lng":136.777736},{"town":"祐久","koaza":"","lat":35.287277,"lng":136.728686},{"town":"柚木颪","koaza":"","lat":35.314782,"lng":136.827484},{"town":"両郷町一丁目","koaza":"","lat":35.311356,"lng":136.81647},{"town":"両郷町二丁目","koaza":"","lat":35.311951,"lng":136.817743},{"town":"両郷町三丁目","koaza":"","lat":35.31255,"lng":136.819522},{"town":"両郷町四丁目","koaza":"","lat":35.313735,"lng":136.820506},{"town":"両郷町五丁目","koaza":"","lat":35.315476,"lng":136.821839},{"town":"若竹一丁目","koaza":"","lat":35.286475,"lng":136.820652},{"town":"若竹二丁目","koaza":"","lat":35.286446,"lng":136.823099},{"town":"若竹三丁目","koaza":"","lat":35.285933,"lng":136.825822},{"town":"若竹四丁目","koaza":"","lat":35.285907,"lng":136.828349},{"town":"枠杁町三丁目","koaza":"","lat":35.314362,"lng":136.809725},{"town":"枠杁町四丁目","koaza":"","lat":35.315702,"lng":136.810208},{"town":"和光一丁目","koaza":"","lat":35.307141,"lng":136.809916},{"town":"和光二丁目","koaza":"","lat":35.307598,"lng":136.812426},{"town":"丹陽町五日市場","koaza":"","lat":35.254886,"lng":136.83908},{"town":"伝法寺二丁目","koaza":"","lat":35.269158,"lng":136.844929},{"town":"伝法寺三丁目","koaza":"","lat":35.266524,"lng":136.845475},{"town":"伝法寺一丁目","koaza":"","lat":35.268901,"lng":136.841236},{"town":"伝法寺十丁目","koaza":"","lat":35.263318,"lng":136.844386},{"town":"伝法寺四丁目","koaza":"","lat":35.265528,"lng":136.843837},{"town":"伝法寺十二丁目","koaza":"","lat":35.261242,"lng":136.844489},{"town":"伝法寺十一丁目","koaza":"","lat":35.264551,"lng":136.847675},{"town":"伝法寺五丁目","koaza":"","lat":35.265111,"lng":136.840626},{"town":"伝法寺六丁目","koaza":"","lat":35.262455,"lng":136.8382},{"town":"伝法寺九丁目","koaza":"","lat":35.262332,"lng":136.84231},{"town":"丹陽町九日市場","koaza":"","lat":35.266418,"lng":136.834068},{"town":"伝法寺七丁目","koaza":"","lat":35.261386,"lng":136.839762},{"town":"伝法寺八丁目","koaza":"","lat":35.259146,"lng":136.840091},{"town":"西中野","koaza":"下中野","lat":35.276347,"lng":136.710075},{"town":"西中野","koaza":"沼境","lat":35.274707,"lng":136.70954},{"town":"上祖父江","koaza":"南外山","lat":35.27483,"lng":136.713858},{"town":"西中野","koaza":"渡シ場前","lat":35.278632,"lng":136.71093},{"town":"西中野","koaza":"上中野","lat":35.27957,"lng":136.713182},{"town":"上祖父江","koaza":"中外山","lat":35.277227,"lng":136.714343},{"town":"上祖父江","koaza":"寺屋敷","lat":35.278323,"lng":136.714671},{"town":"上祖父江","koaza":"中野東","lat":35.279291,"lng":136.71575},{"town":"上祖父江","koaza":"東外山","lat":35.275551,"lng":136.716416},{"town":"上祖父江","koaza":"川田","lat":35.28069,"lng":136.716275},{"town":"上祖父江","koaza":"東外平","lat":35.276375,"lng":136.717082},{"town":"上祖父江","koaza":"紙屋浦","lat":35.27851,"lng":136.717264},{"town":"上祖父江","koaza":"小稲葉","lat":35.274302,"lng":136.718604},{"town":"上祖父江","koaza":"北外山","lat":35.281184,"lng":136.718562},{"town":"上祖父江","koaza":"西稲葉","lat":35.276868,"lng":136.717993},{"town":"上祖父江","koaza":"江西","lat":35.279155,"lng":136.718641},{"town":"東加賀野井","koaza":"江西","lat":35.28311,"lng":136.719351},{"town":"上祖父江","koaza":"江東","lat":35.277351,"lng":136.718522},{"town":"上祖父江","koaza":"山前","lat":35.277004,"lng":136.720858},{"town":"上祖父江","koaza":"高須賀","lat":35.279855,"lng":136.719845},{"town":"上祖父江","koaza":"江北","lat":35.272132,"lng":136.720454},{"town":"上祖父江","koaza":"北方","lat":35.274112,"lng":136.720385},{"town":"上祖父江","koaza":"下リ江","lat":35.279417,"lng":136.720824},{"town":"東加賀野井","koaza":"江東","lat":35.284133,"lng":136.72312},{"town":"上祖父江","koaza":"西本郷","lat":35.274216,"lng":136.723329},{"town":"上祖父江","koaza":"北川原","lat":35.278871,"lng":136.724592},{"town":"上祖父江","koaza":"大跡","lat":35.271895,"lng":136.723048},{"town":"上祖父江","koaza":"西竜池","lat":35.278818,"lng":136.722916},{"town":"上祖父江","koaza":"南川原","lat":35.279277,"lng":136.724175},{"town":"上祖父江","koaza":"山浦東","lat":35.281146,"lng":136.722852},{"town":"上祖父江","koaza":"東竜池","lat":35.2786,"lng":136.723862},{"town":"上祖父江","koaza":"道福辺","lat":35.272261,"lng":136.724771},{"town":"上祖父江","koaza":"南竜池","lat":35.276072,"lng":136.723352},{"town":"上祖父江","koaza":"竜池","lat":35.276124,"lng":136.723752},{"town":"上祖父江","koaza":"東本郷","lat":35.273685,"lng":136.725215},{"town":"上祖父江","koaza":"中三ツ屋","lat":35.28183,"lng":136.72442},{"town":"上祖父江","koaza":"北三ツ屋","lat":35.281833,"lng":136.724812},{"town":"祐久","koaza":"九百坪","lat":35.285203,"lng":136.728207},{"town":"上祖父江","koaza":"東道福辺","lat":35.271956,"lng":136.726284},{"town":"上祖父江","koaza":"三ツ屋","lat":35.281493,"lng":136.724422},{"town":"上祖父江","koaza":"寺東","lat":35.275069,"lng":136.724976},{"town":"明地","koaza":"須賀","lat":35.275595,"lng":136.727273},{"town":"東加賀野井","koaza":"川原","lat":35.290541,"lng":136.72742},{"town":"祐久","koaza":"東川田","lat":35.287799,"lng":136.727055},{"town":"明地","koaza":"須賀前","lat":35.272185,"lng":136.728939},{"town":"明地","koaza":"寺南","lat":35.278581,"lng":136.727165},{"town":"明地","koaza":"寺前","lat":35.280562,"lng":136.743748},{"town":"明地","koaza":"西七丁原","lat":35.28185,"lng":136.727764},{"town":"明地","koaza":"西阿古井","lat":35.280327,"lng":136.729904},{"town":"東加賀野井","koaza":"東川原","lat":35.290368,"lng":136.732053},{"town":"明地","koaza":"須賀東","lat":35.273991,"lng":136.729206},{"town":"祐久","koaza":"丸島","lat":35.286262,"lng":136.729918},{"town":"祐久","koaza":"十間城","lat":35.285197,"lng":136.730401},{"town":"明地","koaza":"御屋敷東","lat":35.26965,"lng":136.730409},{"town":"明地","koaza":"矢摩","lat":35.276194,"lng":136.730176},{"town":"冨田","koaza":"砂原","lat":35.296117,"lng":136.731683},{"town":"明地","koaza":"八反山","lat":35.270715,"lng":136.731813},{"town":"明地","koaza":"西真菰原","lat":35.274244,"lng":136.731864},{"town":"祐久","koaza":"土井黒","lat":35.286381,"lng":136.733257},{"town":"祐久","koaza":"八間城","lat":35.283568,"lng":136.732196},{"town":"明地","koaza":"新道南","lat":35.272303,"lng":136.732054},{"town":"明地","koaza":"丸川","lat":35.269269,"lng":136.733073},{"town":"冨田","koaza":"三ツ俣","lat":35.293828,"lng":136.732571},{"town":"祐久","koaza":"池田","lat":35.28763,"lng":136.732773},{"town":"祐久","koaza":"北野黒","lat":35.287629,"lng":136.734464},{"town":"祐久","koaza":"屋敷裏","lat":35.289852,"lng":136.734621},{"town":"明地","koaza":"田中前","lat":35.271338,"lng":136.733517},{"town":"明地","koaza":"田中","lat":35.27358,"lng":136.733729},{"town":"明地","koaza":"江渕","lat":35.276323,"lng":136.735597},{"town":"明地","koaza":"宮東","lat":35.278925,"lng":136.734045},{"town":"明地","koaza":"東七丁原","lat":35.281586,"lng":136.736164},{"town":"明地","koaza":"江端","lat":35.279577,"lng":136.735594},{"town":"冨田","koaza":"竹橋","lat":35.292017,"lng":136.733977},{"town":"明地","koaza":"下端","lat":35.270867,"lng":136.734844},{"town":"冨田","koaza":"北新田","lat":35.29641,"lng":136.733627},{"town":"祐久","koaza":"南野黒","lat":35.285125,"lng":136.734636},{"town":"冨田","koaza":"一本松","lat":35.295632,"lng":136.735232},{"town":"冨田","koaza":"上本郷","lat":35.298361,"lng":136.73601},{"town":"冨田","koaza":"若宮前","lat":35.294662,"lng":136.735366},{"town":"冨田","koaza":"砂入","lat":35.299168,"lng":136.734069},{"town":"冨田","koaza":"漆畑","lat":35.296649,"lng":136.735305},{"town":"冨田","koaza":"平口","lat":35.293692,"lng":136.735487},{"town":"冨田","koaza":"大堀","lat":35.298051,"lng":136.735149},{"town":"冨田","koaza":"蒲池","lat":35.292722,"lng":136.735625},{"town":"冨田","koaza":"石宮","lat":35.301704,"lng":136.735438},{"town":"冨田","koaza":"渡所","lat":35.299902,"lng":136.735682},{"town":"明地","koaza":"中島","lat":35.274237,"lng":136.735765},{"town":"玉野","koaza":"柳原","lat":35.269408,"lng":136.735637},{"town":"明地","koaza":"江口","lat":35.275487,"lng":136.736454},{"town":"西萩原","koaza":"祐久東","lat":35.28904,"lng":136.735652},{"town":"冨田","koaza":"出先","lat":35.291402,"lng":136.736262},{"town":"蓮池","koaza":"下松山","lat":35.289758,"lng":136.736123},{"town":"蓮池","koaza":"郷西","lat":35.290524,"lng":136.738067},{"town":"明地","koaza":"江畔","lat":35.273137,"lng":136.737135},{"town":"冨田","koaza":"東浦","lat":35.299642,"lng":136.737154},{"town":"明地","koaza":"平北","lat":35.286448,"lng":136.736587},{"town":"冨田","koaza":"下本郷","lat":35.296757,"lng":136.737535},{"town":"起","koaza":"堤町","lat":35.310072,"lng":136.738137},{"town":"起","koaza":"下町","lat":35.306467,"lng":136.737144},{"town":"玉野","koaza":"大西","lat":35.270151,"lng":136.737538},{"town":"玉野","koaza":"平","lat":35.267147,"lng":136.737703},{"town":"冨田","koaza":"南出","lat":35.295495,"lng":136.737271},{"town":"冨田","koaza":"下屋敷","lat":35.294106,"lng":136.737293},{"town":"蓮池","koaza":"松山","lat":35.292844,"lng":136.738742},{"town":"冨田","koaza":"古川","lat":35.299527,"lng":136.738513},{"town":"冨田","koaza":"橋詰","lat":35.298054,"lng":136.737367},{"town":"西五城","koaza":"用水東","lat":35.301952,"lng":136.73735},{"town":"西萩原","koaza":"若宮北","lat":35.288005,"lng":136.739249},{"town":"西五城","koaza":"宮西","lat":35.303613,"lng":136.737238},{"town":"明地","koaza":"南森下","lat":35.272316,"lng":136.737894},{"town":"明地","koaza":"南茱之木","lat":35.286397,"lng":136.739032},{"town":"明地","koaza":"藤之棚","lat":35.274365,"lng":136.737419},{"town":"起","koaza":"用水東","lat":35.3062,"lng":136.737959},{"town":"明地","koaza":"江端前","lat":35.278359,"lng":136.737361},{"town":"玉野","koaza":"蓬平","lat":35.2656,"lng":136.738766},{"town":"起","koaza":"用水添","lat":35.308913,"lng":136.739313},{"town":"西五城","koaza":"起境","lat":35.304271,"lng":136.739964},{"town":"西五城","koaza":"下須賀","lat":35.300173,"lng":136.738919},{"town":"西五城","koaza":"須賀前","lat":35.302569,"lng":136.738068},{"town":"冨田","koaza":"牛池","lat":35.298532,"lng":136.738862},{"town":"西五城","koaza":"高須賀","lat":35.303246,"lng":136.738345},{"town":"明地","koaza":"下平","lat":35.27752,"lng":136.738985},{"town":"明地","koaza":"東下城","lat":35.284158,"lng":136.741043},{"town":"冨田","koaza":"立石","lat":35.296768,"lng":136.739952},{"town":"玉野","koaza":"西田島","lat":35.266999,"lng":136.739451},{"town":"起","koaza":"西生出","lat":35.305675,"lng":136.741501},{"town":"冨田","koaza":"仮宮","lat":35.295455,"lng":136.73869},{"town":"冨田","koaza":"流筋","lat":35.294278,"lng":136.739471},{"town":"玉野","koaza":"西瀬古","lat":35.269658,"lng":136.740559},{"town":"起","koaza":"西茜屋","lat":35.307792,"lng":136.739533},{"town":"蓮池","koaza":"郷前","lat":35.290097,"lng":136.739969},{"town":"明地","koaza":"鞆西","lat":35.274448,"lng":136.739411},{"town":"起","koaza":"河田揚","lat":35.311379,"lng":136.740544},{"town":"玉野","koaza":"下葭野","lat":35.259739,"lng":136.740135},{"town":"蓮池","koaza":"郷中","lat":35.292229,"lng":136.740051},{"town":"西五城","koaza":"山方","lat":35.297738,"lng":136.740974},{"town":"玉野","koaza":"可海道","lat":35.268032,"lng":136.741626},{"town":"玉野","koaza":"上葭野","lat":35.26247,"lng":136.739626},{"town":"明地","koaza":"上平","lat":35.280151,"lng":136.739811},{"town":"西五城","koaza":"上切","lat":35.302968,"lng":136.740834},{"town":"西五城","koaza":"杁先南","lat":35.300141,"lng":136.740628},{"town":"冨田","koaza":"宮東","lat":35.294581,"lng":136.741099},{"town":"明地","koaza":"下柳之内","lat":35.281799,"lng":136.740465},{"town":"起","koaza":"本陣山","lat":35.312994,"lng":136.74091},{"town":"明地","koaza":"鞆","lat":35.275454,"lng":136.741268},{"town":"明地","koaza":"東下平","lat":35.276907,"lng":136.741505},{"town":"玉野","koaza":"下新田","lat":35.260513,"lng":136.742193},{"town":"明地","koaza":"中屋敷","lat":35.278954,"lng":136.741599},{"town":"明地","koaza":"山中西","lat":35.279507,"lng":136.740944},{"town":"玉野","koaza":"大崎","lat":35.272611,"lng":136.741195},{"town":"玉野","koaza":"蓮池","lat":35.271635,"lng":136.74132},{"town":"西萩原","koaza":"若宮前","lat":35.287126,"lng":136.742715},{"town":"玉野","koaza":"中山","lat":35.262974,"lng":136.741175},{"town":"起","koaza":"東茜屋","lat":35.30906,"lng":136.742205},{"town":"西五城","koaza":"大下","lat":35.296256,"lng":136.74328},{"town":"蓮池","koaza":"郷東","lat":35.289778,"lng":136.74199},{"town":"起","koaza":"与三ケ巻","lat":35.310835,"lng":136.742161},{"town":"玉野","koaza":"山","lat":35.261797,"lng":136.74221},{"town":"小信中島","koaza":"柳枯草場","lat":35.316173,"lng":136.741993},{"town":"蓮池","koaza":"上長池","lat":35.293823,"lng":136.742327},{"town":"蓮池","koaza":"下長池","lat":35.292162,"lng":136.741692},{"town":"西五城","koaza":"中切","lat":35.300192,"lng":136.742091},{"town":"玉野","koaza":"北西","lat":35.274523,"lng":136.741679},{"town":"明地","koaza":"山中","lat":35.279644,"lng":136.743105},{"town":"西五城","koaza":"中川田","lat":35.302509,"lng":136.743192},{"town":"玉野","koaza":"長島","lat":35.26586,"lng":136.742923},{"town":"明地","koaza":"南古城","lat":35.280987,"lng":136.743747},{"town":"玉野","koaza":"中瀬古","lat":35.268857,"lng":136.744026},{"town":"小信中島","koaza":"西鵜飼分","lat":35.313394,"lng":136.742752},{"town":"玉野","koaza":"冨士裏","lat":35.263531,"lng":136.743285},{"town":"玉野","koaza":"前畑","lat":35.271702,"lng":136.744073},{"town":"玉野","koaza":"杁ノ戸","lat":35.26438,"lng":136.743411},{"town":"玉野","koaza":"裏葭野","lat":35.270606,"lng":136.744157},{"town":"玉野","koaza":"塚原","lat":35.272689,"lng":136.744413},{"town":"玉野","koaza":"郷前","lat":35.267171,"lng":136.743224},{"town":"蓮池","koaza":"首池","lat":35.295207,"lng":136.742948},{"town":"小信中島","koaza":"下郷西","lat":35.307835,"lng":136.743379},{"town":"小信中島","koaza":"宮前","lat":35.318354,"lng":136.743424},{"town":"明地","koaza":"鞆浦","lat":35.275498,"lng":136.743826},{"town":"小信中島","koaza":"東屋敷","lat":35.316469,"lng":136.744696},{"town":"西萩原","koaza":"西浦","lat":35.291987,"lng":136.745204},{"town":"西五城","koaza":"下切","lat":35.297347,"lng":136.74445},{"town":"明地","koaza":"油屋前","lat":35.278164,"lng":136.744261},{"town":"小信中島","koaza":"上郷西","lat":35.309421,"lng":136.743874},{"town":"西萩原","koaza":"八幡西","lat":35.293937,"lng":136.744594},{"town":"小信中島","koaza":"北平口","lat":35.317488,"lng":136.744703},{"town":"明地","koaza":"金屋敷","lat":35.283415,"lng":136.744599},{"town":"西萩原","koaza":"下屋敷","lat":35.28874,"lng":136.744304},{"town":"北今","koaza":"西田面一ノ切","lat":35.296009,"lng":136.745702},{"town":"小信中島","koaza":"郷中","lat":35.309788,"lng":136.746475},{"town":"玉野","koaza":"郷裏","lat":35.268816,"lng":136.745612},{"town":"西五城","koaza":"飛石北","lat":35.299241,"lng":136.74465},{"town":"玉野","koaza":"涜漉","lat":35.263928,"lng":136.74589},{"town":"西萩原","koaza":"中道","lat":35.290846,"lng":136.745077},{"town":"小信中島","koaza":"中平","lat":35.315189,"lng":136.744695},{"town":"東五城","koaza":"若宮","lat":35.305097,"lng":136.744802},{"town":"小信中島","koaza":"西山","lat":35.319968,"lng":136.745021},{"town":"東五城","koaza":"寺廓","lat":35.301558,"lng":136.745092},{"town":"東五城","koaza":"若宮前","lat":35.303699,"lng":136.744248},{"town":"小信中島","koaza":"郷西","lat":35.322142,"lng":136.745394},{"town":"明地","koaza":"鞆東","lat":35.2763,"lng":136.745469},{"town":"小信中島","koaza":"郷北","lat":35.310782,"lng":136.745464},{"town":"小信中島","koaza":"郷南","lat":35.307816,"lng":136.747305},{"town":"小信中島","koaza":"東鵜飼分","lat":35.312258,"lng":136.744386},{"town":"西萩原","koaza":"八幡東","lat":35.293463,"lng":136.745671},{"town":"明地","koaza":"寺浦","lat":35.281293,"lng":136.746498},{"town":"明地","koaza":"宮跡","lat":35.278111,"lng":136.745406},{"town":"明地","koaza":"宮崎田","lat":35.270498,"lng":136.747363},{"town":"東五城","koaza":"上出","lat":35.303699,"lng":136.745753},{"town":"小信中島","koaza":"南九反","lat":35.313728,"lng":136.744782},{"town":"玉野","koaza":"東瀬古","lat":35.266856,"lng":136.746804},{"town":"西萩原","koaza":"上伴内","lat":35.287306,"lng":136.746919},{"town":"西萩原","koaza":"妙楽寺前","lat":35.289857,"lng":136.745902},{"town":"東五城","koaza":"古川","lat":35.299874,"lng":136.7459},{"town":"東五城","koaza":"本郷","lat":35.301801,"lng":136.746438},{"town":"西五城","koaza":"荒子中切","lat":35.297078,"lng":136.747695},{"town":"明地","koaza":"蛇山","lat":35.279789,"lng":136.745955},{"town":"明地","koaza":"社宮地","lat":35.285196,"lng":136.746361},{"town":"玉野","koaza":"中新田","lat":35.263247,"lng":136.747908},{"town":"小信中島","koaza":"北東山","lat":35.320009,"lng":136.746538},{"town":"奥町","koaza":"下川田","lat":35.323204,"lng":136.746968},{"town":"小信中島","koaza":"南平口","lat":35.316719,"lng":136.747226},{"town":"小信中島","koaza":"川東","lat":35.312318,"lng":136.746895},{"town":"奥町","koaza":"堤下一","lat":35.327617,"lng":136.747913},{"town":"明地","koaza":"新田中切","lat":35.279641,"lng":136.747476},{"town":"東五城","koaza":"西大堀","lat":35.300685,"lng":136.746932},{"town":"東五城","koaza":"南田尾","lat":35.30415,"lng":136.747621},{"town":"北今","koaza":"西田面二ノ切","lat":35.295431,"lng":136.747442},{"town":"東五城","koaza":"南大堀","lat":35.300239,"lng":136.747698},{"town":"明地","koaza":"中切","lat":35.28236,"lng":136.747518},{"town":"東五城","koaza":"下出","lat":35.29927,"lng":136.746887},{"town":"西萩原","koaza":"中沼","lat":35.288211,"lng":136.748553},{"town":"西萩原","koaza":"東浦","lat":35.291705,"lng":136.746933},{"town":"萩原町串作","koaza":"古川新田","lat":35.276712,"lng":136.748677},{"town":"明地","koaza":"東切","lat":35.281266,"lng":136.747526},{"town":"小信中島","koaza":"郷東","lat":35.309877,"lng":136.748564},{"town":"明地","koaza":"丼","lat":35.283256,"lng":136.74675},{"town":"明地","koaza":"庵寺前","lat":35.283259,"lng":136.748657},{"town":"小信中島","koaza":"西九反","lat":35.31396,"lng":136.747257},{"town":"玉野","koaza":"渕ケ巻","lat":35.264946,"lng":136.747577},{"town":"東五城","koaza":"三味廓","lat":35.302672,"lng":136.747656},{"town":"西萩原","koaza":"上沼","lat":35.289811,"lng":136.748825},{"town":"奥町","koaza":"内込","lat":35.325139,"lng":136.748149},{"town":"萩原町戸苅","koaza":"酉新田","lat":35.273865,"lng":136.747221},{"town":"萩原町戸苅","koaza":"古川","lat":35.273043,"lng":136.747533},{"town":"西萩原","koaza":"大池","lat":35.292925,"lng":136.747712},{"town":"小信中島","koaza":"二ツ屋","lat":35.320065,"lng":136.747677},{"town":"玉野","koaza":"南野方","lat":35.267912,"lng":136.748034},{"town":"玉野","koaza":"北野方","lat":35.268521,"lng":136.748427},{"town":"小信中島","koaza":"郷浦","lat":35.321661,"lng":136.747973},{"town":"萩原町戸苅","koaza":"北河原","lat":35.274544,"lng":136.749056},{"town":"萩原町戸苅","koaza":"南河原","lat":35.272293,"lng":136.750406},{"town":"玉野","koaza":"河端","lat":35.266392,"lng":136.749271},{"town":"明地","koaza":"新田橋下","lat":35.282155,"lng":136.749604},{"town":"西萩原","koaza":"神明前","lat":35.292539,"lng":136.748913},{"town":"奥町","koaza":"宮南","lat":35.326486,"lng":136.74894},{"town":"小信中島","koaza":"萱場","lat":35.319878,"lng":136.748697},{"town":"萩原町萩原","koaza":"橋下","lat":35.28103,"lng":136.750613},{"town":"北今","koaza":"葭山","lat":35.294851,"lng":136.749833},{"town":"東五城","koaza":"出先","lat":35.299824,"lng":136.748943},{"town":"明地","koaza":"風張","lat":35.284908,"lng":136.74883},{"town":"小信中島","koaza":"川南","lat":35.308369,"lng":136.749877},{"town":"奥町","koaza":"蘇東","lat":35.323838,"lng":136.750538},{"town":"玉野","koaza":"上新田","lat":35.265383,"lng":136.750311},{"town":"奥町","koaza":"風田","lat":35.325926,"lng":136.751657},{"town":"萩原町築込","koaza":"西古川","lat":35.26961,"lng":136.750038},{"town":"小信中島","koaza":"新田前","lat":35.316926,"lng":136.750755},{"town":"東五城","koaza":"北作野","lat":35.301488,"lng":136.749948},{"town":"小信中島","koaza":"西五反田","lat":35.313976,"lng":136.749798},{"town":"小信中島","koaza":"東鵯平","lat":35.312292,"lng":136.751},{"town":"萩原町串作","koaza":"蛇塚","lat":35.278249,"lng":136.749841},{"town":"萩原町萩原","koaza":"西出","lat":35.279967,"lng":136.75095},{"town":"奥町","koaza":"堤下二","lat":35.327993,"lng":136.75025},{"town":"東五城","koaza":"大平裏","lat":35.307406,"lng":136.751044},{"town":"開明","koaza":"杁先","lat":35.322371,"lng":136.750538},{"town":"萩原町築込","koaza":"東古川","lat":35.269121,"lng":136.750783},{"town":"明地","koaza":"新田橋上南","lat":35.284185,"lng":136.750292},{"town":"西萩原","koaza":"下出","lat":35.288034,"lng":136.750464},{"town":"北今","koaza":"十八丁三ノ切","lat":35.293685,"lng":136.75106},{"town":"西萩原","koaza":"葭山","lat":35.289718,"lng":136.751032},{"town":"萩原町串作","koaza":"南方","lat":35.276562,"lng":136.750738},{"town":"萩原町戸苅","koaza":"西浦","lat":35.274744,"lng":136.750805},{"town":"萩原町串作","koaza":"北方","lat":35.278156,"lng":136.750618},{"town":"三条","koaza":"大平","lat":35.305282,"lng":136.750562},{"town":"三条","koaza":"西蛭子","lat":35.299695,"lng":136.752084},{"town":"三条","koaza":"今泉","lat":35.303926,"lng":136.751254},{"town":"奥町","koaza":"川並東","lat":35.327448,"lng":136.75194},{"town":"萩原町戸苅","koaza":"山下","lat":35.272048,"lng":136.751477},{"town":"萩原町戸苅","koaza":"杉林","lat":35.273544,"lng":136.751383},{"town":"萩原町萩原","koaza":"橋上","lat":35.284255,"lng":136.752317},{"town":"北今","koaza":"苗代三ノ切","lat":35.295057,"lng":136.751607},{"town":"萩原町戸苅","koaza":"本郷屋敷","lat":35.274905,"lng":136.752606},{"town":"萩原町串作","koaza":"荒神","lat":35.275703,"lng":136.753534},{"town":"萩原町串作","koaza":"荒神浦","lat":35.276482,"lng":136.752927},{"town":"萩原町築込","koaza":"丸古場","lat":35.269787,"lng":136.753415},{"town":"萩原町串作","koaza":"天神","lat":35.277952,"lng":136.752597},{"town":"開明","koaza":"乾土","lat":35.318645,"lng":136.753408},{"town":"奥町","koaza":"郷中江東","lat":35.326093,"lng":136.753987},{"town":"小信中島","koaza":"仁井西","lat":35.3099,"lng":136.752289},{"town":"萩原町萩原","koaza":"下町","lat":35.279621,"lng":136.754244},{"town":"萩原町萩原","koaza":"上町","lat":35.282121,"lng":136.752332},{"town":"北今","koaza":"苗代一ノ切","lat":35.29319,"lng":136.753785},{"town":"奥町","koaza":"野方","lat":35.329904,"lng":136.753987},{"town":"萩原町戸苅","koaza":"落段","lat":35.270851,"lng":136.753444},{"town":"萩原町築込","koaza":"河戸","lat":35.266785,"lng":136.753065},{"town":"萩原町戸苅","koaza":"中之切","lat":35.271786,"lng":136.753154},{"town":"萩原町戸苅","koaza":"御拂","lat":35.272527,"lng":136.752455},{"town":"木曽川町玉ノ井","koaza":"砂割","lat":35.331829,"lng":136.752782},{"town":"萩原町築込","koaza":"中屋敷","lat":35.2686,"lng":136.753765},{"town":"萩原町戸苅","koaza":"本郷前","lat":35.273909,"lng":136.75352},{"town":"萩原町築込","koaza":"砂先","lat":35.267872,"lng":136.754378},{"town":"萩原町萩原","koaza":"寺屋敷","lat":35.284003,"lng":136.754668},{"town":"木曽川町玉ノ井","koaza":"土腐","lat":35.332417,"lng":136.753185},{"town":"奥町","koaza":"加古穂","lat":35.32385,"lng":136.753396},{"town":"開明","koaza":"出屋敷","lat":35.320314,"lng":136.752147},{"town":"開明","koaza":"絹屋田","lat":35.317036,"lng":136.752196},{"town":"木曽川町玉ノ井","koaza":"野方浦","lat":35.331148,"lng":136.754411},{"town":"開明","koaza":"畑添","lat":35.315566,"lng":136.753479},{"town":"三条","koaza":"野間","lat":35.314011,"lng":136.753483},{"town":"萩原町串作","koaza":"水絶","lat":35.277855,"lng":136.753537},{"town":"三条","koaza":"墓北","lat":35.306249,"lng":136.753554},{"town":"木曽川町玉ノ井","koaza":"大縄場一ノ切","lat":35.334417,"lng":136.753796},{"town":"萩原町萩原","koaza":"替土","lat":35.282785,"lng":136.755492},{"town":"萩原町朝宮","koaza":"河原","lat":35.288641,"lng":136.753934},{"town":"萩原町萩原","koaza":"御茶屋","lat":35.281194,"lng":136.754064},{"town":"奥町","koaza":"下口西","lat":35.328041,"lng":136.756274},{"town":"北今","koaza":"堀田","lat":35.291705,"lng":136.755593},{"town":"北今","koaza":"下渡","lat":35.295925,"lng":136.754704},{"town":"木曽川町玉ノ井","koaza":"柳原","lat":35.333429,"lng":136.755713},{"town":"萩原町串作","koaza":"女郎花","lat":35.277768,"lng":136.754426},{"town":"萩原町戸苅","koaza":"上畑","lat":35.272817,"lng":136.75406},{"town":"小信中島","koaza":"仁井北","lat":35.310964,"lng":136.754551},{"town":"萩原町戸苅","koaza":"滝用水西","lat":35.274731,"lng":136.754516},{"town":"東五城","koaza":"備前","lat":35.309917,"lng":136.754763},{"town":"東五城","koaza":"祐久野","lat":35.303052,"lng":136.753591},{"town":"萩原町萩原","koaza":"松山","lat":35.287028,"lng":136.754157},{"town":"萩原町萩原","koaza":"古井溝","lat":35.280634,"lng":136.755084},{"town":"北今","koaza":"再鳥一","lat":35.294308,"lng":136.756244},{"town":"萩原町朝宮","koaza":"下平","lat":35.289726,"lng":136.755931},{"town":"萩原町築込","koaza":"生出浦","lat":35.267404,"lng":136.755075},{"town":"萩原町築込","koaza":"野中","lat":35.268516,"lng":136.755475},{"town":"奥町","koaza":"芝原","lat":35.325519,"lng":136.757058},{"town":"木曽川町玉ノ井","koaza":"大縄場三ノ切","lat":35.335869,"lng":136.755495},{"town":"三条","koaza":"高三味","lat":35.304638,"lng":136.755125},{"town":"三条","koaza":"郷西","lat":35.299941,"lng":136.754754},{"town":"萩原町串作","koaza":"平","lat":35.27535,"lng":136.756142},{"town":"木曽川町玉ノ井","koaza":"四ツ辻西","lat":35.332102,"lng":136.755564},{"town":"東五城","koaza":"東備前","lat":35.309931,"lng":136.755879},{"town":"萩原町高松","koaza":"西郷裏","lat":35.272302,"lng":136.756148},{"town":"奥町","koaza":"野越","lat":35.323929,"lng":136.757091},{"town":"開明","koaza":"西出","lat":35.322135,"lng":136.757106},{"town":"北今","koaza":"地蔵跡","lat":35.296401,"lng":136.756205},{"town":"開明","koaza":"樋西","lat":35.320301,"lng":136.757398},{"town":"木曽川町玉ノ井","koaza":"大縄場四ノ切","lat":35.336516,"lng":136.755978},{"town":"開明","koaza":"東沼","lat":35.318687,"lng":136.758388},{"town":"開明","koaza":"村上","lat":35.317075,"lng":136.757172},{"town":"萩原町串作","koaza":"才勝","lat":35.277788,"lng":136.755842},{"town":"萩原町朝宮","koaza":"山東","lat":35.287724,"lng":136.755902},{"town":"三条","koaza":"四反田","lat":35.312828,"lng":136.755498},{"town":"萩原町朝宮","koaza":"神明前","lat":35.289084,"lng":136.756682},{"town":"萩原町高松","koaza":"川田","lat":35.271109,"lng":136.75572},{"town":"三条","koaza":"屋敷","lat":35.313532,"lng":136.756609},{"town":"木曽川町玉ノ井","koaza":"新屋敷五ノ切","lat":35.334422,"lng":136.756183},{"town":"萩原町高松","koaza":"高松","lat":35.270987,"lng":136.755453},{"town":"三条","koaza":"中","lat":35.305146,"lng":136.756382},{"town":"萩原町萩原","koaza":"河原崎","lat":35.280332,"lng":136.75767},{"town":"萩原町滝","koaza":"北平","lat":35.274298,"lng":136.756395},{"town":"萩原町萩原","koaza":"高畑","lat":35.284656,"lng":136.756558},{"town":"三条","koaza":"酉新田","lat":35.299441,"lng":136.757364},{"town":"木曽川町玉ノ井","koaza":"大縄場六ノ切","lat":35.337939,"lng":136.757186},{"town":"萩原町串作","koaza":"荒神田面","lat":35.277237,"lng":136.756521},{"town":"北今","koaza":"小家","lat":35.296281,"lng":136.7576},{"town":"木曽川町玉ノ井","koaza":"四ツ辻東","lat":35.331699,"lng":136.756648},{"town":"奥町","koaza":"三出西","lat":35.329497,"lng":136.758125},{"town":"萩原町朝宮","koaza":"嫁振","lat":35.290766,"lng":136.757208},{"town":"萩原町高松","koaza":"東郷裏西ノ切","lat":35.272191,"lng":136.757091},{"town":"北今","koaza":"定納","lat":35.292544,"lng":136.758037},{"town":"三条","koaza":"通","lat":35.307169,"lng":136.756868},{"town":"三条","koaza":"道東","lat":35.309938,"lng":136.757239},{"town":"三条","koaza":"郷南西","lat":35.305679,"lng":136.758276},{"town":"三条","koaza":"山","lat":35.303083,"lng":136.757329},{"town":"萩原町高松","koaza":"地蔵前","lat":35.270844,"lng":136.757451},{"town":"北今","koaza":"林一ノ切","lat":35.29429,"lng":136.758293},{"town":"萩原町串作","koaza":"下口","lat":35.275075,"lng":136.757322},{"town":"木曽川町玉ノ井","koaza":"大縄場七ノ切","lat":35.338628,"lng":136.758062},{"town":"木曽川町玉ノ井","koaza":"新屋敷四ノ切","lat":35.336119,"lng":136.757911},{"town":"木曽川町玉ノ井","koaza":"古井田","lat":35.334447,"lng":136.758235},{"town":"木曽川町玉ノ井","koaza":"蒲池","lat":35.332962,"lng":136.757519},{"town":"萩原町萩原","koaza":"友重","lat":35.283305,"lng":136.758114},{"town":"萩原町萩原","koaza":"南友重","lat":35.281644,"lng":136.757426},{"town":"萩原町朝宮","koaza":"中道","lat":35.28717,"lng":136.757685},{"town":"萩原町萩原","koaza":"山越","lat":35.284425,"lng":136.75824},{"town":"萩原町朝宮","koaza":"狐土居","lat":35.287686,"lng":136.75871},{"town":"萩原町串作","koaza":"流","lat":35.276915,"lng":136.758363},{"town":"北今","koaza":"再鳥二ノ切","lat":35.295287,"lng":136.758512},{"town":"奥町","koaza":"薬師","lat":35.328473,"lng":136.759042},{"town":"奥町","koaza":"貴船","lat":35.327677,"lng":136.758919},{"town":"萩原町朝宮","koaza":"宮前","lat":35.289449,"lng":136.759647},{"town":"萩原町萩原","koaza":"南大畔","lat":35.278859,"lng":136.75865},{"town":"萩原町高松","koaza":"東郷裏","lat":35.271593,"lng":136.757999},{"town":"三条","koaza":"江向","lat":35.313623,"lng":136.759386},{"town":"三条","koaza":"下り戸","lat":35.312109,"lng":136.759725},{"town":"木曽川町玉ノ井","koaza":"大縄場九ノ切","lat":35.340099,"lng":136.759131},{"town":"萩原町滝","koaza":"戌亥出","lat":35.273938,"lng":136.758177},{"town":"木曽川町玉ノ井","koaza":"大縄場十ノ切","lat":35.340967,"lng":136.759146},{"town":"北今","koaza":"再鳥三","lat":35.296969,"lng":136.758503},{"town":"木曽川町玉ノ井","koaza":"三出浦","lat":35.331652,"lng":136.758872},{"town":"木曽川町玉ノ井","koaza":"宮前","lat":35.335445,"lng":136.759653},{"town":"木曽川町玉ノ井","koaza":"新屋敷三ノ切","lat":35.337308,"lng":136.758999},{"town":"木曽川町玉ノ井","koaza":"高畑","lat":35.332967,"lng":136.758468},{"town":"木曽川町里小牧","koaza":"砂ノ口","lat":35.342419,"lng":136.759897},{"town":"奥町","koaza":"貴船前","lat":35.325598,"lng":136.759867},{"town":"三条","koaza":"苅","lat":35.306503,"lng":136.758866},{"town":"三条","koaza":"北平","lat":35.301915,"lng":136.759328},{"town":"三条","koaza":"郷内西","lat":35.300609,"lng":136.759859},{"town":"萩原町串作","koaza":"西沖","lat":35.276944,"lng":136.759377},{"town":"萩原町萩原","koaza":"西大畔","lat":35.280377,"lng":136.759805},{"town":"萩原町串作","koaza":"小折","lat":35.275047,"lng":136.759433},{"town":"奥町","koaza":"三出","lat":35.330506,"lng":136.760732},{"town":"北今","koaza":"川原","lat":35.29334,"lng":136.759907},{"town":"萩原町朝宮","koaza":"産明神","lat":35.287538,"lng":136.759394},{"town":"三条","koaza":"新","lat":35.306443,"lng":136.760006},{"town":"三条","koaza":"賀","lat":35.309257,"lng":136.761034},{"town":"木曽川町玉ノ井","koaza":"穴太部","lat":35.337612,"lng":136.761192},{"town":"萩原町朝宮","koaza":"宮西","lat":35.290338,"lng":136.759767},{"town":"木曽川町玉ノ井","koaza":"新屋敷二ノ切","lat":35.338556,"lng":136.760633},{"town":"萩原町朝宮","koaza":"神ノ木","lat":35.287173,"lng":136.761202},{"town":"萩原町朝宮","koaza":"朝宮前","lat":35.285504,"lng":136.76087},{"town":"北今","koaza":"林二ノ切","lat":35.294648,"lng":136.760617},{"town":"萩原町朝宮","koaza":"芦山","lat":35.294375,"lng":136.762164},{"town":"木曽川町玉ノ井","koaza":"稲荷前","lat":35.332706,"lng":136.761588},{"town":"萩原町萩原","koaza":"押切","lat":35.28436,"lng":136.760866},{"town":"開明","koaza":"郷中","lat":35.321444,"lng":136.76079},{"town":"木曽川町里小牧","koaza":"下町場","lat":35.345498,"lng":136.760381},{"town":"三条","koaza":"郷南東","lat":35.305626,"lng":136.760497},{"town":"木曽川町玉ノ井","koaza":"宮東","lat":35.335675,"lng":136.761144},{"town":"奥町","koaza":"貴船東","lat":35.328422,"lng":136.760414},{"town":"北今","koaza":"林三ノ切","lat":35.295992,"lng":136.760847},{"town":"木曽川町里小牧","koaza":"吹寄洲","lat":35.354654,"lng":136.762071},{"town":"萩原町萩原","koaza":"県","lat":35.283418,"lng":136.760853},{"town":"萩原町串作","koaza":"東沖","lat":35.276969,"lng":136.760425},{"town":"奥町","koaza":"甚四前","lat":35.326195,"lng":136.761238},{"town":"木曽川町玉ノ井","koaza":"新屋敷一ノ切","lat":35.339527,"lng":136.761991},{"town":"開明","koaza":"前脇","lat":35.31863,"lng":136.761869},{"town":"開明","koaza":"新田郷","lat":35.315624,"lng":136.760948},{"town":"開明","koaza":"西池田","lat":35.31365,"lng":136.760971},{"town":"開明","koaza":"蒲原","lat":35.31214,"lng":136.762222},{"town":"萩原町萩原","koaza":"東大畔","lat":35.280318,"lng":136.760872},{"town":"奥町","koaza":"南目草","lat":35.324279,"lng":136.762758},{"town":"木曽川町里小牧","koaza":"笹原","lat":35.35014,"lng":136.762282},{"town":"西五城","koaza":"板倉前西切","lat":35.298327,"lng":136.759905},{"town":"木曽川町里小牧","koaza":"新茅場","lat":35.344272,"lng":136.761714},{"town":"三条","koaza":"田","lat":35.307326,"lng":136.761791},{"town":"萩原町萩原","koaza":"二子西","lat":35.281036,"lng":136.761936},{"town":"木曽川町玉ノ井","koaza":"稲荷浦","lat":35.33382,"lng":136.761583},{"town":"萩原町西御堂","koaza":"土根","lat":35.266052,"lng":136.762264},{"town":"萩原町朝宮","koaza":"茶園","lat":35.288518,"lng":136.762315},{"town":"萩原町串作","koaza":"前田面","lat":35.276994,"lng":136.761496},{"town":"萩原町朝宮","koaza":"寺裏","lat":35.291235,"lng":136.762388},{"town":"萩原町串作","koaza":"滝浦","lat":35.274665,"lng":136.763099},{"town":"萩原町滝","koaza":"北裡","lat":35.274223,"lng":136.761684},{"town":"木曽川町玉ノ井","koaza":"寺西","lat":35.336343,"lng":136.762292},{"town":"萩原町滝","koaza":"内田","lat":35.272807,"lng":136.761947},{"town":"萩原町高木","koaza":"島田","lat":35.270575,"lng":136.760627},{"town":"奥町","koaza":"大切前","lat":35.328864,"lng":136.762173},{"town":"萩原町高木","koaza":"佐名坪","lat":35.268865,"lng":136.761722},{"town":"萩原町高木","koaza":"西川田","lat":35.267826,"lng":136.763749},{"town":"三条","koaza":"天神西","lat":35.303137,"lng":136.763132},{"town":"三条","koaza":"古川","lat":35.300649,"lng":136.761959},{"town":"木曽川町玉ノ井","koaza":"俣江田","lat":35.337946,"lng":136.762591},{"town":"木曽川町玉ノ井","koaza":"蓮池","lat":35.337118,"lng":136.76255},{"town":"奥町","koaza":"畑中","lat":35.326712,"lng":136.763005},{"town":"木曽川町里小牧","koaza":"上川原","lat":35.355127,"lng":136.763883},{"town":"三条","koaza":"ヱグロ","lat":35.308889,"lng":136.763512},{"town":"萩原町萩原","koaza":"庚申塚","lat":35.283517,"lng":136.763699},{"town":"萩原町朝宮","koaza":"宮東","lat":35.290157,"lng":136.76255},{"town":"北方町北方","koaza":"下宝江","lat":35.357237,"lng":136.762914},{"town":"木曽川町玉ノ井","koaza":"八尻","lat":35.333969,"lng":136.762987},{"town":"萩原町朝宮","koaza":"栄","lat":35.292478,"lng":136.763194},{"town":"木曽川町里小牧","koaza":"本茅場","lat":35.350016,"lng":136.762809},{"town":"三条","koaza":"小辰己","lat":35.304529,"lng":136.763127},{"town":"開明","koaza":"大橋西","lat":35.32243,"lng":136.763744},{"town":"萩原町串作","koaza":"郷","lat":35.278741,"lng":136.762367},{"town":"萩原町串作","koaza":"長田","lat":35.277029,"lng":136.762995},{"town":"木曽川町里小牧","koaza":"道路寺","lat":35.345561,"lng":136.76273},{"town":"萩原町花井方","koaza":"朝宮浦","lat":35.293786,"lng":136.763214},{"town":"萩原町萩原","koaza":"松田","lat":35.282161,"lng":136.76392},{"town":"萩原町滝","koaza":"西天水","lat":35.273541,"lng":136.763799},{"town":"萩原町花井方","koaza":"西天神","lat":35.299249,"lng":136.762591},{"town":"萩原町萩原","koaza":"大門前","lat":35.280991,"lng":136.763126},{"town":"三条","koaza":"田畑","lat":35.306366,"lng":136.763199},{"town":"萩原町朝宮","koaza":"長池","lat":35.287269,"lng":136.763189},{"town":"木曽川町三ツ法寺","koaza":"村内","lat":35.331592,"lng":136.764221},{"town":"木曽川町玉ノ井","koaza":"寺東","lat":35.336151,"lng":136.763916},{"town":"開明","koaza":"小原道東","lat":35.320242,"lng":136.763577},{"town":"萩原町花井方","koaza":"平前","lat":35.29957,"lng":136.763766},{"town":"開明","koaza":"教堂池","lat":35.315687,"lng":136.763744},{"town":"木曽川町里小牧","koaza":"西蒲原","lat":35.343784,"lng":136.763006},{"town":"開明","koaza":"北葭野","lat":35.314687,"lng":136.763746},{"town":"木曽川町里小牧","koaza":"武蔵野","lat":35.346014,"lng":136.764486},{"town":"萩原町花井方","koaza":"天神","lat":35.297815,"lng":136.763682},{"town":"萩原町花井方","koaza":"平","lat":35.300306,"lng":136.764023},{"town":"木曽川町玉ノ井","koaza":"道路寺","lat":35.339773,"lng":136.763191},{"town":"奥町","koaza":"丁田","lat":35.329991,"lng":136.763678},{"town":"奥町","koaza":"前沼","lat":35.328105,"lng":136.764248},{"town":"萩原町滝","koaza":"越前","lat":35.272743,"lng":136.763972},{"town":"木曽川町玉ノ井","koaza":"吉原道北","lat":35.33489,"lng":136.764222},{"town":"木曽川町玉ノ井","koaza":"辻廻","lat":35.332753,"lng":136.764707},{"town":"萩原町富田方","koaza":"西出","lat":35.290154,"lng":136.763578},{"town":"木曽川町里小牧","koaza":"神明東","lat":35.34804,"lng":136.763877},{"town":"萩原町串作","koaza":"東田面","lat":35.277824,"lng":136.764393},{"town":"木曽川町玉ノ井","koaza":"吉原西","lat":35.333423,"lng":136.764091},{"town":"萩原町串作","koaza":"天井","lat":35.275996,"lng":136.764167},{"town":"奥町","koaza":"県郭","lat":35.330217,"lng":136.764772},{"town":"萩原町富田方","koaza":"西の川","lat":35.287944,"lng":136.764793},{"town":"木曽川町玉ノ井","koaza":"池田","lat":35.339005,"lng":136.764377},{"town":"木曽川町里小牧","koaza":"東蒲原","lat":35.343637,"lng":136.763951},{"town":"萩原町富田方","koaza":"郷中","lat":35.290039,"lng":136.765072},{"town":"木曽川町里小牧","koaza":"砂越","lat":35.353172,"lng":136.764222},{"town":"萩原町萩原","koaza":"家老","lat":35.281214,"lng":136.764699},{"town":"三条","koaza":"芦山","lat":35.30185,"lng":136.765265},{"town":"萩原町萩原","koaza":"長池","lat":35.285331,"lng":136.763901},{"town":"北方町北方","koaza":"宝江新田","lat":35.359925,"lng":136.76599},{"town":"萩原町富田方","koaza":"酉新田","lat":35.292144,"lng":136.764276},{"town":"奥町","koaza":"上平池","lat":35.326897,"lng":136.764805},{"town":"萩原町花井方","koaza":"栄","lat":35.292904,"lng":136.764484},{"town":"萩原町花井方","koaza":"一本松","lat":35.294424,"lng":136.765449},{"town":"萩原町串作","koaza":"二子前","lat":35.280107,"lng":136.764443},{"town":"萩原町花井方","koaza":"宮前","lat":35.296407,"lng":136.764761},{"town":"三条","koaza":"郷東藤","lat":35.308883,"lng":136.76464},{"town":"萩原町花井方","koaza":"乾出","lat":35.29704,"lng":136.764709},{"town":"萩原町高木","koaza":"十三塚","lat":35.271749,"lng":136.764781},{"town":"木曽川町里小牧","koaza":"渡瀬","lat":35.350448,"lng":136.764933},{"town":"開明","koaza":"内沼","lat":35.320441,"lng":136.766695},{"town":"萩原町高木","koaza":"西出","lat":35.275086,"lng":136.764836},{"town":"開明","koaza":"宮西","lat":35.318733,"lng":136.76671},{"town":"木曽川町里小牧","koaza":"宮東","lat":35.35237,"lng":136.765842},{"town":"木曽川町玉ノ井","koaza":"春日井","lat":35.337702,"lng":136.765558},{"town":"萩原町高木","koaza":"蟹子","lat":35.273451,"lng":136.765188},{"town":"開明","koaza":"柳苗代","lat":35.31714,"lng":136.765449},{"town":"開明","koaza":"廻池郭","lat":35.321746,"lng":136.766623},{"town":"木曽川町里小牧","koaza":"川田","lat":35.347987,"lng":136.766167},{"town":"木曽川町里小牧","koaza":"小牧野","lat":35.344238,"lng":136.766493},{"town":"木曽川町里小牧","koaza":"社宮司","lat":35.341118,"lng":136.764992},{"town":"萩原町高木","koaza":"味噌屋","lat":35.274396,"lng":136.765422},{"town":"萩原町富田方","koaza":"流","lat":35.287316,"lng":136.765884},{"town":"萩原町富田方","koaza":"八剱","lat":35.285707,"lng":136.765567},{"town":"木曽川町外割田","koaza":"西郷西","lat":35.338895,"lng":136.765504},{"town":"萩原町萩原","koaza":"大日","lat":35.283507,"lng":136.765665},{"town":"木曽川町里小牧","koaza":"南渡瀬","lat":35.350101,"lng":136.766101},{"town":"開明","koaza":"墓所北","lat":35.313683,"lng":136.766551},{"town":"萩原町富田方","koaza":"茶原","lat":35.291585,"lng":136.766996},{"town":"開明","koaza":"愛宕北","lat":35.312165,"lng":136.766306},{"town":"木曽川町玉ノ井","koaza":"馬三味","lat":35.336089,"lng":136.766362},{"town":"萩原町花井方","koaza":"東天神","lat":35.299378,"lng":136.765772},{"town":"木曽川町外割田","koaza":"西片ノ池","lat":35.340508,"lng":136.766093},{"town":"開明","koaza":"大橋北","lat":35.314933,"lng":136.766275},{"town":"奥町","koaza":"七丁","lat":35.324403,"lng":136.767662},{"town":"木曽川町玉ノ井","koaza":"上流","lat":35.334644,"lng":136.765991},{"town":"奥町","koaza":"土桶","lat":35.325779,"lng":136.766773},{"town":"奥町","koaza":"川崎","lat":35.329211,"lng":136.766377},{"town":"萩原町萩原","koaza":"西ノ川","lat":35.283212,"lng":136.766892},{"town":"木曽川町玉ノ井","koaza":"下流","lat":35.333557,"lng":136.765989},{"town":"木曽川町三ツ法寺","koaza":"辻前","lat":35.331825,"lng":136.766252},{"town":"萩原町串作","koaza":"河室浦","lat":35.276383,"lng":136.76699},{"town":"萩原町串作","koaza":"河田","lat":35.279553,"lng":136.767304},{"town":"萩原町萩原","koaza":"三本木","lat":35.280935,"lng":136.766052},{"town":"萩原町高木","koaza":"中道","lat":35.273527,"lng":136.767084},{"town":"木曽川町外割田","koaza":"小牧境","lat":35.342023,"lng":136.766616},{"town":"木曽川町里小牧","koaza":"寺東","lat":35.352282,"lng":136.768968},{"town":"大和町福森","koaza":"宮前","lat":35.301632,"lng":136.76683},{"town":"萩原町富田方","koaza":"二子裏","lat":35.287293,"lng":136.766783},{"town":"北方町北方","koaza":"宝江新田砂越","lat":35.35727,"lng":136.766392},{"town":"萩原町富田方","koaza":"観音堂","lat":35.289856,"lng":136.767007},{"town":"木曽川町外割田","koaza":"東片ノ池","lat":35.341222,"lng":136.767289},{"town":"萩原町富田方","koaza":"山中","lat":35.289003,"lng":136.767568},{"town":"北方町北方","koaza":"宝江","lat":35.359898,"lng":136.766457},{"town":"萩原町花井方","koaza":"富田浦","lat":35.292848,"lng":136.766765},{"town":"萩原町花井方","koaza":"郷前","lat":35.294322,"lng":136.767597},{"town":"萩原町高木","koaza":"立石","lat":35.271642,"lng":136.766664},{"town":"木曽川町三ツ法寺","koaza":"西流","lat":35.332288,"lng":136.767207},{"town":"萩原町高木","koaza":"半田","lat":35.269956,"lng":136.767056},{"town":"萩原町花井方","koaza":"郷中","lat":35.295733,"lng":136.768453},{"town":"木曽川町外割田","koaza":"郷中川田","lat":35.339199,"lng":136.767327},{"town":"萩原町花井方","koaza":"郷浦","lat":35.297226,"lng":136.768106},{"town":"木曽川町里小牧","koaza":"野方","lat":35.350369,"lng":136.7688},{"town":"木曽川町三ツ法寺","koaza":"宮西","lat":35.331585,"lng":136.767301},{"town":"木曽川町外割田","koaza":"天王西","lat":35.338135,"lng":136.766845},{"town":"萩原町萩原","koaza":"沼ケ池","lat":35.282606,"lng":136.767696},{"town":"萩原町花井方","koaza":"東天神東の切","lat":35.297742,"lng":136.768318},{"town":"萩原町富田方","koaza":"上畑","lat":35.285472,"lng":136.767402},{"town":"木曽川町外割田","koaza":"西芳池","lat":35.336744,"lng":136.767518},{"town":"木曽川町里小牧","koaza":"新田","lat":35.348662,"lng":136.768517},{"town":"北方町北方","koaza":"中宝江","lat":35.361951,"lng":136.767129},{"town":"萩原町高木","koaza":"町東","lat":35.271006,"lng":136.767829},{"town":"開明","koaza":"西屋敷","lat":35.314923,"lng":136.767203},{"town":"北方町北方","koaza":"宝江下","lat":35.360325,"lng":136.767276},{"town":"大和町福森","koaza":"河原畑","lat":35.299306,"lng":136.767826},{"town":"木曽川町里小牧","koaza":"西青木","lat":35.343821,"lng":136.767479},{"town":"北方町中島","koaza":"往還南","lat":35.356245,"lng":136.767438},{"town":"木曽川町外割田","koaza":"孫兵衛池","lat":35.342357,"lng":136.768641},{"town":"木曽川町里小牧","koaza":"蛭田","lat":35.346116,"lng":136.768423},{"town":"萩原町高木","koaza":"津崎","lat":35.273338,"lng":136.768884},{"town":"萩原町高木","koaza":"乾","lat":35.276393,"lng":136.767357},{"town":"木曽川町里小牧","koaza":"天神","lat":35.354299,"lng":136.765944},{"town":"開明","koaza":"北釈迦堂","lat":35.322962,"lng":136.767915},{"town":"開明","koaza":"北西沼","lat":35.321361,"lng":136.768654},{"town":"木曽川町外割田","koaza":"大畔西","lat":35.341542,"lng":136.767965},{"town":"北方町中島","koaza":"西流","lat":35.359464,"lng":136.767858},{"town":"木曽川町里小牧","koaza":"上川田","lat":35.354814,"lng":136.767632},{"town":"北方町中島","koaza":"下出東","lat":35.357754,"lng":136.767812},{"town":"木曽川町里小牧","koaza":"寺北","lat":35.354131,"lng":136.76886},{"town":"大和町馬引","koaza":"東中境","lat":35.303155,"lng":136.768089},{"town":"大和町福森","koaza":"井戸畑","lat":35.300244,"lng":136.769033},{"town":"大和町福森","koaza":"馬引境","lat":35.30157,"lng":136.769346},{"town":"萩原町萩原","koaza":"三味南","lat":35.281251,"lng":136.767692},{"town":"萩原町高木","koaza":"東浦","lat":35.276079,"lng":136.76828},{"town":"北方町中島","koaza":"流西","lat":35.359439,"lng":136.768478},{"town":"北方町中島","koaza":"黒髭","lat":35.360966,"lng":136.768559},{"town":"開明","koaza":"北小憧","lat":35.313342,"lng":136.768326},{"town":"北方町北方","koaza":"上宝江","lat":35.363782,"lng":136.768622},{"town":"萩原町中島","koaza":"光堂","lat":35.268536,"lng":136.769501},{"town":"萩原町西御堂","koaza":"蓮池","lat":35.265665,"lng":136.768574},{"town":"萩原町西御堂","koaza":"花ノ木","lat":35.263837,"lng":136.768615},{"town":"萩原町西御堂","koaza":"沖田","lat":35.262382,"lng":136.768627},{"town":"萩原町西御堂","koaza":"野間","lat":35.261566,"lng":136.768671},{"town":"萩原町富田方","koaza":"雀戸","lat":35.285914,"lng":136.769347},{"town":"奥町","koaza":"宮郭","lat":35.331058,"lng":136.769478},{"town":"奥町","koaza":"宮前","lat":35.328673,"lng":136.770128},{"town":"木曽川町外割田","koaza":"東芳池","lat":35.336244,"lng":136.768494},{"town":"木曽川町三ツ法寺","koaza":"東流","lat":35.332267,"lng":136.76861},{"town":"奥町","koaza":"剱光寺","lat":35.325998,"lng":136.770141},{"town":"萩原町花井方","koaza":"中田島","lat":35.294208,"lng":136.76986},{"town":"萩原町中島","koaza":"戌亥","lat":35.269356,"lng":136.769524},{"town":"木曽川町外割田","koaza":"千代","lat":35.341903,"lng":136.768856},{"town":"萩原町富田方","koaza":"柳原","lat":35.290727,"lng":136.769583},{"town":"萩原町高木","koaza":"尾中畑","lat":35.27177,"lng":136.768701},{"town":"萩原町高木","koaza":"東川田","lat":35.271026,"lng":136.769066},{"town":"萩原町河田方","koaza":"下り松","lat":35.282834,"lng":136.769067},{"town":"開明","koaza":"東屋敷","lat":35.314575,"lng":136.76881},{"town":"開明","koaza":"新田沼","lat":35.32028,"lng":136.77005},{"town":"開明","koaza":"神明郭","lat":35.317846,"lng":136.770144},{"town":"萩原町河田方","koaza":"三味浦","lat":35.280635,"lng":136.769025},{"town":"開明","koaza":"馬保里","lat":35.316594,"lng":136.771393},{"town":"木曽川町外割田","koaza":"西郷中","lat":35.339084,"lng":136.76908},{"town":"開明","koaza":"北屋敷","lat":35.316091,"lng":136.76925},{"town":"大和町苅安賀","koaza":"杉之木","lat":35.287691,"lng":136.769544},{"town":"萩原町河田方","koaza":"西狭間","lat":35.279197,"lng":136.769128},{"town":"木曽川町外割田","koaza":"南乙五郎","lat":35.339996,"lng":136.769521},{"town":"大和町福森","koaza":"郷西","lat":35.299002,"lng":136.769688},{"town":"木曽川町外割田","koaza":"下玉ノ井境","lat":35.335167,"lng":136.767915},{"town":"北方町中島","koaza":"西辻ノ内","lat":35.359225,"lng":136.76958},{"town":"北方町中島","koaza":"南辻ノ内","lat":35.356168,"lng":136.770839},{"town":"萩原町河田方","koaza":"八剣北","lat":35.277753,"lng":136.770057},{"town":"北方町中島","koaza":"西郷","lat":35.360711,"lng":136.770562},{"town":"萩原町西御堂","koaza":"社宮司","lat":35.266709,"lng":136.769602},{"town":"木曽川町外割田","koaza":"南青木","lat":35.342705,"lng":136.768644},{"town":"木曽川町黒田","koaza":"北宿一の切","lat":35.347187,"lng":136.770154},{"town":"萩原町西御堂","koaza":"四ツ辻","lat":35.264048,"lng":136.76949},{"town":"大和町苅安賀","koaza":"藤之木","lat":35.289469,"lng":136.769757},{"town":"北方町中島","koaza":"宮浦","lat":35.361914,"lng":136.770063},{"town":"萩原町西御堂","koaza":"虫祭","lat":35.262468,"lng":136.771255},{"town":"開明","koaza":"流","lat":35.312189,"lng":136.771445},{"town":"木曽川町外割田","koaza":"前堀田","lat":35.336781,"lng":136.769451},{"town":"開明","koaza":"南新田","lat":35.321474,"lng":136.770172},{"town":"木曽川町外割田","koaza":"上桂徳輪","lat":35.336148,"lng":136.769105},{"town":"木曽川町外割田","koaza":"北乙五郎","lat":35.340609,"lng":136.770328},{"town":"北方町中島","koaza":"西松本","lat":35.358207,"lng":136.77093},{"town":"木曽川町外割田","koaza":"西郷東","lat":35.338607,"lng":136.770435},{"town":"北方町北方","koaza":"畑下郷","lat":35.363967,"lng":136.770252},{"town":"木曽川町里小牧","koaza":"清水","lat":35.353727,"lng":136.770967},{"town":"萩原町中島","koaza":"白山","lat":35.270303,"lng":136.770338},{"town":"開明","koaza":"北新田","lat":35.323126,"lng":136.770361},{"town":"奥町","koaza":"田畑","lat":35.324088,"lng":136.770642},{"town":"開明","koaza":"南井保里","lat":35.313882,"lng":136.77205},{"town":"萩原町西宮重","koaza":"西出","lat":35.2764,"lng":136.770333},{"town":"大和町馬引","koaza":"印田","lat":35.303177,"lng":136.771817},{"town":"萩原町西宮重","koaza":"池之井","lat":35.274229,"lng":136.770374},{"town":"大和町苅安賀","koaza":"観音堂","lat":35.290865,"lng":136.77226},{"town":"萩原町河田方","koaza":"中道","lat":35.282459,"lng":136.771294},{"town":"萩原町中島","koaza":"番所","lat":35.267993,"lng":136.771514},{"town":"木曽川町里小牧","koaza":"山方","lat":35.355131,"lng":136.770119},{"town":"萩原町西御堂","koaza":"石塚","lat":35.265955,"lng":136.771854},{"town":"萩原町西御堂","koaza":"宮西","lat":35.264747,"lng":136.770409},{"town":"萩原町河田方","koaza":"北河洲","lat":35.280665,"lng":136.77077},{"town":"萩原町西御堂","koaza":"苅宿","lat":35.263907,"lng":136.770742},{"town":"萩原町河田方","koaza":"南河洲","lat":35.278521,"lng":136.771467},{"town":"萩原町西御堂","koaza":"東向江","lat":35.261015,"lng":136.771538},{"town":"木曽川町黒田","koaza":"北宿二の切","lat":35.346962,"lng":136.771385},{"town":"萩原町河田方","koaza":"南木戸","lat":35.284342,"lng":136.771014},{"town":"萩原町花井方","koaza":"柳原","lat":35.294861,"lng":136.770137},{"town":"大和町福森","koaza":"郷中","lat":35.29984,"lng":136.771776},{"town":"木曽川町外割田","koaza":"蓮池","lat":35.341407,"lng":136.771038},{"town":"萩原町西御堂","koaza":"郷西切","lat":35.264968,"lng":136.772266},{"town":"開明","koaza":"郷東","lat":35.315567,"lng":136.771402},{"town":"北方町北方","koaza":"吹埋","lat":35.365124,"lng":136.772615},{"town":"奥町","koaza":"神田","lat":35.328657,"lng":136.771415},{"town":"萩原町西宮重","koaza":"西光堂","lat":35.273339,"lng":136.771289},{"town":"大和町苅安賀","koaza":"杉山","lat":35.286929,"lng":136.772306},{"town":"大和町苅安賀","koaza":"薬師堂","lat":35.293631,"lng":136.772029},{"town":"萩原町西宮重","koaza":"北屋敷","lat":35.277197,"lng":136.772645},{"town":"大和町苅安賀","koaza":"狭間","lat":35.288662,"lng":136.771375},{"town":"開明","koaza":"名古羅","lat":35.318774,"lng":136.77294},{"town":"木曽川町外割田","koaza":"四の通り","lat":35.337827,"lng":136.771874},{"town":"北方町中島","koaza":"東郷","lat":35.359981,"lng":136.771747},{"town":"大和町苅安賀","koaza":"伝治越","lat":35.295768,"lng":136.771573},{"town":"開明","koaza":"杁西郭","lat":35.322801,"lng":136.772406},{"town":"木曽川町外割田","koaza":"寺前","lat":35.339982,"lng":136.772489},{"town":"萩原町西御堂","koaza":"郷南切","lat":35.264003,"lng":136.772755},{"town":"奥町","koaza":"宮東","lat":35.331401,"lng":136.771601},{"town":"開明","koaza":"城堀","lat":35.321321,"lng":136.772693},{"town":"大和町毛受","koaza":"西池田","lat":35.297826,"lng":136.772746},{"town":"北方町中島","koaza":"中起","lat":35.355448,"lng":136.77128},{"town":"大和町福森","koaza":"郷","lat":35.30099,"lng":136.772961},{"town":"大和町毛受","koaza":"伝治腰","lat":35.296651,"lng":136.772566},{"town":"萩原町林野","koaza":"苗代","lat":35.282386,"lng":136.772355},{"town":"萩原町林野","koaza":"ツブラ","lat":35.2799,"lng":136.772444},{"town":"木曽川町外割田","koaza":"東郷中","lat":35.341036,"lng":136.773621},{"town":"萩原町西宮重","koaza":"中光堂","lat":35.272482,"lng":136.772476},{"town":"萩原町中島","koaza":"城趾","lat":35.271168,"lng":136.773432},{"town":"萩原町中島","koaza":"北方郷","lat":35.270207,"lng":136.773219},{"town":"萩原町中島","koaza":"往還","lat":35.267892,"lng":136.772648},{"town":"北方町北方","koaza":"下新堤","lat":35.366047,"lng":136.772987},{"town":"木曽川町黒田","koaza":"西沼","lat":35.351882,"lng":136.772193},{"town":"大和町苅安賀","koaza":"佐平治前","lat":35.294549,"lng":136.773883},{"town":"木曽川町黒田","koaza":"寺西","lat":35.344613,"lng":136.772713},{"town":"北方町北方","koaza":"泉屋西","lat":35.363483,"lng":136.772572},{"town":"北方町北方","koaza":"西金丸","lat":35.361617,"lng":136.773343},{"town":"開明","koaza":"桝井戸","lat":35.320316,"lng":136.772384},{"town":"木曽川町外割田","koaza":"宮廻","lat":35.34241,"lng":136.771265},{"town":"木曽川町内割田","koaza":"渡り戸","lat":35.34328,"lng":136.772844},{"town":"北方町中島","koaza":"東松本","lat":35.355525,"lng":136.773126},{"town":"大和町馬引","koaza":"西出","lat":35.302864,"lng":136.773895},{"town":"奥町","koaza":"郷浦","lat":35.325728,"lng":136.773252},{"town":"萩原町西御堂","koaza":"北畑","lat":35.266304,"lng":136.77376},{"town":"大和町苅安賀","koaza":"地蔵前","lat":35.289473,"lng":136.774454},{"town":"奥町","koaza":"向神田","lat":35.326986,"lng":136.773478},{"town":"萩原町西宮重","koaza":"南屋敷","lat":35.275087,"lng":136.772617},{"town":"北方町北方","koaza":"南辰已前","lat":35.358085,"lng":136.774875},{"town":"北方町北方","koaza":"北辰已前","lat":35.359478,"lng":136.774799},{"town":"萩原町林野","koaza":"宮浦","lat":35.284335,"lng":136.774446},{"town":"萩原町林野","koaza":"中道西","lat":35.282188,"lng":136.773482},{"town":"萩原町林野","koaza":"大門先","lat":35.280498,"lng":136.774179},{"town":"木曽川町外割田","koaza":"三の通り","lat":35.337305,"lng":136.773694},{"town":"北方町北方","koaza":"辰已郷","lat":35.360747,"lng":136.773635},{"town":"木曽川町内割田","koaza":"八荷丸","lat":35.343077,"lng":136.773611},{"town":"萩原町西御堂","koaza":"西赤口","lat":35.261095,"lng":136.773966},{"town":"萩原町西御堂","koaza":"突田","lat":35.262025,"lng":136.774664},{"town":"萩原町西御堂","koaza":"馬場","lat":35.262774,"lng":136.774676},{"town":"大和町苅安賀","koaza":"斉宮寺","lat":35.292758,"lng":136.77458},{"town":"萩原町中島","koaza":"南方郷北切","lat":35.268524,"lng":136.77503},{"town":"北方町北方","koaza":"西泉屋郷","lat":35.363392,"lng":136.774791},{"town":"大和町苅安賀","koaza":"花井町裏","lat":35.291038,"lng":136.775002},{"town":"木曽川町黒田","koaza":"北沼","lat":35.352401,"lng":136.774651},{"town":"開明","koaza":"会所郭","lat":35.32003,"lng":136.775169},{"town":"萩原町西御堂","koaza":"金森","lat":35.26443,"lng":136.775113},{"town":"開明","koaza":"東向野","lat":35.317185,"lng":136.775463},{"town":"奥町","koaza":"八瀬割","lat":35.329112,"lng":136.775223},{"town":"開明","koaza":"三味北","lat":35.315601,"lng":136.775466},{"town":"開明","koaza":"三味郭","lat":35.314126,"lng":136.775253},{"town":"萩原町西宮重","koaza":"長福地","lat":35.275121,"lng":136.774232},{"town":"奥町","koaza":"郷中","lat":35.324199,"lng":136.774422},{"town":"北方町北方","koaza":"新堤下","lat":35.36671,"lng":136.775071},{"town":"大和町苅安賀","koaza":"中西之杁","lat":35.287841,"lng":136.775333},{"town":"奥町","koaza":"六丁山","lat":35.331197,"lng":136.775241},{"town":"北方町北方","koaza":"沼田","lat":35.355458,"lng":136.774636},{"town":"北方町北方","koaza":"沼","lat":35.354254,"lng":136.775141},{"town":"萩原町西宮重","koaza":"東出","lat":35.277117,"lng":136.775053},{"town":"開明","koaza":"雲閑寺郭","lat":35.320657,"lng":136.775038},{"town":"開明","koaza":"杁東郭","lat":35.322365,"lng":136.775259},{"town":"北方町北方","koaza":"沼上","lat":35.356705,"lng":136.774849},{"town":"萩原町林野","koaza":"中道東","lat":35.282063,"lng":136.77513},{"town":"木曽川町内割田","koaza":"三反田","lat":35.342723,"lng":136.774693},{"town":"萩原町西御堂","koaza":"伝正寺","lat":35.265837,"lng":136.774355},{"town":"大和町馬引","koaza":"横手","lat":35.307167,"lng":136.77447},{"town":"萩原町西宮重","koaza":"東光堂","lat":35.273331,"lng":136.774847},{"town":"木曽川町黒田","koaza":"中沼北ノ切","lat":35.351799,"lng":136.774648},{"town":"木曽川町黒田","koaza":"北宿三の切","lat":35.346946,"lng":136.774717},{"town":"萩原町林野","koaza":"花ノ木","lat":35.279969,"lng":136.775677},{"town":"木曽川町黒田","koaza":"寺東","lat":35.345067,"lng":136.774569},{"town":"奥町","koaza":"立切先","lat":35.327141,"lng":136.775277},{"town":"開明","koaza":"苅安賀道","lat":35.311149,"lng":136.774834},{"town":"木曽川町外割田","koaza":"二の通り","lat":35.337317,"lng":136.774553},{"town":"大和町馬引","koaza":"郷未申","lat":35.303555,"lng":136.776442},{"town":"木曽川町内割田","koaza":"屋敷","lat":35.343562,"lng":136.775875},{"town":"大和町馬引","koaza":"焼野","lat":35.30889,"lng":136.776787},{"town":"萩原町西御堂","koaza":"八幡西","lat":35.26521,"lng":136.776209},{"town":"萩原町中島","koaza":"丸宮","lat":35.26935,"lng":136.775797},{"town":"大和町苅安賀","koaza":"上西之杁","lat":35.288783,"lng":136.776525},{"town":"萩原町中島","koaza":"浄土寺","lat":35.271761,"lng":136.774937},{"town":"北方町北方","koaza":"東泉屋郷","lat":35.362644,"lng":136.776015},{"town":"大和町毛受","koaza":"城之腰","lat":35.299674,"lng":136.775603},{"town":"大和町毛受","koaza":"北河原","lat":35.301743,"lng":136.775736},{"town":"奥町","koaza":"墓南","lat":35.325407,"lng":136.775407},{"town":"大和町毛受","koaza":"辻畑","lat":35.297986,"lng":136.776421},{"town":"木曽川町内割田","koaza":"南出","lat":35.34187,"lng":136.774643},{"town":"木曽川町黒田","koaza":"北八ツケ池","lat":35.35058,"lng":136.775654},{"town":"大和町苅安賀","koaza":"下西之杁","lat":35.285528,"lng":136.774424},{"town":"大和町馬引","koaza":"乾出","lat":35.307066,"lng":136.775586},{"town":"大和町馬引","koaza":"郷戌亥","lat":35.305161,"lng":136.776333},{"town":"萩原町中島","koaza":"法蔵寺","lat":35.266072,"lng":136.776471},{"town":"萩原町西御堂","koaza":"東赤口","lat":35.261025,"lng":136.77567},{"town":"木曽川町外割田","koaza":"一の通り","lat":35.337018,"lng":136.775719},{"town":"木曽川町黒田","koaza":"錦里","lat":35.345823,"lng":136.775711},{"town":"木曽川町黒田","koaza":"酉新田西ノ切","lat":35.351428,"lng":136.777551},{"town":"萩原町林野","koaza":"金森","lat":35.281948,"lng":136.775927},{"town":"萩原町東宮重","koaza":"祢宜屋","lat":35.274662,"lng":136.77621},{"town":"木曽川町黒田","koaza":"北宿四の切","lat":35.348718,"lng":136.776819},{"town":"大和町毛受","koaza":"八法寺","lat":35.296283,"lng":136.776772},{"town":"木曽川町外割田","koaza":"城跡","lat":35.340325,"lng":136.776111},{"town":"北方町北方","koaza":"内沼","lat":35.357714,"lng":136.777608},{"town":"萩原町西御堂","koaza":"半抜","lat":35.263779,"lng":136.777181},{"town":"萩原町西御堂","koaza":"三反田","lat":35.261984,"lng":136.776314},{"town":"開明","koaza":"南瀬古","lat":35.32041,"lng":136.777593},{"town":"萩原町東宮重","koaza":"上祢宜屋","lat":35.275307,"lng":136.776244},{"town":"大和町苅安賀","koaza":"西北出","lat":35.291855,"lng":136.77723},{"town":"開明","koaza":"山塚","lat":35.32285,"lng":136.776972},{"town":"開明","koaza":"西石亀","lat":35.310912,"lng":136.777738},{"town":"大和町苅安賀","koaza":"古宮","lat":35.294585,"lng":136.777106},{"town":"北方町北方","koaza":"西本郷","lat":35.366545,"lng":136.779063},{"town":"大和町苅安賀","koaza":"北出","lat":35.292447,"lng":136.777877},{"town":"萩原町東宮重","koaza":"江北","lat":35.277068,"lng":136.776822},{"town":"萩原町東宮重","koaza":"北沖","lat":35.276215,"lng":136.777897},{"town":"木曽川町内割田","koaza":"二の通り","lat":35.338577,"lng":136.776994},{"town":"萩原町東宮重","koaza":"長原","lat":35.27408,"lng":136.777733},{"town":"木曽川町内割田","koaza":"墓東","lat":35.341053,"lng":136.776596},{"town":"木曽川町黒田","koaza":"宝光寺","lat":35.344451,"lng":136.777177},{"town":"大和町毛受","koaza":"西屋敷","lat":35.300067,"lng":136.778043},{"town":"北方町曽根","koaza":"虫祭","lat":35.353137,"lng":136.778692},{"town":"木曽川町黒田","koaza":"高田","lat":35.342,"lng":136.777287},{"town":"大和町苅安賀","koaza":"火口上","lat":35.289593,"lng":136.778184},{"town":"大和町馬引","koaza":"郷裏","lat":35.306983,"lng":136.778056},{"town":"萩原町中島","koaza":"前田","lat":35.266783,"lng":136.778487},{"town":"萩原町中島","koaza":"道場","lat":35.265235,"lng":136.7787},{"town":"北方町北方","koaza":"新屋敷郷","lat":35.361917,"lng":136.777716},{"town":"大和町苅安賀","koaza":"下火口","lat":35.287188,"lng":136.779546},{"town":"萩原町東宮重","koaza":"西屋敷","lat":35.275149,"lng":136.777365},{"town":"大和町苅安賀","koaza":"更屋敷","lat":35.284429,"lng":136.778671},{"town":"木曽川町内割田","koaza":"杁ノ戸南","lat":35.339808,"lng":136.777397},{"town":"木曽川町黒田","koaza":"川北","lat":35.346498,"lng":136.778315},{"town":"萩原町林野","koaza":"鷺宮","lat":35.280682,"lng":136.777742},{"town":"開明","koaza":"飛山流","lat":35.315472,"lng":136.779177},{"town":"今伊勢町馬寄","koaza":"下沼","lat":35.325396,"lng":136.778846},{"town":"今伊勢町馬寄","koaza":"上沼","lat":35.329293,"lng":136.777911},{"town":"開明","koaza":"北瀬古","lat":35.32162,"lng":136.776929},{"town":"北方町北方","koaza":"新屋敷浦","lat":35.364223,"lng":136.777958},{"town":"今伊勢町馬寄","koaza":"川田","lat":35.331403,"lng":136.778276},{"town":"開明","koaza":"平","lat":35.313929,"lng":136.779239},{"town":"大和町苅安賀","koaza":"東北出","lat":35.292292,"lng":136.778664},{"town":"萩原町中島","koaza":"町屋","lat":35.270339,"lng":136.777701},{"town":"萩原町中島","koaza":"道場東切","lat":35.265581,"lng":136.778393},{"town":"木曽川町内割田","koaza":"一の通り","lat":35.338707,"lng":136.77787},{"town":"萩原町西御堂","koaza":"柴野","lat":35.264646,"lng":136.778041},{"town":"木曽川町内割田","koaza":"寺前","lat":35.342891,"lng":136.777755},{"town":"萩原町西御堂","koaza":"鍋野","lat":35.262964,"lng":136.778157},{"town":"木曽川町黒田","koaza":"北宿五の切","lat":35.348481,"lng":136.778762},{"town":"開明","koaza":"西上免","lat":35.322384,"lng":136.778829},{"town":"萩原町中島","koaza":"胡广塚","lat":35.269342,"lng":136.778349},{"town":"萩原町中島","koaza":"胡广塚郷","lat":35.268914,"lng":136.778906},{"town":"木曽川町黒田","koaza":"柳原南","lat":35.340486,"lng":136.778961},{"town":"萩原町林野","koaza":"栗間","lat":35.283345,"lng":136.778924},{"town":"大和町馬引","koaza":"郷丑寅","lat":35.304964,"lng":136.779091},{"town":"大和町馬引","koaza":"郷辰已","lat":35.303189,"lng":136.778931},{"town":"木曽川町黒田","koaza":"酉新田中ノ切","lat":35.351139,"lng":136.779017},{"town":"開明","koaza":"東新規道","lat":35.318911,"lng":136.77787},{"town":"今伊勢町馬寄","koaza":"吉田前","lat":35.327158,"lng":136.778829},{"town":"萩原町中島","koaza":"明屋敷","lat":35.264173,"lng":136.779637},{"town":"開明","koaza":"下上免","lat":35.320648,"lng":136.77874},{"town":"萩原町東宮重","koaza":"東屋敷","lat":35.274581,"lng":136.780264},{"town":"大和町毛受","koaza":"浜田","lat":35.296858,"lng":136.77927},{"town":"開明","koaza":"東石亀","lat":35.311025,"lng":136.779261},{"town":"大和町馬引","koaza":"古宮","lat":35.309178,"lng":136.781396},{"town":"大和町苅安賀","koaza":"八王寺","lat":35.295493,"lng":136.780135},{"town":"萩原町中島","koaza":"西明屋敷","lat":35.264239,"lng":136.779156},{"town":"萩原町東宮重","koaza":"中島方","lat":35.27106,"lng":136.77991},{"town":"大和町毛受","koaza":"中屋敷","lat":35.300225,"lng":136.780471},{"town":"木曽川町黒田","koaza":"下市場南","lat":35.343389,"lng":136.779196},{"town":"大和町苅安賀","koaza":"角出","lat":35.292796,"lng":136.780151},{"town":"木曽川町黒田","koaza":"往還南","lat":35.35016,"lng":136.781125},{"town":"北方町北方","koaza":"宮西","lat":35.359091,"lng":136.781088},{"town":"木曽川町黒田","koaza":"東針口","lat":35.348582,"lng":136.780311},{"town":"木曽川町黒田","koaza":"蔵ノ浦","lat":35.346153,"lng":136.780472},{"town":"北方町北方","koaza":"板屋沖","lat":35.356285,"lng":136.780916},{"town":"北方町北方","koaza":"宮浦","lat":35.360915,"lng":136.781075},{"town":"萩原町中島","koaza":"沖額","lat":35.268406,"lng":136.780103},{"town":"木曽川町黒田","koaza":"城西","lat":35.344413,"lng":136.779281},{"town":"北方町曽根","koaza":"村裏西","lat":35.353974,"lng":136.781155},{"town":"北方町北方","koaza":"勅使","lat":35.362957,"lng":136.781038},{"town":"大和町馬引","koaza":"郷東","lat":35.303963,"lng":136.780779},{"town":"木曽川町黒田","koaza":"一の通り","lat":35.337285,"lng":136.778952},{"town":"北方町北方","koaza":"下本郷一","lat":35.36463,"lng":136.781573},{"town":"大和町馬引","koaza":"宮浦","lat":35.306911,"lng":136.780859},{"town":"北方町曽根","koaza":"村西","lat":35.352438,"lng":136.78135},{"town":"大和町馬引","koaza":"荒木","lat":35.305233,"lng":136.781397},{"town":"木曽川町黒田","koaza":"古城","lat":35.344648,"lng":136.780482},{"town":"北方町北方","koaza":"下本郷二","lat":35.366362,"lng":136.78122},{"town":"大和町北高井","koaza":"千束","lat":35.281316,"lng":136.781467},{"town":"大和町北高井","koaza":"石田","lat":35.279264,"lng":136.7806},{"town":"木曽川町黒田","koaza":"奥屋敷","lat":35.342096,"lng":136.781947},{"town":"大和町苅安賀","koaza":"川田","lat":35.289076,"lng":136.783128},{"town":"大和町毛受","koaza":"正寺","lat":35.296593,"lng":136.781467},{"town":"北方町北方","koaza":"鉄砲部屋","lat":35.36699,"lng":136.780801},{"town":"萩原町東宮重","koaza":"東沖","lat":35.273246,"lng":136.781582},{"town":"大和町南高井","koaza":"江北","lat":35.276233,"lng":136.780467},{"town":"今伊勢町馬寄","koaza":"吉田","lat":35.32759,"lng":136.782372},{"town":"今伊勢町馬寄","koaza":"吉田浦","lat":35.329613,"lng":136.782282},{"town":"今伊勢町宮後","koaza":"西茶原","lat":35.320544,"lng":136.782915},{"town":"大和町苅安賀","koaza":"下東出","lat":35.287457,"lng":136.782474},{"town":"大和町北高井","koaza":"番上","lat":35.27668,"lng":136.782208},{"town":"今伊勢町宮後","koaza":"下苧島","lat":35.317641,"lng":136.781707},{"town":"今伊勢町宮後","koaza":"郷中","lat":35.317268,"lng":136.78364},{"town":"萩原町中島","koaza":"跡の口","lat":35.267748,"lng":136.781709},{"town":"木曽川町黒田","koaza":"往還西北ノ切","lat":35.349721,"lng":136.782182},{"town":"大和町毛受","koaza":"東屋敷","lat":35.299186,"lng":136.782203},{"town":"大和町苅安賀","koaza":"川原","lat":35.285612,"lng":136.782203},{"town":"木曽川町黒田","koaza":"城東","lat":35.344238,"lng":136.782259},{"town":"今伊勢町馬寄","koaza":"鯲池","lat":35.330419,"lng":136.78185},{"town":"大和町北高井","koaza":"北重田","lat":35.278737,"lng":136.782261},{"town":"北方町北方","koaza":"北曽根","lat":35.355861,"lng":136.784352},{"town":"北方町北方","koaza":"森道","lat":35.358046,"lng":136.783659},{"town":"大和町馬引","koaza":"南正亀","lat":35.306879,"lng":136.782986},{"town":"木曽川町黒田","koaza":"四の通り","lat":35.337389,"lng":136.78236},{"town":"大和町北高井","koaza":"円小坊","lat":35.280474,"lng":136.782294},{"town":"木曽川町黒田","koaza":"勘治西","lat":35.347024,"lng":136.782779},{"town":"木曽川町黒田","koaza":"酉新田東ノ切","lat":35.351052,"lng":136.781546},{"town":"今伊勢町馬寄","koaza":"西切戸","lat":35.325288,"lng":136.784113},{"town":"今伊勢町馬寄","koaza":"西平","lat":35.324082,"lng":136.784424},{"town":"今伊勢町馬寄","koaza":"御祭田","lat":35.322402,"lng":136.783828},{"town":"大和町南高井","koaza":"蓮原","lat":35.27139,"lng":136.784751},{"town":"今伊勢町宮後","koaza":"西松山","lat":35.312252,"lng":136.784213},{"town":"今伊勢町宮後","koaza":"宮代","lat":35.313934,"lng":136.784194},{"town":"大和町毛受","koaza":"一本松","lat":35.296659,"lng":136.783022},{"town":"大和町毛受","koaza":"宮東","lat":35.301678,"lng":136.782939},{"town":"北方町北方","koaza":"東本郷下","lat":35.36515,"lng":136.783811},{"town":"木曽川町黒田","koaza":"往還西南ノ切","lat":35.348742,"lng":136.782209},{"town":"木曽川町黒田","koaza":"五の通り","lat":35.337299,"lng":136.783323},{"town":"木曽川町黒田","koaza":"西町北","lat":35.344654,"lng":136.783438},{"town":"大和町北高井","koaza":"西重田","lat":35.277532,"lng":136.782196},{"town":"北方町北方","koaza":"中屋敷郷","lat":35.362746,"lng":136.784046},{"town":"木曽川町黒田","koaza":"北野黒","lat":35.351262,"lng":136.784162},{"town":"大和町北高井","koaza":"東重田","lat":35.27624,"lng":136.783488},{"town":"大和町北高井","koaza":"八反田","lat":35.279523,"lng":136.783252},{"town":"北方町北方","koaza":"狐塚西","lat":35.360073,"lng":136.784815},{"town":"大和町毛受","koaza":"八幡前","lat":35.300505,"lng":136.783225},{"town":"北方町曽根","koaza":"村東","lat":35.353364,"lng":136.784637},{"town":"大和町北高井","koaza":"長牧","lat":35.277692,"lng":136.78514},{"town":"今伊勢町宮後","koaza":"郷中茶原","lat":35.318612,"lng":136.785362},{"town":"木曽川町黒田","koaza":"西町南","lat":35.341644,"lng":136.782877},{"town":"木曽川町黒田","koaza":"往還東","lat":35.350034,"lng":136.783388},{"town":"木曽川町黒田","koaza":"東町南","lat":35.342027,"lng":136.784346},{"town":"今伊勢町宮後","koaza":"稲荷","lat":35.315697,"lng":136.781944},{"town":"大和町南高井","koaza":"江南","lat":35.275108,"lng":136.781629},{"town":"木曽川町黒田","koaza":"中野黒","lat":35.34931,"lng":136.78469},{"town":"大和町南高井","koaza":"赤石","lat":35.267771,"lng":136.783809},{"town":"大和町北高井","koaza":"八畝割","lat":35.275552,"lng":136.784045},{"town":"北方町曽根","koaza":"村前東","lat":35.352308,"lng":136.783114},{"town":"木曽川町黒田","koaza":"六の通り","lat":35.337637,"lng":136.785766},{"town":"大和町苅安賀","koaza":"西下田","lat":35.285697,"lng":136.784265},{"town":"大和町苅安賀","koaza":"上東出","lat":35.287889,"lng":136.785346},{"town":"木曽川町黒田","koaza":"東町北","lat":35.344048,"lng":136.785638},{"town":"木曽川町黒田","koaza":"松山東北ノ切","lat":35.347529,"lng":136.784389},{"town":"木曽川町黒田","koaza":"松山東南ノ切","lat":35.345888,"lng":136.784923},{"town":"今伊勢町宮後","koaza":"芝野","lat":35.315269,"lng":136.784509},{"town":"木曽川町門間","koaza":"福塚前","lat":35.332087,"lng":136.785457},{"town":"大和町南高井","koaza":"宮腰","lat":35.273255,"lng":136.786047},{"town":"萩原町中島","koaza":"昆沙田","lat":35.263928,"lng":136.785827},{"town":"今伊勢町馬寄","koaza":"観音堂","lat":35.328921,"lng":136.785312},{"town":"木曽川町黒田","koaza":"松山東","lat":35.347135,"lng":136.785699},{"town":"今伊勢町馬寄","koaza":"西流","lat":35.327033,"lng":136.785019},{"town":"今伊勢町馬寄","koaza":"福塚前","lat":35.330893,"lng":136.786288},{"town":"今伊勢町馬寄","koaza":"山島","lat":35.322402,"lng":136.785381},{"town":"大和町北高井","koaza":"成道寺","lat":35.281313,"lng":136.78517},{"town":"木曽川町黒田","koaza":"大畑東西ノ切","lat":35.341366,"lng":136.785438},{"town":"北方町北方","koaza":"西土取","lat":35.364832,"lng":136.786602},{"town":"大和町南高井","koaza":"郷中","lat":35.270862,"lng":136.786563},{"town":"木曽川町門間","koaza":"沼西","lat":35.333195,"lng":136.785128},{"town":"今伊勢町馬寄","koaza":"舟入","lat":35.326615,"lng":136.786366},{"town":"北方町北方","koaza":"狐塚郷","lat":35.358531,"lng":136.788009},{"town":"今伊勢町宮後","koaza":"東茶原","lat":35.320851,"lng":136.786952},{"town":"大和町北高井","koaza":"四辻","lat":35.275693,"lng":136.786684},{"town":"北方町北方","koaza":"宝行寺廻り","lat":35.36249,"lng":136.786008},{"town":"大和町苅安賀","koaza":"東下田","lat":35.284614,"lng":136.7868},{"town":"木曽川町黒田","koaza":"井桁畔","lat":35.351248,"lng":136.788166},{"town":"大和町南高井","koaza":"五反田","lat":35.268636,"lng":136.786601},{"town":"大和町南高井","koaza":"野間","lat":35.266796,"lng":136.786959},{"town":"今伊勢町新神戸","koaza":"郷前","lat":35.313027,"lng":136.787945},{"town":"今伊勢町馬寄","koaza":"志水","lat":35.329196,"lng":136.78759},{"town":"今伊勢町宮後","koaza":"郷東","lat":35.31689,"lng":136.787916},{"town":"今伊勢町宮後","koaza":"神戸","lat":35.315337,"lng":136.787087},{"town":"今伊勢町新神戸","koaza":"郷中","lat":35.31393,"lng":136.787518},{"town":"木曽川町黒田","koaza":"勘宗山","lat":35.345857,"lng":136.786811},{"town":"木曽川町門間","koaza":"沼奥","lat":35.334734,"lng":136.786775},{"town":"木曽川町門間","koaza":"沼","lat":35.336624,"lng":136.7881},{"town":"木曽川町門間","koaza":"沼流","lat":35.338811,"lng":136.78764},{"town":"木曽川町黒田","koaza":"篭守西","lat":35.349518,"lng":136.786925},{"town":"木曽川町黒田","koaza":"七の通り","lat":35.34416,"lng":136.788703},{"town":"木曽川町黒田","koaza":"妙見廻","lat":35.348037,"lng":136.787413},{"town":"木曽川町黒田","koaza":"神明前","lat":35.343521,"lng":136.787418},{"town":"木曽川町黒田","koaza":"松枝","lat":35.344304,"lng":136.787065},{"town":"木曽川町門間","koaza":"島海戸","lat":35.333163,"lng":136.787278},{"town":"大和町苅安賀","koaza":"山王","lat":35.286371,"lng":136.788399},{"town":"今伊勢町馬寄","koaza":"中切","lat":35.324273,"lng":136.787564},{"town":"木曽川町黒田","koaza":"十の通り","lat":35.34804,"lng":136.789432},{"town":"北方町北方","koaza":"中土取","lat":35.363125,"lng":136.789084},{"town":"今伊勢町馬寄","koaza":"呑光寺西","lat":35.32744,"lng":136.789936},{"town":"木曽川町黒田","koaza":"山口","lat":35.349081,"lng":136.788529},{"town":"今伊勢町宮後","koaza":"壱丁野","lat":35.318434,"lng":136.788058},{"town":"更屋敷","koaza":"門","lat":35.35665,"lng":136.788614},{"town":"大和町戸塚","koaza":"町長","lat":35.277009,"lng":136.78837},{"town":"大和町戸塚","koaza":"西浦","lat":35.282378,"lng":136.78886},{"town":"今伊勢町宮後","koaza":"北山中","lat":35.322705,"lng":136.789436},{"town":"大和町戸塚","koaza":"連田","lat":35.274658,"lng":136.79114},{"town":"更屋敷","koaza":"五反畑","lat":35.354394,"lng":136.787984},{"town":"大和町南高井","koaza":"袋田","lat":35.271395,"lng":136.788424},{"town":"北方町北方","koaza":"西渡り","lat":35.36075,"lng":136.787672},{"town":"大和町南高井","koaza":"幾路","lat":35.268704,"lng":136.7906},{"town":"更屋敷","koaza":"南出","lat":35.352485,"lng":136.788519},{"town":"今伊勢町馬寄","koaza":"北塚本","lat":35.330511,"lng":136.790016},{"town":"大和町南高井","koaza":"中ノ町","lat":35.271428,"lng":136.789411},{"town":"木曽川町黒田","koaza":"山","lat":35.35105,"lng":136.788185},{"town":"今伊勢町馬寄","koaza":"上町屋","lat":35.325648,"lng":136.789547},{"town":"今伊勢町馬寄","koaza":"六地蔵","lat":35.324646,"lng":136.78894},{"town":"木曽川町門間","koaza":"大坪","lat":35.332061,"lng":136.788953},{"town":"今伊勢町宮後","koaza":"午新田下筬","lat":35.319732,"lng":136.789969},{"town":"木曽川町門間","koaza":"南島海","lat":35.333326,"lng":136.789041},{"town":"大和町戸塚","koaza":"楼光寺","lat":35.283667,"lng":136.789518},{"town":"木曽川町門間","koaza":"島海","lat":35.334731,"lng":136.790312},{"town":"木曽川町門間","koaza":"沼間","lat":35.336847,"lng":136.790484},{"town":"大和町戸塚","koaza":"宮崎西","lat":35.276707,"lng":136.78927},{"town":"木曽川町黒田","koaza":"八の通り","lat":35.343344,"lng":136.789792},{"town":"北方町北方","koaza":"狐塚東","lat":35.358961,"lng":136.790395},{"town":"今伊勢町新神戸","koaza":"郷浦","lat":35.315877,"lng":136.789492},{"town":"今伊勢町馬寄","koaza":"若宮","lat":35.328903,"lng":136.791209},{"town":"更屋敷","koaza":"藤山","lat":35.35231,"lng":136.789941},{"town":"北方町北方","koaza":"東渡り","lat":35.360972,"lng":136.78992},{"town":"更屋敷","koaza":"大山","lat":35.353104,"lng":136.790212},{"town":"更屋敷","koaza":"西出","lat":35.355479,"lng":136.790415},{"town":"更屋敷","koaza":"奥屋敷","lat":35.357174,"lng":136.790873},{"town":"今伊勢町新神戸","koaza":"五輪野","lat":35.322465,"lng":136.791163},{"town":"今伊勢町新神戸","koaza":"九反野","lat":35.319643,"lng":136.792127},{"town":"今伊勢町馬寄","koaza":"下町屋","lat":35.324325,"lng":136.790528},{"town":"大和町戸塚","koaza":"西郷","lat":35.281557,"lng":136.791204},{"town":"今伊勢町本神戸","koaza":"北無量寺","lat":35.318453,"lng":136.791642},{"town":"今伊勢町新神戸","koaza":"郷東","lat":35.31384,"lng":136.790473},{"town":"大和町戸塚","koaza":"宮崎東","lat":35.276324,"lng":136.790515},{"town":"木曽川町門間","koaza":"沼梯","lat":35.338805,"lng":136.790504},{"town":"今伊勢町本神戸","koaza":"南無量寺","lat":35.317241,"lng":136.790912},{"town":"木曽川町黒田","koaza":"十一の通り","lat":35.348662,"lng":136.79077},{"town":"北方町北方","koaza":"東土取","lat":35.360971,"lng":136.791218},{"town":"北方町北方","koaza":"東大日","lat":35.363013,"lng":136.791269},{"town":"今伊勢町本神戸","koaza":"南新田","lat":35.315604,"lng":136.79203},{"town":"木曽川町門間","koaza":"西大坪","lat":35.332045,"lng":136.791321},{"town":"更屋敷","koaza":"屋敷","lat":35.355374,"lng":136.791622},{"town":"今伊勢町馬寄","koaza":"西更屋敷","lat":35.325374,"lng":136.792521},{"town":"木曽川町門間","koaza":"東島海","lat":35.333232,"lng":136.791404},{"town":"木曽川町門間","koaza":"角田","lat":35.334967,"lng":136.791521},{"town":"大和町宮地花池","koaza":"下り松","lat":35.286755,"lng":136.791586},{"town":"大和町戸塚","koaza":"薬師浦","lat":35.283891,"lng":136.791938},{"town":"大和町宮地花池","koaza":"楼光寺","lat":35.285488,"lng":136.792749},{"town":"大和町戸塚","koaza":"寺田","lat":35.276358,"lng":136.791765},{"town":"大和町於保","koaza":"宮前","lat":35.270882,"lng":136.794222},{"town":"木曽川町黒田","koaza":"九の通り","lat":35.343046,"lng":136.793038},{"town":"今伊勢町新神戸","koaza":"乾","lat":35.32216,"lng":136.793176},{"town":"北方町北方","koaza":"東山","lat":35.36112,"lng":136.791875},{"town":"大和町戸塚","koaza":"東郷","lat":35.281919,"lng":136.791993},{"town":"今伊勢町馬寄","koaza":"中屋敷","lat":35.326688,"lng":136.79298},{"town":"今伊勢町馬寄","koaza":"呑光寺","lat":35.328056,"lng":136.792126},{"town":"今伊勢町馬寄","koaza":"桑屋敷","lat":35.324559,"lng":136.793439},{"town":"大和町戸塚","koaza":"東浦","lat":35.281719,"lng":136.792805},{"town":"今伊勢町本神戸","koaza":"北浦","lat":35.319059,"lng":136.792687},{"town":"今伊勢町馬寄","koaza":"八丁堀","lat":35.330461,"lng":136.793757},{"town":"更屋敷","koaza":"北出","lat":35.358526,"lng":136.792464},{"town":"更屋敷","koaza":"宮浦","lat":35.357212,"lng":136.792673},{"town":"更屋敷","koaza":"居住","lat":35.354794,"lng":136.792631},{"town":"光明寺","koaza":"神明前","lat":35.35746,"lng":136.795214},{"town":"木曽川町門間","koaza":"金塚","lat":35.336584,"lng":136.792817},{"town":"大和町於保","koaza":"十二","lat":35.269448,"lng":136.79328},{"town":"木曽川町門間","koaza":"西出","lat":35.338351,"lng":136.793171},{"town":"更屋敷","koaza":"辰己","lat":35.352882,"lng":136.793124},{"town":"大和町戸塚","koaza":"毛受田","lat":35.276166,"lng":136.792883},{"town":"木曽川町黒田","koaza":"十二の通り","lat":35.348975,"lng":136.793169},{"town":"今伊勢町本神戸","koaza":"中道","lat":35.317012,"lng":136.793831},{"town":"今伊勢町新神戸","koaza":"新開","lat":35.321188,"lng":136.794022},{"town":"今伊勢町本神戸","koaza":"無量寺東","lat":35.317871,"lng":136.794095},{"town":"今伊勢町馬寄","koaza":"大日","lat":35.329007,"lng":136.793402},{"town":"今伊勢町馬寄","koaza":"山之小路","lat":35.327162,"lng":136.794676},{"town":"木曽川町門間","koaza":"郷前","lat":35.331696,"lng":136.794669},{"town":"木曽川町門間","koaza":"西郷","lat":35.332747,"lng":136.794938},{"town":"木曽川町門間","koaza":"金屎","lat":35.334586,"lng":136.793919},{"town":"大和町妙興寺","koaza":"才田","lat":35.282668,"lng":136.794891},{"town":"木曽川町門間","koaza":"新屋敷","lat":35.336787,"lng":136.794233},{"town":"大和町妙興寺","koaza":"階子田","lat":35.283687,"lng":136.794238},{"town":"光明寺","koaza":"北道手","lat":35.353636,"lng":136.795307},{"town":"大和町妙興寺","koaza":"下り松","lat":35.286704,"lng":136.795075},{"town":"大和町妙興寺","koaza":"柳坪","lat":35.279518,"lng":136.79531},{"town":"大和町於保","koaza":"上次","lat":35.278071,"lng":136.794131},{"town":"木曽川町門間","koaza":"北屋敷","lat":35.338497,"lng":136.795237},{"town":"今伊勢町本神戸","koaza":"高野池","lat":35.319379,"lng":136.794647},{"town":"田所","koaza":"白山","lat":35.344799,"lng":136.793992},{"town":"大毛","koaza":"白山東","lat":35.344016,"lng":136.794033},{"town":"大毛","koaza":"池田","lat":35.343456,"lng":136.794048},{"town":"光明寺","koaza":"権現塚","lat":35.354551,"lng":136.796513},{"town":"光明寺","koaza":"南道手","lat":35.351451,"lng":136.796},{"town":"田所","koaza":"戌亥出","lat":35.348998,"lng":136.794942},{"town":"今伊勢町馬寄","koaza":"東更屋敷","lat":35.325576,"lng":136.795188},{"town":"今伊勢町馬寄","koaza":"郷浦","lat":35.328911,"lng":136.794617},{"town":"木曽川町門間","koaza":"南屋敷","lat":35.336996,"lng":136.79576},{"town":"光明寺","koaza":"大日東","lat":35.360343,"lng":136.793428},{"town":"今伊勢町本神戸","koaza":"宮山","lat":35.315989,"lng":136.795268},{"town":"木曽川町門間","koaza":"筋違","lat":35.334908,"lng":136.795128},{"town":"田所","koaza":"下川田","lat":35.346457,"lng":136.795258},{"town":"光明寺","koaza":"出来野","lat":35.357209,"lng":136.797096},{"town":"今伊勢町本神戸","koaza":"塚浦","lat":35.322916,"lng":136.795107},{"town":"今伊勢町本神戸","koaza":"目久井","lat":35.32162,"lng":136.79605},{"town":"田所","koaza":"宮前","lat":35.34772,"lng":136.795481},{"town":"大和町於保","koaza":"観音堂","lat":35.278138,"lng":136.795475},{"town":"光明寺","koaza":"巻尾","lat":35.360382,"lng":136.796839},{"town":"大和町於保","koaza":"坊之城","lat":35.274817,"lng":136.795757},{"town":"大和町於保","koaza":"郷西","lat":35.273713,"lng":136.795391},{"town":"大和町於保","koaza":"郷前","lat":35.269705,"lng":136.796366},{"town":"大和町於保","koaza":"郷中","lat":35.272283,"lng":136.795737},{"town":"今伊勢町本神戸","koaza":"四ツ割","lat":35.32042,"lng":136.796876},{"town":"光明寺","koaza":"中棚","lat":35.360314,"lng":136.797353},{"town":"木曽川町門間","koaza":"東郷","lat":35.333181,"lng":136.796779},{"town":"今伊勢町本神戸","koaza":"山王","lat":35.317486,"lng":136.795838},{"town":"田所","koaza":"郷浦","lat":35.349429,"lng":136.796621},{"town":"大毛","koaza":"西新開","lat":35.343884,"lng":136.797373},{"town":"田所","koaza":"南方","lat":35.345691,"lng":136.796261},{"town":"今伊勢町馬寄","koaza":"上畑田","lat":35.330651,"lng":136.79718},{"town":"今伊勢町本神戸","koaza":"上町","lat":35.316741,"lng":136.797431},{"town":"今伊勢町本神戸","koaza":"前畑","lat":35.314544,"lng":136.795518},{"town":"大和町妙興寺","koaza":"白山西","lat":35.285944,"lng":136.797517},{"town":"田所","koaza":"一丁田","lat":35.347075,"lng":136.79643},{"town":"大和町妙興寺","koaza":"平蔵","lat":35.281708,"lng":136.796453},{"town":"田所","koaza":"郷前","lat":35.348119,"lng":136.79674},{"town":"大和町於保","koaza":"北口","lat":35.274893,"lng":136.796859},{"town":"今伊勢町馬寄","koaza":"大聖","lat":35.325835,"lng":136.796826},{"town":"今伊勢町本神戸","koaza":"中町","lat":35.315312,"lng":136.797522},{"town":"大和町於保","koaza":"丹波","lat":35.278948,"lng":136.796774},{"town":"木曽川町門間","koaza":"東大坪","lat":35.331571,"lng":136.797994},{"town":"大和町於保","koaza":"中道","lat":35.276108,"lng":136.797063},{"town":"木曽川町門間","koaza":"北出","lat":35.334683,"lng":136.796635},{"town":"高田","koaza":"中坪","lat":35.337387,"lng":136.797825},{"town":"今伊勢町本神戸","koaza":"河原","lat":35.312826,"lng":136.79618},{"town":"高田","koaza":"尾前田","lat":35.336307,"lng":136.797288},{"town":"光明寺","koaza":"南方","lat":35.344812,"lng":136.79868},{"town":"大和町於保","koaza":"二之宮","lat":35.26963,"lng":136.797692},{"town":"今伊勢町馬寄","koaza":"宮北","lat":35.329035,"lng":136.797749},{"town":"大毛","koaza":"八幡","lat":35.339387,"lng":136.797577},{"town":"大和町妙興寺","koaza":"徳法寺浦","lat":35.283484,"lng":136.797592},{"town":"大毛","koaza":"稲葉","lat":35.342068,"lng":136.797819},{"town":"今伊勢町本神戸","koaza":"東出","lat":35.320774,"lng":136.798364},{"town":"今伊勢町馬寄","koaza":"上高見","lat":35.325141,"lng":136.798334},{"town":"大和町於保","koaza":"郷浦","lat":35.275092,"lng":136.798272},{"town":"光明寺","koaza":"山屋敷","lat":35.353685,"lng":136.799178},{"town":"今伊勢町本神戸","koaza":"下町","lat":35.31392,"lng":136.798507},{"town":"今伊勢町本神戸","koaza":"立切東","lat":35.317559,"lng":136.799732},{"town":"光明寺","koaza":"丈六","lat":35.349091,"lng":136.800435},{"town":"今伊勢町本神戸","koaza":"和田西","lat":35.313472,"lng":136.798941},{"town":"今伊勢町本神戸","koaza":"牛洗","lat":35.322119,"lng":136.798446},{"town":"光明寺","koaza":"長池","lat":35.355787,"lng":136.800332},{"town":"光明寺","koaza":"長山","lat":35.351907,"lng":136.79969},{"town":"今伊勢町本神戸","koaza":"立切","lat":35.319117,"lng":136.798902},{"town":"大和町於保","koaza":"四之宮","lat":35.277852,"lng":136.798946},{"town":"大和町氏永","koaza":"河北","lat":35.271785,"lng":136.798413},{"town":"大毛","koaza":"中新開","lat":35.344098,"lng":136.798782},{"town":"大和町妙興寺","koaza":"北浦宮地","lat":35.285752,"lng":136.800656},{"town":"高田","koaza":"池尻","lat":35.336287,"lng":136.80062},{"town":"大毛","koaza":"南新開","lat":35.34263,"lng":136.798871},{"town":"大和町氏永","koaza":"北天王越","lat":35.273455,"lng":136.799037},{"town":"大和町妙興寺","koaza":"於保越","lat":35.279577,"lng":136.799056},{"town":"大和町妙興寺","koaza":"西之口","lat":35.283277,"lng":136.799559},{"town":"大和町妙興寺","koaza":"高畑","lat":35.281141,"lng":136.799111},{"town":"今伊勢町馬寄","koaza":"宮東","lat":35.327179,"lng":136.798768},{"town":"大毛","koaza":"高木","lat":35.339875,"lng":136.799034},{"town":"光明寺","koaza":"井戸尻","lat":35.346877,"lng":136.800019},{"town":"大毛","koaza":"流","lat":35.341995,"lng":136.800131},{"town":"今伊勢町本神戸","koaza":"天王","lat":35.315906,"lng":136.800202},{"town":"大和町妙興寺","koaza":"耕雲西","lat":35.285682,"lng":136.79858},{"town":"高田","koaza":"七夕田","lat":35.338307,"lng":136.798669},{"town":"光明寺","koaza":"番場","lat":35.349854,"lng":136.799247},{"town":"今伊勢町馬寄","koaza":"下河原","lat":35.324605,"lng":136.799644},