[{"town":"相生一丁目","koaza":"","lat":35.295331,"lng":136.816885,"zip":"4910882"},{"town":"相生二丁目","koaza":"","lat":35.295237,"lng":136.818274,"zip":"4910882"},{"town":"赤見一丁目","koaza":"","lat":35.302299,"lng":136.822643,"zip":"4910023"},{"town":"赤見二丁目","koaza":"","lat":35.305112,"lng":136.822423,"zip":"4910023"},{"town":"赤見三丁目","koaza":"","lat":35.30805,"lng":136.821604,"zip":"4910023"},{"town":"赤見四丁目","koaza":"","lat":35.310188,"lng":136.821153,"zip":"4910023"},{"town":"浅井町江森","koaza":"","lat":35.336457,"lng":136.820459,"zip":"4910114"},{"town":"浅井町大野","koaza":"","lat":35.353766,"lng":136.822582,"zip":"4910143"},{"town":"浅井町大日比野","koaza":"","lat":35.34223,"lng":136.821726,"zip":"4910105"},{"town":"浅井町尾関","koaza":"","lat":35.348453,"lng":136.825916,"zip":"4910101"},{"town":"浅井町黒岩","koaza":"","lat":35.353369,"lng":136.833877,"zip":"4910141"},{"town":"浅井町河田","koaza":"","lat":35.353955,"lng":136.828514,"zip":"4910142"},{"town":"浅井町河端","koaza":"","lat":35.335884,"lng":136.83281,"zip":"4910111"},{"town":"浅井町極楽寺","koaza":"","lat":35.355974,"lng":136.816798,"zip":"4910144"},{"town":"浅井町小日比野","koaza":"","lat":35.342572,"lng":136.835585,"zip":"4910104"},{"town":"浅井町西浅井","koaza":"","lat":35.33005,"lng":136.819466,"zip":"4910113"},{"town":"浅井町西海戸","koaza":"","lat":35.336403,"lng":136.827772,"zip":"4910115"},{"town":"浅井町東浅井","koaza":"","lat":35.330581,"lng":136.825999,"zip":"4910112"},{"town":"浅井町前野","koaza":"","lat":35.344503,"lng":136.829628,"zip":"4910103"},{"town":"浅野","koaza":"","lat":35.29407,"lng":136.828577,"zip":"4910871"},{"town":"朝日一丁目","koaza":"","lat":35.307836,"lng":136.815434,"zip":"4910028"},{"town":"朝日二丁目","koaza":"","lat":35.307472,"lng":136.818443,"zip":"4910028"},{"town":"朝日三丁目","koaza":"","lat":35.309933,"lng":136.818178,"zip":"4910028"},{"town":"あずら一丁目","koaza":"","lat":35.283918,"lng":136.822874,"zip":"4910835"},{"town":"あずら二丁目","koaza":"","lat":35.283635,"lng":136.825712,"zip":"4910835"},{"town":"あずら三丁目","koaza":"","lat":35.280395,"lng":136.821741,"zip":"4910835"},{"town":"一色町","koaza":"","lat":35.30989,"lng":136.786835,"zip":"4910902"},{"town":"石山町","koaza":"","lat":35.297976,"lng":136.80436,"zip":"4910855"},{"town":"泉一丁目","koaza":"","lat":35.302572,"lng":136.808071,"zip":"4910861"},{"town":"泉二丁目","koaza":"","lat":35.302315,"lng":136.809926,"zip":"4910861"},{"town":"泉三丁目","koaza":"","lat":35.301795,"lng":136.811869,"zip":"4910861"},{"town":"一宮","koaza":"","lat":35.324129,"lng":136.80554,"zip":"4910059"},{"town":"乾町","koaza":"","lat":35.325553,"lng":136.80212,"zip":"4910061"},{"town":"今伊勢町馬寄","koaza":"","lat":35.326821,"lng":136.788815,"zip":"4910058"},{"town":"今伊勢町新神戸","koaza":"","lat":35.314447,"lng":136.789573,"zip":"4910052"},{"town":"今伊勢町本神戸","koaza":"","lat":35.317335,"lng":136.796539,"zip":"4910053"},{"town":"今伊勢町宮後","koaza":"","lat":35.31749,"lng":136.78527,"zip":"4910057"},{"town":"印田通二丁目","koaza":"","lat":35.298733,"lng":136.813346,"zip":"4910865"},{"town":"印田通三丁目","koaza":"","lat":35.297639,"lng":136.813169,"zip":"4910865"},{"town":"印田通四丁目","koaza":"","lat":35.296235,"lng":136.812308,"zip":"4910865"},{"town":"印田通五丁目","koaza":"","lat":35.294991,"lng":136.811442,"zip":"4910865"},{"town":"牛野通一丁目","koaza":"","lat":35.290957,"lng":136.805171,"zip":"4910846"},{"town":"牛野通二丁目","koaza":"","lat":35.289556,"lng":136.806967,"zip":"4910846"},{"town":"牛野通三丁目","koaza":"","lat":35.287505,"lng":136.80798,"zip":"4910846"},{"town":"牛野通四丁目","koaza":"","lat":35.285199,"lng":136.807997,"zip":"4910846"},{"town":"大赤見","koaza":"","lat":35.311225,"lng":136.824634,"zip":"4910015"},{"town":"大江一丁目","koaza":"","lat":35.30445,"lng":136.805551,"zip":"4910851"},{"town":"大江二丁目","koaza":"","lat":35.3032,"lng":136.805209,"zip":"4910851"},{"town":"大江三丁目","koaza":"","lat":35.301964,"lng":136.805016,"zip":"4910851"},{"town":"大毛","koaza":"","lat":35.343289,"lng":136.802506,"zip":"4910132"},{"town":"大浜一丁目","koaza":"","lat":35.308755,"lng":136.809286,"zip":"4910035"},{"town":"大浜二丁目","koaza":"","lat":35.309406,"lng":136.810492,"zip":"4910035"},{"town":"大宮一丁目","koaza":"","lat":35.30733,"lng":136.799397,"zip":"4910044"},{"town":"大宮二丁目","koaza":"","lat":35.309194,"lng":136.799622,"zip":"4910044"},{"town":"大宮三丁目","koaza":"","lat":35.310744,"lng":136.799928,"zip":"4910044"},{"town":"大宮四丁目","koaza":"","lat":35.312558,"lng":136.800292,"zip":"4910044"},{"town":"大宮五丁目","koaza":"","lat":35.314048,"lng":136.802252,"zip":"4910044"},{"town":"奥町","koaza":"","lat":35.327706,"lng":136.760436,"zip":"4910201"},{"town":"小栗町","koaza":"","lat":35.324194,"lng":136.801286,"zip":"4910068"},{"town":"起","koaza":"","lat":35.310066,"lng":136.738375,"zip":"4940006"},{"town":"音羽一丁目","koaza":"","lat":35.307476,"lng":136.796384,"zip":"4910045"},{"town":"音羽二丁目","koaza":"","lat":35.309178,"lng":136.795981,"zip":"4910045"},{"town":"音羽三丁目","koaza":"","lat":35.311329,"lng":136.795652,"zip":"4910045"},{"town":"小原町","koaza":"","lat":35.320848,"lng":136.81686,"zip":"4910082"},{"town":"開明","koaza":"","lat":35.316697,"lng":136.765814,"zip":"4940001"},{"town":"篭屋一丁目","koaza":"","lat":35.309147,"lng":136.767092,"zip":"4940002"},{"town":"篭屋二丁目","koaza":"","lat":35.309247,"lng":136.76992,"zip":"4940002"},{"town":"篭屋三丁目","koaza":"","lat":35.308925,"lng":136.772709,"zip":"4940002"},{"town":"篭屋四丁目","koaza":"","lat":35.305758,"lng":136.771463,"zip":"4940002"},{"town":"篭屋五丁目","koaza":"","lat":35.305884,"lng":136.767291,"zip":"4940002"},{"town":"上祖父江","koaza":"","lat":35.276897,"lng":136.71822,"zip":"4940014"},{"town":"神山一丁目","koaza":"","lat":35.30311,"lng":136.792277,"zip":"4910904"},{"town":"神山二丁目","koaza":"","lat":35.303716,"lng":136.787923,"zip":"4910904"},{"town":"神山三丁目","koaza":"","lat":35.304043,"lng":136.784352,"zip":"4910904"},{"town":"苅安賀一丁目","koaza":"","lat":35.293098,"lng":136.782279,"zip":"4910933"},{"town":"苅安賀二丁目","koaza":"","lat":35.290208,"lng":136.784208,"zip":"4910933"},{"town":"川田町五丁目","koaza":"","lat":35.298033,"lng":136.805978,"zip":"4910853"},{"town":"観音寺一丁目","koaza":"","lat":35.28898,"lng":136.788423,"zip":"4910916"},{"town":"観音寺二丁目","koaza":"","lat":35.289027,"lng":136.785918,"zip":"4910916"},{"town":"観音町","koaza":"","lat":35.31426,"lng":136.81527,"zip":"4910031"},{"town":"神戸町","koaza":"","lat":35.311631,"lng":136.791229,"zip":"4910055"},{"town":"木曽川町内割田","koaza":"","lat":35.338467,"lng":136.777362,"zip":"4930006"},{"town":"木曽川町門間","koaza":"","lat":35.335286,"lng":136.790993,"zip":"4930002"},{"town":"木曽川町黒田","koaza":"","lat":35.343121,"lng":136.785526,"zip":"4930001"},{"town":"木曽川町里小牧","koaza":"","lat":35.349024,"lng":136.762919,"zip":"4930005"},{"town":"木曽川町外割田","koaza":"","lat":35.337952,"lng":136.771028,"zip":"4930007"},{"town":"木曽川町玉ノ井","koaza":"","lat":35.336772,"lng":136.758518,"zip":"4930004"},{"town":"木曽川町三ツ法寺","koaza":"","lat":35.331915,"lng":136.766683,"zip":"4930003"},{"town":"北今","koaza":"","lat":35.293834,"lng":136.754837,"zip":"4940004"},{"town":"北浦町","koaza":"","lat":35.311553,"lng":136.786737,"zip":"4910901"},{"town":"北小渕","koaza":"","lat":35.305988,"lng":136.837239,"zip":"4910013"},{"town":"北方町北方","koaza":"","lat":35.361475,"lng":136.782414,"zip":"4938001"},{"town":"北方町曽根","koaza":"","lat":35.353332,"lng":136.781399,"zip":"4938002"},{"town":"北方町中島","koaza":"","lat":35.358081,"lng":136.769875,"zip":"4938003"},{"town":"北神明町一丁目","koaza":"","lat":35.320759,"lng":136.803642,"zip":"4910069"},{"town":"北神明町二丁目","koaza":"","lat":35.322036,"lng":136.803909,"zip":"4910069"},{"town":"北神明町三丁目","koaza":"","lat":35.323619,"lng":136.804061,"zip":"4910069"},{"town":"北神明町四丁目","koaza":"","lat":35.325474,"lng":136.805125,"zip":"4910069"},{"town":"北園通一丁目","koaza":"","lat":35.296616,"lng":136.800655,"zip":"4910854"},{"town":"北園通二丁目","koaza":"","lat":35.296579,"lng":136.802206,"zip":"4910854"},{"town":"北園通三丁目","koaza":"","lat":35.296811,"lng":136.804451,"zip":"4910854"},{"town":"北園通四丁目","koaza":"","lat":35.29692,"lng":136.806169,"zip":"4910854"},{"town":"北園通五丁目","koaza":"","lat":35.296853,"lng":136.807943,"zip":"4910854"},{"town":"北園通六丁目","koaza":"","lat":35.296197,"lng":136.809686,"zip":"4910854"},{"town":"北園通七丁目","koaza":"","lat":35.297017,"lng":136.811864,"zip":"4910854"},{"town":"貴船一丁目","koaza":"","lat":35.311039,"lng":136.809049,"zip":"4910037"},{"town":"貴船二丁目","koaza":"","lat":35.313002,"lng":136.809566,"zip":"4910037"},{"town":"貴船町三丁目","koaza":"","lat":35.314,"lng":136.811116,"zip":"4910076"},{"town":"貴船町四丁目","koaza":"","lat":35.315139,"lng":136.811911,"zip":"4910076"},{"town":"九品町三丁目","koaza":"","lat":35.315334,"lng":136.8059,"zip":"4910079"},{"town":"九品町四丁目","koaza":"","lat":35.316671,"lng":136.806403,"zip":"4910079"},{"town":"小赤見","koaza":"","lat":35.309758,"lng":136.832373,"zip":"4910012"},{"town":"公園通三丁目","koaza":"","lat":35.297571,"lng":136.803222,"zip":"4910842"},{"town":"公園通四丁目","koaza":"","lat":35.295818,"lng":136.803747,"zip":"4910842"},{"town":"公園通五丁目","koaza":"","lat":35.29449,"lng":136.803981,"zip":"4910842"},{"town":"公園通六丁目","koaza":"","lat":35.293313,"lng":136.804461,"zip":"4910842"},{"town":"光明寺","koaza":"","lat":35.354451,"lng":136.803085,"zip":"4910135"},{"town":"古金町一丁目","koaza":"","lat":35.299371,"lng":136.810398,"zip":"4910867"},{"town":"古金町二丁目","koaza":"","lat":35.298,"lng":136.810841,"zip":"4910867"},{"town":"古見町","koaza":"","lat":35.317974,"lng":136.82048,"zip":"4910084"},{"town":"小信中島","koaza":"","lat":35.315014,"lng":136.74477,"zip":"4940007"},{"town":"栄一丁目","koaza":"","lat":35.304919,"lng":136.799102,"zip":"4910858"},{"town":"栄二丁目","koaza":"","lat":35.304958,"lng":136.796906,"zip":"4910858"},{"town":"栄三丁目","koaza":"","lat":35.301611,"lng":136.797747,"zip":"4910858"},{"town":"栄四丁目","koaza":"","lat":35.299953,"lng":136.79931,"zip":"4910858"},{"town":"桜一丁目","koaza":"","lat":35.305877,"lng":136.80657,"zip":"4910036"},{"town":"桜二丁目","koaza":"","lat":35.307509,"lng":136.806719,"zip":"4910036"},{"town":"桜三丁目","koaza":"","lat":35.308745,"lng":136.807237,"zip":"4910036"},{"town":"笹野","koaza":"","lat":35.350408,"lng":136.813995,"zip":"4910131"},{"town":"佐千原","koaza":"","lat":35.326401,"lng":136.810895,"zip":"4910124"},{"town":"更屋敷","koaza":"","lat":35.35577,"lng":136.790724,"zip":"4910134"},{"town":"猿海道一丁目","koaza":"","lat":35.285408,"lng":136.817149,"zip":"4910838"},{"town":"猿海道二丁目","koaza":"","lat":35.284161,"lng":136.820475,"zip":"4910838"},{"town":"猿海道三丁目","koaza":"","lat":35.282389,"lng":136.818284,"zip":"4910838"},{"town":"三条","koaza":"","lat":35.306926,"lng":136.761179,"zip":"4940003"},{"town":"三丹町","koaza":"","lat":35.32063,"lng":136.801823,"zip":"4910066"},{"town":"島崎一丁目","koaza":"","lat":35.284158,"lng":136.829085,"zip":"4910834"},{"town":"島崎二丁目","koaza":"","lat":35.281171,"lng":136.829619,"zip":"4910834"},{"town":"島村","koaza":"","lat":35.340473,"lng":136.811269,"zip":"4910121"},{"town":"下川田町一丁目","koaza":"","lat":35.291525,"lng":136.807332,"zip":"4910845"},{"town":"下川田町二丁目","koaza":"","lat":35.29023,"lng":136.808467,"zip":"4910845"},{"town":"下川田町三丁目","koaza":"","lat":35.288956,"lng":136.809172,"zip":"4910845"},{"town":"下川田町四丁目","koaza":"","lat":35.287285,"lng":136.809569,"zip":"4910845"},{"town":"下川田町五丁目","koaza":"","lat":35.284792,"lng":136.808995,"zip":"4910845"},{"town":"下田一丁目","koaza":"","lat":35.295017,"lng":136.813699,"zip":"4910883"},{"town":"下田二丁目","koaza":"","lat":35.294714,"lng":136.815189,"zip":"4910883"},{"town":"下沼町一丁目","koaza":"","lat":35.311899,"lng":136.812497,"zip":"4910032"},{"town":"下沼町二丁目","koaza":"","lat":35.312598,"lng":136.813718,"zip":"4910032"},{"town":"下沼町三丁目","koaza":"","lat":35.313106,"lng":136.815536,"zip":"4910032"},{"town":"下沼町四丁目","koaza":"","lat":35.313518,"lng":136.817429,"zip":"4910032"},{"town":"春明","koaza":"","lat":35.320426,"lng":136.846276,"zip":"4910003"},{"town":"常願通一丁目","koaza":"","lat":35.318319,"lng":136.803679,"zip":"4910063"},{"town":"常願通二丁目","koaza":"","lat":35.317797,"lng":136.805802,"zip":"4910063"},{"town":"常願通三丁目","koaza":"","lat":35.317329,"lng":136.807608,"zip":"4910063"},{"town":"常願通四丁目","koaza":"","lat":35.316794,"lng":136.809733,"zip":"4910063"},{"town":"常願通五丁目","koaza":"","lat":35.316351,"lng":136.811445,"zip":"4910063"},{"town":"常願通六丁目","koaza":"","lat":35.315852,"lng":136.813157,"zip":"4910063"},{"town":"常願通七丁目","koaza":"","lat":35.315825,"lng":136.814454,"zip":"4910063"},{"town":"常願通八丁目","koaza":"","lat":35.314931,"lng":136.817778,"zip":"4910063"},{"town":"常願通九丁目","koaza":"","lat":35.314575,"lng":136.819581,"zip":"4910063"},{"town":"定水寺","koaza":"","lat":35.312034,"lng":136.839283,"zip":"4910004"},{"town":"昭和一丁目","koaza":"","lat":35.294092,"lng":136.792267,"zip":"4910917"},{"town":"昭和二丁目","koaza":"","lat":35.292085,"lng":136.788536,"zip":"4910917"},{"town":"昭和三丁目","koaza":"","lat":35.291055,"lng":136.784896,"zip":"4910917"},{"town":"城崎通四丁目","koaza":"","lat":35.300704,"lng":136.807681,"zip":"4910866"},{"town":"城崎通五丁目","koaza":"","lat":35.300575,"lng":136.809077,"zip":"4910866"},{"town":"城崎通六丁目","koaza":"","lat":35.300359,"lng":136.810519,"zip":"4910866"},{"town":"城崎通七丁目","koaza":"","lat":35.300037,"lng":136.812959,"zip":"4910866"},{"town":"白旗通一丁目","koaza":"","lat":35.299048,"lng":136.81497,"zip":"4910879"},{"town":"白旗通二丁目","koaza":"","lat":35.298599,"lng":136.81613,"zip":"4910879"},{"town":"白旗通三丁目","koaza":"","lat":35.29823,"lng":136.817303,"zip":"4910879"},{"town":"白旗通四丁目","koaza":"","lat":35.297872,"lng":136.818499,"zip":"4910879"},{"town":"新生一丁目","koaza":"","lat":35.302103,"lng":136.795834,"zip":"4910912"},{"town":"新生二丁目","koaza":"","lat":35.299631,"lng":136.796253,"zip":"4910912"},{"town":"新生三丁目","koaza":"","lat":35.297643,"lng":136.796343,"zip":"4910912"},{"town":"新生四丁目","koaza":"","lat":35.295896,"lng":136.795767,"zip":"4910912"},{"town":"末広一丁目","koaza":"","lat":35.295818,"lng":136.792138,"zip":"4910918"},{"town":"末広二丁目","koaza":"","lat":35.295176,"lng":136.788243,"zip":"4910918"},{"town":"末広三丁目","koaza":"","lat":35.29451,"lng":136.784974,"zip":"4910918"},{"town":"杉山","koaza":"","lat":35.347344,"lng":136.808124,"zip":"4910136"},{"town":"住吉一丁目","koaza":"","lat":35.298858,"lng":136.787998,"zip":"4910919"},{"town":"住吉二丁目","koaza":"","lat":35.298517,"lng":136.784815,"zip":"4910919"},{"town":"瀬部","koaza":"","lat":35.333879,"lng":136.839715,"zip":"4910001"},{"town":"せんい一丁目","koaza":"","lat":35.288561,"lng":136.820842,"zip":"4910873"},{"town":"せんい二丁目","koaza":"","lat":35.28879,"lng":136.823341,"zip":"4910873"},{"town":"せんい三丁目","koaza":"","lat":35.288568,"lng":136.825362,"zip":"4910873"},{"town":"せんい四丁目","koaza":"","lat":35.287967,"lng":136.827024,"zip":"4910873"},{"town":"大志一丁目","koaza":"","lat":35.299948,"lng":136.803835,"zip":"4910852"},{"town":"大志二丁目","koaza":"","lat":35.299899,"lng":136.80584,"zip":"4910852"},{"town":"大正通一丁目","koaza":"","lat":35.311965,"lng":136.792744,"zip":"4910054"},{"town":"多加木一丁目","koaza":"","lat":35.282771,"lng":136.812644,"zip":"4910837"},{"town":"多加木二丁目","koaza":"","lat":35.278437,"lng":136.811747,"zip":"4910837"},{"town":"多加木三丁目","koaza":"","lat":35.280103,"lng":136.813594,"zip":"4910837"},{"town":"多加木四丁目","koaza":"","lat":35.28072,"lng":136.816861,"zip":"4910837"},{"town":"多加木五丁目","koaza":"","lat":35.277529,"lng":136.817466,"zip":"4910837"},{"town":"高田","koaza":"","lat":35.336008,"lng":136.802815,"zip":"4910125"},{"town":"高畑町一丁目","koaza":"","lat":35.317821,"lng":136.811057,"zip":"4910073"},{"town":"高畑町二丁目","koaza":"","lat":35.319497,"lng":136.811639,"zip":"4910073"},{"town":"高畑町三丁目","koaza":"","lat":35.3215,"lng":136.81279,"zip":"4910073"},{"town":"竹橋町","koaza":"","lat":35.301701,"lng":136.774597,"zip":"4910937"},{"town":"田島町","koaza":"","lat":35.31611,"lng":136.819525,"zip":"4910086"},{"town":"田所","koaza":"","lat":35.347251,"lng":136.795649,"zip":"4910133"},{"town":"玉野","koaza":"","lat":35.266648,"lng":136.744162,"zip":"4940013"},{"town":"丹陽町重吉","koaza":"","lat":35.284057,"lng":136.841898,"zip":"4910821"},{"town":"丹陽町多加木","koaza":"","lat":35.282269,"lng":136.809461,"zip":"4910836"},{"town":"丹陽町外崎","koaza":"","lat":35.27923,"lng":136.827716,"zip":"4910825"},{"town":"丹陽町三ツ井","koaza":"","lat":35.277716,"lng":136.842318,"zip":"4910826"},{"town":"丹陽町森本","koaza":"","lat":35.291151,"lng":136.808853,"zip":"4910827"},{"town":"千秋町浅野羽根","koaza":"","lat":35.290764,"lng":136.841428,"zip":"4910816"},{"town":"千秋町一色","koaza":"","lat":35.307794,"lng":136.854725,"zip":"4910805"},{"town":"千秋町浮野","koaza":"","lat":35.306923,"lng":136.84796,"zip":"4910806"},{"town":"千秋町小山","koaza":"","lat":35.28696,"lng":136.854397,"zip":"4910814"},{"town":"千秋町勝栗","koaza":"","lat":35.31262,"lng":136.858105,"zip":"4910802"},{"town":"千秋町加納馬場","koaza":"","lat":35.304573,"lng":136.867527,"zip":"4910811"},{"town":"千秋町加茂","koaza":"","lat":35.316057,"lng":136.851654,"zip":"4910801"},{"town":"千秋町佐野","koaza":"","lat":35.300212,"lng":136.853961,"zip":"4910804"},{"town":"千秋町塩尻","koaza":"","lat":35.284864,"lng":136.852097,"zip":"4910815"},{"town":"千秋町芝原","koaza":"","lat":35.298319,"lng":136.865298,"zip":"4910812"},{"town":"千秋町天摩","koaza":"","lat":35.295348,"lng":136.852901,"zip":"4910817"},{"town":"千秋町穂積塚本","koaza":"","lat":35.307481,"lng":136.858911,"zip":"4910803"},{"town":"千秋町町屋","koaza":"","lat":35.290101,"lng":136.860915,"zip":"4910813"},{"town":"寺島町一丁目","koaza":"","lat":35.313642,"lng":136.812919,"zip":"4910075"},{"town":"寺島町二丁目","koaza":"","lat":35.31475,"lng":136.813352,"zip":"4910075"},{"town":"寺前町","koaza":"","lat":35.299425,"lng":136.77294,"zip":"4910936"},{"town":"天王一丁目","koaza":"","lat":35.30724,"lng":136.793433,"zip":"4910046"},{"town":"天王二丁目","koaza":"","lat":35.309453,"lng":136.792484,"zip":"4910046"},{"town":"天王三丁目","koaza":"","lat":35.309535,"lng":136.790264,"zip":"4910046"},{"town":"天王四丁目","koaza":"","lat":35.309281,"lng":136.788168,"zip":"4910046"},{"town":"時之島","koaza":"","lat":35.323785,"lng":136.833945,"zip":"4910002"},{"town":"殿町一丁目","koaza":"","lat":35.29563,"lng":136.802233,"zip":"4910848"},{"town":"殿町二丁目","koaza":"","lat":35.294094,"lng":136.802123,"zip":"4910848"},{"town":"殿町三丁目","koaza":"","lat":35.292706,"lng":136.802747,"zip":"4910848"},{"town":"冨田","koaza":"","lat":35.298428,"lng":136.733524,"zip":"4940018"},{"town":"富塚","koaza":"","lat":35.332102,"lng":136.811073,"zip":"4910123"},{"town":"長島町一丁目","koaza":"","lat":35.318725,"lng":136.80719,"zip":"4910071"},{"town":"長島町二丁目","koaza":"","lat":35.320306,"lng":136.807788,"zip":"4910071"},{"town":"長島町三丁目","koaza":"","lat":35.321881,"lng":136.808559,"zip":"4910071"},{"town":"長島町四丁目","koaza":"","lat":35.323197,"lng":136.808996,"zip":"4910071"},{"town":"長島町五丁目","koaza":"","lat":35.323951,"lng":136.809924,"zip":"4910071"},{"town":"中島通一丁目","koaza":"","lat":35.318086,"lng":136.809094,"zip":"4910072"},{"town":"中島通二丁目","koaza":"","lat":35.319817,"lng":136.809739,"zip":"4910072"},{"town":"中島通三丁目","koaza":"","lat":35.321194,"lng":136.809948,"zip":"4910072"},{"town":"中島通四丁目","koaza":"","lat":35.321962,"lng":136.81081,"zip":"4910072"},{"town":"中島通五丁目","koaza":"","lat":35.323556,"lng":136.81183,"zip":"4910072"},{"town":"中町一丁目","koaza":"","lat":35.296872,"lng":136.799084,"zip":"4910913"},{"town":"中町二丁目","koaza":"","lat":35.292971,"lng":136.800594,"zip":"4910913"},{"town":"西五城","koaza":"","lat":35.29993,"lng":136.741661,"zip":"4940005"},{"town":"西大海道","koaza":"","lat":35.317266,"lng":136.835821,"zip":"4910005"},{"town":"西小原町","koaza":"","lat":35.321536,"lng":136.81532,"zip":"4910081"},{"town":"西島町一丁目","koaza":"","lat":35.319278,"lng":136.805192,"zip":"4910062"},{"town":"西島町二丁目","koaza":"","lat":35.320914,"lng":136.805563,"zip":"4910062"},{"town":"西島町三丁目","koaza":"","lat":35.322486,"lng":136.806384,"zip":"4910062"},{"town":"西島町四丁目","koaza":"","lat":35.323761,"lng":136.806984,"zip":"4910062"},{"town":"西島町五丁目","koaza":"","lat":35.325228,"lng":136.80745,"zip":"4910062"},{"town":"西出町","koaza":"","lat":35.310603,"lng":136.784087,"zip":"4910907"},{"town":"西中野","koaza":"","lat":35.278584,"lng":136.710266,"zip":"4940015"},{"town":"西萩原","koaza":"","lat":35.29044,"lng":136.748112,"zip":"4940011"},{"town":"日光町","koaza":"","lat":35.301846,"lng":136.778508,"zip":"4910938"},{"town":"丹羽","koaza":"","lat":35.321106,"lng":136.821144,"zip":"4910083"},{"town":"野口一丁目","koaza":"","lat":35.300075,"lng":136.79197,"zip":"4910911"},{"town":"野口二丁目","koaza":"","lat":35.298195,"lng":136.792014,"zip":"4910911"},{"town":"萩原町朝宮","koaza":"","lat":35.29028,"lng":136.758952,"zip":"4910354"},{"town":"萩原町河田方","koaza":"","lat":35.281123,"lng":136.770207,"zip":"4910366"},{"town":"萩原町串作","koaza":"","lat":35.277449,"lng":136.757932,"zip":"4910376"},{"town":"萩原町高木","koaza":"","lat":35.271735,"lng":136.767036,"zip":"4910371"},{"town":"萩原町高松","koaza":"","lat":35.27062,"lng":136.758524,"zip":"4910373"},{"town":"萩原町滝","koaza":"","lat":35.272983,"lng":136.760042,"zip":"4910372"},{"town":"萩原町築込","koaza":"","lat":35.268252,"lng":136.754865,"zip":"4910374"},{"town":"萩原町戸苅","koaza":"","lat":35.272781,"lng":136.75082,"zip":"4910375"},{"town":"萩原町富田方","koaza":"","lat":35.288313,"lng":136.766038,"zip":"4910352"},{"town":"萩原町中島","koaza":"","lat":35.267812,"lng":136.774685,"zip":"4910364"},{"town":"萩原町西御堂","koaza":"","lat":35.263713,"lng":136.769984,"zip":"4910365"},{"town":"萩原町西宮重","koaza":"","lat":35.275106,"lng":136.772542,"zip":"4910362"},{"town":"萩原町萩原","koaza":"","lat":35.2843,"lng":136.759815,"zip":"4910353"},{"town":"萩原町花井方","koaza":"","lat":35.296549,"lng":136.766095,"zip":"4910351"},{"town":"萩原町林野","koaza":"","lat":35.281894,"lng":136.776019,"zip":"4910361"},{"town":"萩原町東宮重","koaza":"","lat":35.273536,"lng":136.77895,"zip":"4910363"},{"town":"羽衣一丁目","koaza":"","lat":35.305154,"lng":136.809097,"zip":"4910025"},{"town":"羽衣二丁目","koaza":"","lat":35.304733,"lng":136.81169,"zip":"4910025"},{"town":"蓮池","koaza":"","lat":35.292044,"lng":136.740226,"zip":"4940019"},{"town":"八幡一丁目","koaza":"","lat":35.304922,"lng":136.795026,"zip":"4910903"},{"town":"八幡二丁目","koaza":"","lat":35.305008,"lng":136.79274,"zip":"4910903"},{"town":"八幡三丁目","koaza":"","lat":35.306287,"lng":136.792052,"zip":"4910903"},{"town":"八幡四丁目","koaza":"","lat":35.306549,"lng":136.788827,"zip":"4910903"},{"town":"八幡五丁目","koaza":"","lat":35.307038,"lng":136.785738,"zip":"4910903"},{"town":"八町通一丁目","koaza":"","lat":35.291671,"lng":136.803263,"zip":"4910844"},{"town":"八町通二丁目","koaza":"","lat":35.292377,"lng":136.805785,"zip":"4910844"},{"town":"花池一丁目","koaza":"","lat":35.293411,"lng":136.797313,"zip":"4910914"},{"town":"花池二丁目","koaza":"","lat":35.291199,"lng":136.793948,"zip":"4910914"},{"town":"花池三丁目","koaza":"","lat":35.28951,"lng":136.797001,"zip":"4910914"},{"town":"花池四丁目","koaza":"","lat":35.289332,"lng":136.801102,"zip":"4910914"},{"town":"浜町三丁目","koaza":"","lat":35.308466,"lng":136.811525,"zip":"4910034"},{"town":"浜町四丁目","koaza":"","lat":35.309277,"lng":136.812366,"zip":"4910034"},{"town":"浜町五丁目","koaza":"","lat":35.309935,"lng":136.81365,"zip":"4910034"},{"town":"浜町六丁目","koaza":"","lat":35.310642,"lng":136.815168,"zip":"4910034"},{"town":"東五城","koaza":"","lat":35.30456,"lng":136.746694,"zip":"4940008"},{"town":"東印田町","koaza":"","lat":35.2975,"lng":136.815164,"zip":"4910863"},{"town":"東加賀野井","koaza":"","lat":35.285212,"lng":136.719991,"zip":"4940016"},{"town":"東島町一丁目","koaza":"","lat":35.317252,"lng":136.813276,"zip":"4910074"},{"town":"東島町二丁目","koaza":"","lat":35.318848,"lng":136.813658,"zip":"4910074"},{"town":"東島町三丁目","koaza":"","lat":35.320236,"lng":136.813861,"zip":"4910074"},{"town":"東出町","koaza":"","lat":35.311285,"lng":136.78893,"zip":"4910056"},{"town":"東両郷町","koaza":"","lat":35.313438,"lng":136.822273,"zip":"4910021"},{"town":"平島一丁目","koaza":"","lat":35.285611,"lng":136.832591,"zip":"4910833"},{"town":"平島二丁目","koaza":"","lat":35.283151,"lng":136.832169,"zip":"4910833"},{"town":"平島三丁目","koaza":"","lat":35.28059,"lng":136.831529,"zip":"4910833"},{"town":"深坪町","koaza":"","lat":35.31176,"lng":136.781181,"zip":"4910908"},{"town":"富士一丁目","koaza":"","lat":35.304568,"lng":136.814927,"zip":"4910024"},{"town":"富士二丁目","koaza":"","lat":35.30424,"lng":136.817423,"zip":"4910024"},{"town":"富士三丁目","koaza":"","lat":35.302393,"lng":136.820148,"zip":"4910024"},{"town":"富士四丁目","koaza":"","lat":35.304887,"lng":136.820071,"zip":"4910024"},{"town":"藤塚町三丁目","koaza":"","lat":35.308862,"lng":136.814195,"zip":"4910027"},{"town":"藤塚町四丁目","koaza":"","lat":35.309796,"lng":136.815596,"zip":"4910027"},{"town":"藤塚町五丁目","koaza":"","lat":35.310571,"lng":136.817132,"zip":"4910027"},{"town":"文京一丁目","koaza":"","lat":35.311749,"lng":136.804344,"zip":"4910041"},{"town":"文京二丁目","koaza":"","lat":35.313554,"lng":136.805132,"zip":"4910041"},{"town":"平安一丁目","koaza":"","lat":35.287683,"lng":136.833769,"zip":"4910872"},{"town":"平安二丁目","koaza":"","lat":35.28781,"lng":136.835009,"zip":"4910872"},{"town":"平和一丁目","koaza":"","lat":35.301502,"lng":136.792158,"zip":"4910905"},{"town":"平和二丁目","koaza":"","lat":35.300916,"lng":136.78835,"zip":"4910905"},{"town":"平和三丁目","koaza":"","lat":35.301496,"lng":136.784695,"zip":"4910905"},{"town":"別明町一丁目","koaza":"","lat":35.310288,"lng":136.811619,"zip":"4910033"},{"town":"別明町二丁目","koaza":"","lat":35.31088,"lng":136.812991,"zip":"4910033"},{"town":"別明町三丁目","koaza":"","lat":35.311465,"lng":136.814425,"zip":"4910033"},{"town":"別明町四丁目","koaza":"","lat":35.312065,"lng":136.815962,"zip":"4910033"},{"town":"別明町五丁目","koaza":"","lat":35.312562,"lng":136.817416,"zip":"4910033"},{"town":"北丹町","koaza":"","lat":35.322379,"lng":136.80142,"zip":"4910067"},{"town":"本町一丁目","koaza":"","lat":35.305212,"lng":136.80217,"zip":"4910859"},{"town":"本町二丁目","koaza":"","lat":35.303983,"lng":136.801881,"zip":"4910859"},{"town":"本町三丁目","koaza":"","lat":35.302418,"lng":136.801438,"zip":"4910859"},{"town":"本町四丁目","koaza":"","lat":35.29998,"lng":136.801425,"zip":"4910859"},{"town":"本町通八丁目","koaza":"","lat":35.297625,"lng":136.801662,"zip":"4910856"},{"town":"真清田一丁目","koaza":"","lat":35.307136,"lng":136.801831,"zip":"4910043"},{"town":"真清田二丁目","koaza":"","lat":35.309902,"lng":136.802336,"zip":"4910043"},{"town":"松島町","koaza":"","lat":35.295401,"lng":136.801047,"zip":"4910841"},{"town":"松降一丁目","koaza":"","lat":35.306842,"lng":136.804046,"zip":"4910042"},{"town":"松降二丁目","koaza":"","lat":35.309711,"lng":136.804742,"zip":"4910042"},{"town":"松降通七丁目","koaza":"","lat":35.314688,"lng":136.8078,"zip":"4910078"},{"town":"松降通八丁目","koaza":"","lat":35.316288,"lng":136.808399,"zip":"4910078"},{"town":"松山町","koaza":"","lat":35.317644,"lng":136.822291,"zip":"4910085"},{"town":"馬見塚","koaza":"","lat":35.292805,"lng":136.820622,"zip":"4910874"},{"town":"水落町","koaza":"","lat":35.319455,"lng":136.802749,"zip":"4910065"},{"town":"水附町","koaza":"","lat":35.296938,"lng":136.817445,"zip":"4910878"},{"town":"三ツ井一丁目","koaza":"","lat":35.281258,"lng":136.834583,"zip":"4910827"},{"town":"三ツ井二丁目","koaza":"","lat":35.27771,"lng":136.833659,"zip":"4910827"},{"town":"三ツ井三丁目","koaza":"","lat":35.275539,"lng":136.828233,"zip":"4910827"},{"town":"三ツ井四丁目","koaza":"","lat":35.274998,"lng":136.83242,"zip":"4910827"},{"town":"三ツ井五丁目","koaza":"","lat":35.274927,"lng":136.837719,"zip":"4910827"},{"town":"三ツ井六丁目","koaza":"","lat":35.271636,"lng":136.836742,"zip":"4910827"},{"town":"三ツ井七丁目","koaza":"","lat":35.271386,"lng":136.839486,"zip":"4910827"},{"town":"三ツ井八丁目","koaza":"","lat":35.27256,"lng":136.842044,"zip":"4910827"},{"town":"緑一丁目","koaza":"","lat":35.301401,"lng":136.813912,"zip":"4910862"},{"town":"緑二丁目","koaza":"","lat":35.300986,"lng":136.816346,"zip":"4910862"},{"town":"緑三丁目","koaza":"","lat":35.299844,"lng":136.818759,"zip":"4910862"},{"town":"緑四丁目","koaza":"","lat":35.299847,"lng":136.822183,"zip":"4910862"},{"town":"緑五丁目","koaza":"","lat":35.297724,"lng":136.82264,"zip":"4910862"},{"town":"南印田一丁目","koaza":"","lat":35.296169,"lng":136.814219,"zip":"4910881"},{"town":"南印田二丁目","koaza":"","lat":35.295921,"lng":136.815438,"zip":"4910881"},{"town":"南小渕","koaza":"","lat":35.300035,"lng":136.840536,"zip":"4910014"},{"town":"南出町","koaza":"","lat":35.30864,"lng":136.784543,"zip":"4910906"},{"town":"宮地一丁目","koaza":"","lat":35.290651,"lng":136.790878,"zip":"4910915"},{"town":"宮地二丁目","koaza":"","lat":35.28802,"lng":136.792056,"zip":"4910915"},{"town":"宮西通七丁目","koaza":"","lat":35.316974,"lng":136.804329,"zip":"4910064"},{"town":"宮西通八丁目","koaza":"","lat":35.315771,"lng":136.803951,"zip":"4910064"},{"town":"妙興寺一丁目","koaza":"","lat":35.286809,"lng":136.800459,"zip":"4910921"},{"town":"妙興寺二丁目","koaza":"","lat":35.286601,"lng":136.803101,"zip":"4910921"},{"town":"向山町一丁目","koaza":"","lat":35.299956,"lng":136.807914,"zip":"4910869"},{"town":"向山町二丁目","koaza":"","lat":35.298063,"lng":136.808127,"zip":"4910869"},{"town":"向山町三丁目","koaza":"","lat":35.295545,"lng":136.807755,"zip":"4910869"},{"town":"向山南一丁目","koaza":"","lat":35.294107,"lng":136.808215,"zip":"4910868"},{"town":"向山南二丁目","koaza":"","lat":35.294467,"lng":136.810722,"zip":"4910868"},{"town":"明治通五丁目","koaza":"","lat":35.298143,"lng":136.79987,"zip":"4910857"},{"town":"明地","koaza":"","lat":35.278671,"lng":136.737099,"zip":"4940012"},{"town":"森本一丁目","koaza":"","lat":35.293301,"lng":136.813277,"zip":"4910831"},{"town":"森本二丁目","koaza":"","lat":35.290999,"lng":136.812705,"zip":"4910831"},{"town":"森本三丁目","koaza":"","lat":35.288458,"lng":136.813225,"zip":"4910831"},{"town":"森本四丁目","koaza":"","lat":35.289716,"lng":136.817142,"zip":"4910831"},{"town":"森本五丁目","koaza":"","lat":35.285543,"lng":136.812463,"zip":"4910831"},{"town":"柳戸町一丁目","koaza":"","lat":35.29537,"lng":136.805864,"zip":"4910843"},{"town":"柳戸町二丁目","koaza":"","lat":35.293866,"lng":136.806262,"zip":"4910843"},{"town":"大和町氏永","koaza":"","lat":35.275315,"lng":136.802728,"zip":"4910923"},{"town":"大和町於保","koaza":"","lat":35.273772,"lng":136.794688,"zip":"4910924"},{"town":"大和町苅安賀","koaza":"","lat":35.290402,"lng":136.776603,"zip":"4910934"},{"town":"大和町北高井","koaza":"","lat":35.279063,"lng":136.783125,"zip":"4910926"},{"town":"大和町戸塚","koaza":"","lat":35.27968,"lng":136.790359,"zip":"4910927"},{"town":"大和町福森","koaza":"","lat":35.300686,"lng":136.769548,"zip":"4910935"},{"town":"大和町馬引","koaza":"","lat":35.305902,"lng":136.778776,"zip":"4910931"},{"town":"大和町南高井","koaza":"","lat":35.271024,"lng":136.786747,"zip":"4910925"},{"town":"大和町宮地花池","koaza":"","lat":35.289224,"lng":136.804808,"zip":"4910847"},{"town":"大和町妙興寺","koaza":"","lat":35.281537,"lng":136.801348,"zip":"4910922"},{"town":"大和町毛受","koaza":"","lat":35.298576,"lng":136.777736,"zip":"4910932"},{"town":"祐久","koaza":"","lat":35.287277,"lng":136.728686,"zip":"4940017"},{"town":"柚木颪","koaza":"","lat":35.314782,"lng":136.827484,"zip":"4910011"},{"town":"両郷町一丁目","koaza":"","lat":35.311356,"lng":136.81647,"zip":"4910022"},{"town":"両郷町二丁目","koaza":"","lat":35.311951,"lng":136.817743,"zip":"4910022"},{"town":"両郷町三丁目","koaza":"","lat":35.31255,"lng":136.819522,"zip":"4910022"},{"town":"両郷町四丁目","koaza":"","lat":35.313735,"lng":136.820506,"zip":"4910022"},{"town":"両郷町五丁目","koaza":"","lat":35.315476,"lng":136.821839,"zip":"4910022"},{"town":"若竹一丁目","koaza":"","lat":35.286475,"lng":136.820652,"zip":"4910832"},{"town":"若竹二丁目","koaza":"","lat":35.286446,"lng":136.823099,"zip":"4910832"},{"town":"若竹三丁目","koaza":"","lat":35.285933,"lng":136.825822,"zip":"4910832"},{"town":"若竹四丁目","koaza":"","lat":35.285907,"lng":136.828349,"zip":"4910832"},{"town":"枠杁町三丁目","koaza":"","lat":35.314362,"lng":136.809725,"zip":"4910077"},{"town":"枠杁町四丁目","koaza":"","lat":35.315702,"lng":136.810208,"zip":"4910077"},{"town":"和光一丁目","koaza":"","lat":35.307141,"lng":136.809916,"zip":"4910026"},{"town":"和光二丁目","koaza":"","lat":35.307598,"lng":136.812426,"zip":"4910026"},{"town":"丹陽町五日市場","koaza":"","lat":35.254886,"lng":136.83908,"zip":"4910823"},{"town":"伝法寺二丁目","koaza":"","lat":35.269158,"lng":136.844929,"zip":"4910828"},{"town":"伝法寺三丁目","koaza":"","lat":35.266524,"lng":136.845475,"zip":"4910828"},{"town":"伝法寺一丁目","koaza":"","lat":35.268901,"lng":136.841236,"zip":"4910828"},{"town":"伝法寺十丁目","koaza":"","lat":35.263318,"lng":136.844386,"zip":"4910828"},{"town":"伝法寺四丁目","koaza":"","lat":35.265528,"lng":136.843837,"zip":"4910828"},{"town":"伝法寺十二丁目","koaza":"","lat":35.261242,"lng":136.844489,"zip":"4910828"},{"town":"伝法寺十一丁目","koaza":"","lat":35.264551,"lng":136.847675,"zip":"4910828"},{"town":"伝法寺五丁目","koaza":"","lat":35.265111,"lng":136.840626,"zip":"4910828"},{"town":"伝法寺六丁目","koaza":"","lat":35.262455,"lng":136.8382,"zip":"4910828"},{"town":"伝法寺九丁目","koaza":"","lat":35.262332,"lng":136.84231,"zip":"4910828"},{"town":"丹陽町九日市場","koaza":"","lat":35.266418,"lng":136.834068,"zip":"4910824"},{"town":"伝法寺七丁目","koaza":"","lat":35.261386,"lng":136.839762,"zip":"4910828"},{"town":"伝法寺八丁目","koaza":"","lat":35.259146,"lng":136.840091,"zip":"4910828"},{"town":"西中野","koaza":"下中野","lat":35.276347,"lng":136.710075,"zip":"4940015"},{"town":"西中野","koaza":"沼境","lat":35.274707,"lng":136.70954,"zip":"4940015"},{"town":"上祖父江","koaza":"南外山","lat":35.27483,"lng":136.713858,"zip":"4940014"},{"town":"西中野","koaza":"渡シ場前","lat":35.278632,"lng":136.71093,"zip":"4940015"},{"town":"西中野","koaza":"上中野","lat":35.27957,"lng":136.713182,"zip":"4940015"},{"town":"上祖父江","koaza":"中外山","lat":35.277227,"lng":136.714343,"zip":"4940014"},{"town":"上祖父江","koaza":"寺屋敷","lat":35.278323,"lng":136.714671,"zip":"4940014"},{"town":"上祖父江","koaza":"中野東","lat":35.279291,"lng":136.71575,"zip":"4940014"},{"town":"上祖父江","koaza":"東外山","lat":35.275551,"lng":136.716416,"zip":"4940014"},{"town":"上祖父江","koaza":"川田","lat":35.28069,"lng":136.716275,"zip":"4940014"},{"town":"上祖父江","koaza":"東外平","lat":35.276375,"lng":136.717082,"zip":"4940014"},{"town":"上祖父江","koaza":"紙屋浦","lat":35.27851,"lng":136.717264,"zip":"4940014"},{"town":"上祖父江","koaza":"小稲葉","lat":35.274302,"lng":136.718604,"zip":"4940014"},{"town":"上祖父江","koaza":"北外山","lat":35.281184,"lng":136.718562,"zip":"4940014"},{"town":"上祖父江","koaza":"西稲葉","lat":35.276868,"lng":136.717993,"zip":"4940014"},{"town":"上祖父江","koaza":"江西","lat":35.279155,"lng":136.718641,"zip":"4940014"},{"town":"東加賀野井","koaza":"江西","lat":35.28311,"lng":136.719351,"zip":"4940016"},{"town":"上祖父江","koaza":"江東","lat":35.277351,"lng":136.718522,"zip":"4940014"},{"town":"上祖父江","koaza":"山前","lat":35.277004,"lng":136.720858,"zip":"4940014"},{"town":"上祖父江","koaza":"高須賀","lat":35.279855,"lng":136.719845,"zip":"4940014"},{"town":"上祖父江","koaza":"江北","lat":35.272132,"lng":136.720454,"zip":"4940014"},{"town":"上祖父江","koaza":"北方","lat":35.274112,"lng":136.720385,"zip":"4940014"},{"town":"上祖父江","koaza":"下リ江","lat":35.279417,"lng":136.720824,"zip":"4940014"},{"town":"東加賀野井","koaza":"江東","lat":35.284133,"lng":136.72312,"zip":"4940016"},{"town":"上祖父江","koaza":"西本郷","lat":35.274216,"lng":136.723329,"zip":"4940014"},{"town":"上祖父江","koaza":"北川原","lat":35.278871,"lng":136.724592,"zip":"4940014"},{"town":"上祖父江","koaza":"大跡","lat":35.271895,"lng":136.723048,"zip":"4940014"},{"town":"上祖父江","koaza":"西竜池","lat":35.278818,"lng":136.722916,"zip":"4940014"},{"town":"上祖父江","koaza":"南川原","lat":35.279277,"lng":136.724175,"zip":"4940014"},{"town":"上祖父江","koaza":"山浦東","lat":35.281146,"lng":136.722852,"zip":"4940014"},{"town":"上祖父江","koaza":"東竜池","lat":35.2786,"lng":136.723862,"zip":"4940014"},{"town":"上祖父江","koaza":"道福辺","lat":35.272261,"lng":136.724771,"zip":"4940014"},{"town":"上祖父江","koaza":"南竜池","lat":35.276072,"lng":136.723352,"zip":"4940014"},{"town":"上祖父江","koaza":"竜池","lat":35.276124,"lng":136.723752,"zip":"4940014"},{"town":"上祖父江","koaza":"東本郷","lat":35.273685,"lng":136.725215,"zip":"4940014"},{"town":"上祖父江","koaza":"中三ツ屋","lat":35.28183,"lng":136.72442,"zip":"4940014"},{"town":"上祖父江","koaza":"北三ツ屋","lat":35.281833,"lng":136.724812,"zip":"4940014"},{"town":"祐久","koaza":"九百坪","lat":35.285203,"lng":136.728207,"zip":"4940017"},{"town":"上祖父江","koaza":"東道福辺","lat":35.271956,"lng":136.726284,"zip":"4940014"},{"town":"上祖父江","koaza":"三ツ屋","lat":35.281493,"lng":136.724422,"zip":"4940014"},{"town":"上祖父江","koaza":"寺東","lat":35.275069,"lng":136.724976,"zip":"4940014"},{"town":"明地","koaza":"須賀","lat":35.275595,"lng":136.727273,"zip":"4940012"},{"town":"東加賀野井","koaza":"川原","lat":35.290541,"lng":136.72742,"zip":"4940016"},{"town":"祐久","koaza":"東川田","lat":35.287799,"lng":136.727055,"zip":"4940017"},{"town":"明地","koaza":"須賀前","lat":35.272185,"lng":136.728939,"zip":"4940012"},{"town":"明地","koaza":"寺南","lat":35.278581,"lng":136.727165,"zip":"4940012"},{"town":"明地","koaza":"寺前","lat":35.280562,"lng":136.743748,"zip":"4940012"},{"town":"明地","koaza":"西七丁原","lat":35.28185,"lng":136.727764,"zip":"4940012"},{"town":"明地","koaza":"西阿古井","lat":35.280327,"lng":136.729904,"zip":"4940012"},{"town":"東加賀野井","koaza":"東川原","lat":35.290368,"lng":136.732053,"zip":"4940016"},{"town":"明地","koaza":"須賀東","lat":35.273991,"lng":136.729206,"zip":"4940012"},{"town":"祐久","koaza":"丸島","lat":35.286262,"lng":136.729918,"zip":"4940017"},{"town":"祐久","koaza":"十間城","lat":35.285197,"lng":136.730401,"zip":"4940017"},{"town":"明地","koaza":"御屋敷東","lat":35.26965,"lng":136.730409,"zip":"4940012"},{"town":"明地","koaza":"矢摩","lat":35.276194,"lng":136.730176,"zip":"4940012"},{"town":"冨田","koaza":"砂原","lat":35.296117,"lng":136.731683,"zip":"4940018"},{"town":"明地","koaza":"八反山","lat":35.270715,"lng":136.731813,"zip":"4940012"},{"town":"明地","koaza":"西真菰原","lat":35.274244,"lng":136.731864,"zip":"4940012"},{"town":"祐久","koaza":"土井黒","lat":35.286381,"lng":136.733257,"zip":"4940017"},{"town":"祐久","koaza":"八間城","lat":35.283568,"lng":136.732196,"zip":"4940017"},{"town":"明地","koaza":"新道南","lat":35.272303,"lng":136.732054,"zip":"4940012"},{"town":"明地","koaza":"丸川","lat":35.269269,"lng":136.733073,"zip":"4940012"},{"town":"冨田","koaza":"三ツ俣","lat":35.293828,"lng":136.732571,"zip":"4940018"},{"town":"祐久","koaza":"池田","lat":35.28763,"lng":136.732773,"zip":"4940017"},{"town":"祐久","koaza":"北野黒","lat":35.287629,"lng":136.734464,"zip":"4940017"},{"town":"祐久","koaza":"屋敷裏","lat":35.289852,"lng":136.734621,"zip":"4940017"},{"town":"明地","koaza":"田中前","lat":35.271338,"lng":136.733517,"zip":"4940012"},{"town":"明地","koaza":"田中","lat":35.27358,"lng":136.733729,"zip":"4940012"},{"town":"明地","koaza":"江渕","lat":35.276323,"lng":136.735597,"zip":"4940012"},{"town":"明地","koaza":"宮東","lat":35.278925,"lng":136.734045,"zip":"4940012"},{"town":"明地","koaza":"東七丁原","lat":35.281586,"lng":136.736164,"zip":"4940012"},{"town":"明地","koaza":"江端","lat":35.279577,"lng":136.735594,"zip":"4940012"},{"town":"冨田","koaza":"竹橋","lat":35.292017,"lng":136.733977,"zip":"4940018"},{"town":"明地","koaza":"下端","lat":35.270867,"lng":136.734844,"zip":"4940012"},{"town":"冨田","koaza":"北新田","lat":35.29641,"lng":136.733627,"zip":"4940018"},{"town":"祐久","koaza":"南野黒","lat":35.285125,"lng":136.734636,"zip":"4940017"},{"town":"冨田","koaza":"一本松","lat":35.295632,"lng":136.735232,"zip":"4940018"},{"town":"冨田","koaza":"上本郷","lat":35.298361,"lng":136.73601,"zip":"4940018"},{"town":"冨田","koaza":"若宮前","lat":35.294662,"lng":136.735366,"zip":"4940018"},{"town":"冨田","koaza":"砂入","lat":35.299168,"lng":136.734069,"zip":"4940018"},{"town":"冨田","koaza":"漆畑","lat":35.296649,"lng":136.735305,"zip":"4940018"},{"town":"冨田","koaza":"平口","lat":35.293692,"lng":136.735487,"zip":"4940018"},{"town":"冨田","koaza":"大堀","lat":35.298051,"lng":136.735149,"zip":"4940018"},{"town":"冨田","koaza":"蒲池","lat":35.292722,"lng":136.735625,"zip":"4940018"},{"town":"冨田","koaza":"石宮","lat":35.301704,"lng":136.735438,"zip":"4940018"},{"town":"冨田","koaza":"渡所","lat":35.299902,"lng":136.735682,"zip":"4940018"},{"town":"明地","koaza":"中島","lat":35.274237,"lng":136.735765,"zip":"4940012"},{"town":"玉野","koaza":"柳原","lat":35.269408,"lng":136.735637,"zip":"4940013"},{"town":"明地","koaza":"江口","lat":35.275487,"lng":136.736454,"zip":"4940012"},{"town":"西萩原","koaza":"祐久東","lat":35.28904,"lng":136.735652,"zip":"4940011"},{"town":"冨田","koaza":"出先","lat":35.291402,"lng":136.736262,"zip":"4940018"},{"town":"蓮池","koaza":"下松山","lat":35.289758,"lng":136.736123,"zip":"4940019"},{"town":"蓮池","koaza":"郷西","lat":35.290524,"lng":136.738067,"zip":"4940019"},{"town":"明地","koaza":"江畔","lat":35.273137,"lng":136.737135,"zip":"4940012"},{"town":"冨田","koaza":"東浦","lat":35.299642,"lng":136.737154,"zip":"4940018"},{"town":"明地","koaza":"平北","lat":35.286448,"lng":136.736587,"zip":"4940012"},{"town":"冨田","koaza":"下本郷","lat":35.296757,"lng":136.737535,"zip":"4940018"},{"town":"起","koaza":"堤町","lat":35.310072,"lng":136.738137,"zip":"4940006"},{"town":"起","koaza":"下町","lat":35.306467,"lng":136.737144,"zip":"4940006"},{"town":"玉野","koaza":"大西","lat":35.270151,"lng":136.737538,"zip":"4940013"},{"town":"玉野","koaza":"平","lat":35.267147,"lng":136.737703,"zip":"4940013"},{"town":"冨田","koaza":"南出","lat":35.295495,"lng":136.737271,"zip":"4940018"},{"town":"冨田","koaza":"下屋敷","lat":35.294106,"lng":136.737293,"zip":"4940018"},{"town":"蓮池","koaza":"松山","lat":35.292844,"lng":136.738742,"zip":"4940019"},{"town":"冨田","koaza":"古川","lat":35.299527,"lng":136.738513,"zip":"4940018"},{"town":"冨田","koaza":"橋詰","lat":35.298054,"lng":136.737367,"zip":"4940018"},{"town":"西五城","koaza":"用水東","lat":35.301952,"lng":136.73735,"zip":"4940005"},{"town":"西萩原","koaza":"若宮北","lat":35.288005,"lng":136.739249,"zip":"4940011"},{"town":"西五城","koaza":"宮西","lat":35.303613,"lng":136.737238,"zip":"4940005"},{"town":"明地","koaza":"南森下","lat":35.272316,"lng":136.737894,"zip":"4940012"},{"town":"明地","koaza":"南茱之木","lat":35.286397,"lng":136.739032,"zip":"4940012"},{"town":"明地","koaza":"藤之棚","lat":35.274365,"lng":136.737419,"zip":"4940012"},{"town":"起","koaza":"用水東","lat":35.3062,"lng":136.737959,"zip":"4940006"},{"town":"明地","koaza":"江端前","lat":35.278359,"lng":136.737361,"zip":"4940012"},{"town":"玉野","koaza":"蓬平","lat":35.2656,"lng":136.738766,"zip":"4940013"},{"town":"起","koaza":"用水添","lat":35.308913,"lng":136.739313,"zip":"4940006"},{"town":"西五城","koaza":"起境","lat":35.304271,"lng":136.739964,"zip":"4940005"},{"town":"西五城","koaza":"下須賀","lat":35.300173,"lng":136.738919,"zip":"4940005"},{"town":"西五城","koaza":"須賀前","lat":35.302569,"lng":136.738068,"zip":"4940005"},{"town":"冨田","koaza":"牛池","lat":35.298532,"lng":136.738862,"zip":"4940018"},{"town":"西五城","koaza":"高須賀","lat":35.303246,"lng":136.738345,"zip":"4940005"},{"town":"明地","koaza":"下平","lat":35.27752,"lng":136.738985,"zip":"4940012"},{"town":"明地","koaza":"東下城","lat":35.284158,"lng":136.741043,"zip":"4940012"},{"town":"冨田","koaza":"立石","lat":35.296768,"lng":136.739952,"zip":"4940018"},{"town":"玉野","koaza":"西田島","lat":35.266999,"lng":136.739451,"zip":"4940013"},{"town":"起","koaza":"西生出","lat":35.305675,"lng":136.741501,"zip":"4940006"},{"town":"冨田","koaza":"仮宮","lat":35.295455,"lng":136.73869,"zip":"4940018"},{"town":"冨田","koaza":"流筋","lat":35.294278,"lng":136.739471,"zip":"4940018"},{"town":"玉野","koaza":"西瀬古","lat":35.269658,"lng":136.740559,"zip":"4940013"},{"town":"起","koaza":"西茜屋","lat":35.307792,"lng":136.739533,"zip":"4940006"},{"town":"蓮池","koaza":"郷前","lat":35.290097,"lng":136.739969,"zip":"4940019"},{"town":"明地","koaza":"鞆西","lat":35.274448,"lng":136.739411,"zip":"4940012"},{"town":"起","koaza":"河田揚","lat":35.311379,"lng":136.740544,"zip":"4940006"},{"town":"玉野","koaza":"下葭野","lat":35.259739,"lng":136.740135,"zip":"4940013"},{"town":"蓮池","koaza":"郷中","lat":35.292229,"lng":136.740051,"zip":"4940019"},{"town":"西五城","koaza":"山方","lat":35.297738,"lng":136.740974,"zip":"4940005"},{"town":"玉野","koaza":"可海道","lat":35.268032,"lng":136.741626,"zip":"4940013"},{"town":"玉野","koaza":"上葭野","lat":35.26247,"lng":136.739626,"zip":"4940013"},{"town":"明地","koaza":"上平","lat":35.280151,"lng":136.739811,"zip":"4940012"},{"town":"西五城","koaza":"上切","lat":35.302968,"lng":136.740834,"zip":"4940005"},{"town":"西五城","koaza":"杁先南","lat":35.300141,"lng":136.740628,"zip":"4940005"},{"town":"冨田","koaza":"宮東","lat":35.294581,"lng":136.741099,"zip":"4940018"},{"town":"明地","koaza":"下柳之内","lat":35.281799,"lng":136.740465,"zip":"4940012"},{"town":"起","koaza":"本陣山","lat":35.312994,"lng":136.74091,"zip":"4940006"},{"town":"明地","koaza":"鞆","lat":35.275454,"lng":136.741268,"zip":"4940012"},{"town":"明地","koaza":"東下平","lat":35.276907,"lng":136.741505,"zip":"4940012"},{"town":"玉野","koaza":"下新田","lat":35.260513,"lng":136.742193,"zip":"4940013"},{"town":"明地","koaza":"中屋敷","lat":35.278954,"lng":136.741599,"zip":"4940012"},{"town":"明地","koaza":"山中西","lat":35.279507,"lng":136.740944,"zip":"4940012"},{"town":"玉野","koaza":"大崎","lat":35.272611,"lng":136.741195,"zip":"4940013"},{"town":"玉野","koaza":"蓮池","lat":35.271635,"lng":136.74132,"zip":"4940013"},{"town":"西萩原","koaza":"若宮前","lat":35.287126,"lng":136.742715,"zip":"4940011"},{"town":"玉野","koaza":"中山","lat":35.262974,"lng":136.741175,"zip":"4940013"},{"town":"起","koaza":"東茜屋","lat":35.30906,"lng":136.742205,"zip":"4940006"},{"town":"西五城","koaza":"大下","lat":35.296256,"lng":136.74328,"zip":"4940005"},{"town":"蓮池","koaza":"郷東","lat":35.289778,"lng":136.74199,"zip":"4940019"},{"town":"起","koaza":"与三ケ巻","lat":35.310835,"lng":136.742161,"zip":"4940006"},{"town":"玉野","koaza":"山","lat":35.261797,"lng":136.74221,"zip":"4940013"},{"town":"小信中島","koaza":"柳枯草場","lat":35.316173,"lng":136.741993,"zip":"4940007"},{"town":"蓮池","koaza":"上長池","lat":35.293823,"lng":136.742327,"zip":"4940019"},{"town":"蓮池","koaza":"下長池","lat":35.292162,"lng":136.741692,"zip":"4940019"},{"town":"西五城","koaza":"中切","lat":35.300192,"lng":136.742091,"zip":"4940005"},{"town":"玉野","koaza":"北西","lat":35.274523,"lng":136.741679,"zip":"4940013"},{"town":"明地","koaza":"山中","lat":35.279644,"lng":136.743105,"zip":"4940012"},{"town":"西五城","koaza":"中川田","lat":35.302509,"lng":136.743192,"zip":"4940005"},{"town":"玉野","koaza":"長島","lat":35.26586,"lng":136.742923,"zip":"4940013"},{"town":"明地","koaza":"南古城","lat":35.280987,"lng":136.743747,"zip":"4940012"},{"town":"玉野","koaza":"中瀬古","lat":35.268857,"lng":136.744026,"zip":"4940013"},{"town":"小信中島","koaza":"西鵜飼分","lat":35.313394,"lng":136.742752,"zip":"4940007"},{"town":"玉野","koaza":"冨士裏","lat":35.263531,"lng":136.743285,"zip":"4940013"},{"town":"玉野","koaza":"前畑","lat":35.271702,"lng":136.744073,"zip":"4940013"},{"town":"玉野","koaza":"杁ノ戸","lat":35.26438,"lng":136.743411,"zip":"4940013"},{"town":"玉野","koaza":"裏葭野","lat":35.270606,"lng":136.744157,"zip":"4940013"},{"town":"玉野","koaza":"塚原","lat":35.272689,"lng":136.744413,"zip":"4940013"},{"town":"玉野","koaza":"郷前","lat":35.267171,"lng":136.743224,"zip":"4940013"},{"town":"蓮池","koaza":"首池","lat":35.295207,"lng":136.742948,"zip":"4940019"},{"town":"小信中島","koaza":"下郷西","lat":35.307835,"lng":136.743379,"zip":"4940007"},{"town":"小信中島","koaza":"宮前","lat":35.318354,"lng":136.743424,"zip":"4940007"},{"town":"明地","koaza":"鞆浦","lat":35.275498,"lng":136.743826,"zip":"4940012"},{"town":"小信中島","koaza":"東屋敷","lat":35.316469,"lng":136.744696,"zip":"4940007"},{"town":"西萩原","koaza":"西浦","lat":35.291987,"lng":136.745204,"zip":"4940011"},{"town":"西五城","koaza":"下切","lat":35.297347,"lng":136.74445,"zip":"4940005"},{"town":"明地","koaza":"油屋前","lat":35.278164,"lng":136.744261,"zip":"4940012"},{"town":"小信中島","koaza":"上郷西","lat":35.309421,"lng":136.743874,"zip":"4940007"},{"town":"西萩原","koaza":"八幡西","lat":35.293937,"lng":136.744594,"zip":"4940011"},{"town":"小信中島","koaza":"北平口","lat":35.317488,"lng":136.744703,"zip":"4940007"},{"town":"明地","koaza":"金屋敷","lat":35.283415,"lng":136.744599,"zip":"4940012"},{"town":"西萩原","koaza":"下屋敷","lat":35.28874,"lng":136.744304,"zip":"4940011"},{"town":"北今","koaza":"西田面一ノ切","lat":35.296009,"lng":136.745702,"zip":"4940004"},{"town":"小信中島","koaza":"郷中","lat":35.309788,"lng":136.746475,"zip":"4940007"},{"town":"玉野","koaza":"郷裏","lat":35.268816,"lng":136.745612,"zip":"4940013"},{"town":"西五城","koaza":"飛石北","lat":35.299241,"lng":136.74465,"zip":"4940005"},{"town":"玉野","koaza":"涜漉","lat":35.263928,"lng":136.74589,"zip":"4940013"},{"town":"西萩原","koaza":"中道","lat":35.290846,"lng":136.745077,"zip":"4940011"},{"town":"小信中島","koaza":"中平","lat":35.315189,"lng":136.744695,"zip":"4940007"},{"town":"東五城","koaza":"若宮","lat":35.305097,"lng":136.744802,"zip":"4940008"},{"town":"小信中島","koaza":"西山","lat":35.319968,"lng":136.745021,"zip":"4940007"},{"town":"東五城","koaza":"寺廓","lat":35.301558,"lng":136.745092,"zip":"4940008"},{"town":"東五城","koaza":"若宮前","lat":35.303699,"lng":136.744248,"zip":"4940008"},{"town":"小信中島","koaza":"郷西","lat":35.322142,"lng":136.745394,"zip":"4940007"},{"town":"明地","koaza":"鞆東","lat":35.2763,"lng":136.745469,"zip":"4940012"},{"town":"小信中島","koaza":"郷北","lat":35.310782,"lng":136.745464,"zip":"4940007"},{"town":"小信中島","koaza":"郷南","lat":35.307816,"lng":136.747305,"zip":"4940007"},{"town":"小信中島","koaza":"東鵜飼分","lat":35.312258,"lng":136.744386,"zip":"4940007"},{"town":"西萩原","koaza":"八幡東","lat":35.293463,"lng":136.745671,"zip":"4940011"},{"town":"明地","koaza":"寺浦","lat":35.281293,"lng":136.746498,"zip":"4940012"},{"town":"明地","koaza":"宮跡","lat":35.278111,"lng":136.745406,"zip":"4940012"},{"town":"明地","koaza":"宮崎田","lat":35.270498,"lng":136.747363,"zip":"4940012"},{"town":"東五城","koaza":"上出","lat":35.303699,"lng":136.745753,"zip":"4940008"},{"town":"小信中島","koaza":"南九反","lat":35.313728,"lng":136.744782,"zip":"4940007"},{"town":"玉野","koaza":"東瀬古","lat":35.266856,"lng":136.746804,"zip":"4940013"},{"town":"西萩原","koaza":"上伴内","lat":35.287306,"lng":136.746919,"zip":"4940011"},{"town":"西萩原","koaza":"妙楽寺前","lat":35.289857,"lng":136.745902,"zip":"4940011"},{"town":"東五城","koaza":"古川","lat":35.299874,"lng":136.7459,"zip":"4940008"},{"town":"東五城","koaza":"本郷","lat":35.301801,"lng":136.746438,"zip":"4940008"},{"town":"西五城","koaza":"荒子中切","lat":35.297078,"lng":136.747695,"zip":"4940005"},{"town":"明地","koaza":"蛇山","lat":35.279789,"lng":136.745955,"zip":"4940012"},{"town":"明地","koaza":"社宮地","lat":35.285196,"lng":136.746361,"zip":"4940012"},{"town":"玉野","koaza":"中新田","lat":35.263247,"lng":136.747908,"zip":"4940013"},{"town":"小信中島","koaza":"北東山","lat":35.320009,"lng":136.746538,"zip":"4940007"},{"town":"奥町","koaza":"下川田","lat":35.323204,"lng":136.746968,"zip":"4910201"},{"town":"小信中島","koaza":"南平口","lat":35.316719,"lng":136.747226,"zip":"4940007"},{"town":"小信中島","koaza":"川東","lat":35.312318,"lng":136.746895,"zip":"4940007"},{"town":"奥町","koaza":"堤下一","lat":35.327617,"lng":136.747913,"zip":"4910201"},{"town":"明地","koaza":"新田中切","lat":35.279641,"lng":136.747476,"zip":"4940012"},{"town":"東五城","koaza":"西大堀","lat":35.300685,"lng":136.746932,"zip":"4940008"},{"town":"東五城","koaza":"南田尾","lat":35.30415,"lng":136.747621,"zip":"4940008"},{"town":"北今","koaza":"西田面二ノ切","lat":35.295431,"lng":136.747442,"zip":"4940004"},{"town":"東五城","koaza":"南大堀","lat":35.300239,"lng":136.747698,"zip":"4940008"},{"town":"明地","koaza":"中切","lat":35.28236,"lng":136.747518,"zip":"4940012"},{"town":"東五城","koaza":"下出","lat":35.29927,"lng":136.746887,"zip":"4940008"},{"town":"西萩原","koaza":"中沼","lat":35.288211,"lng":136.748553,"zip":"4940011"},{"town":"西萩原","koaza":"東浦","lat":35.291705,"lng":136.746933,"zip":"4940011"},{"town":"萩原町串作","koaza":"古川新田","lat":35.276712,"lng":136.748677,"zip":"4910376"},{"town":"明地","koaza":"東切","lat":35.281266,"lng":136.747526,"zip":"4940012"},{"town":"小信中島","koaza":"郷東","lat":35.309877,"lng":136.748564,"zip":"4940007"},{"town":"明地","koaza":"丼","lat":35.283256,"lng":136.74675,"zip":"4940012"},{"town":"明地","koaza":"庵寺前","lat":35.283259,"lng":136.748657,"zip":"4940012"},{"town":"小信中島","koaza":"西九反","lat":35.31396,"lng":136.747257,"zip":"4940007"},{"town":"玉野","koaza":"渕ケ巻","lat":35.264946,"lng":136.747577,"zip":"4940013"},{"town":"東五城","koaza":"三味廓","lat":35.302672,"lng":136.747656,"zip":"4940008"},{"town":"西萩原","koaza":"上沼","lat":35.289811,"lng":136.748825,"zip":"4940011"},{"town":"奥町","koaza":"内込","lat":35.325139,"lng":136.748149,"zip":"4910201"},{"town":"萩原町戸苅","koaza":"酉新田","lat":35.273865,"lng":136.747221,"zip":"4910375"},{"town":"萩原町戸苅","koaza":"古川","lat":35.273043,"lng":136.747533,"zip":"4910375"},{"town":"西萩原","koaza":"大池","lat":35.292925,"lng":136.747712,"zip":"4940011"},{"town":"小信中島","koaza":"二ツ屋","lat":35.320065,"lng":136.747677,"zip":"4940007"},{"town":"玉野","koaza":"南野方","lat":35.267912,"lng":136.748034,"zip":"4940013"},{"town":"玉野","koaza":"北野方","lat":35.268521,"lng":136.748427,"zip":"4940013"},{"town":"小信中島","koaza":"郷浦","lat":35.321661,"lng":136.747973,"zip":"4940007"},{"town":"萩原町戸苅","koaza":"北河原","lat":35.274544,"lng":136.749056,"zip":"4910375"},{"town":"萩原町戸苅","koaza":"南河原","lat":35.272293,"lng":136.750406,"zip":"4910375"},{"town":"玉野","koaza":"河端","lat":35.266392,"lng":136.749271,"zip":"4940013"},{"town":"明地","koaza":"新田橋下","lat":35.282155,"lng":136.749604,"zip":"4940012"},{"town":"西萩原","koaza":"神明前","lat":35.292539,"lng":136.748913,"zip":"4940011"},{"town":"奥町","koaza":"宮南","lat":35.326486,"lng":136.74894,"zip":"4910201"},{"town":"小信中島","koaza":"萱場","lat":35.319878,"lng":136.748697,"zip":"4940007"},{"town":"萩原町萩原","koaza":"橋下","lat":35.28103,"lng":136.750613,"zip":"4910353"},{"town":"北今","koaza":"葭山","lat":35.294851,"lng":136.749833,"zip":"4940004"},{"town":"東五城","koaza":"出先","lat":35.299824,"lng":136.748943,"zip":"4940008"},{"town":"明地","koaza":"風張","lat":35.284908,"lng":136.74883,"zip":"4940012"},{"town":"小信中島","koaza":"川南","lat":35.308369,"lng":136.749877,"zip":"4940007"},{"town":"奥町","koaza":"蘇東","lat":35.323838,"lng":136.750538,"zip":"4910201"},{"town":"玉野","koaza":"上新田","lat":35.265383,"lng":136.750311,"zip":"4940013"},{"town":"奥町","koaza":"風田","lat":35.325926,"lng":136.751657,"zip":"4910201"},{"town":"萩原町築込","koaza":"西古川","lat":35.26961,"lng":136.750038,"zip":"4910374"},{"town":"小信中島","koaza":"新田前","lat":35.316926,"lng":136.750755,"zip":"4940007"},{"town":"東五城","koaza":"北作野","lat":35.301488,"lng":136.749948,"zip":"4940008"},{"town":"小信中島","koaza":"西五反田","lat":35.313976,"lng":136.749798,"zip":"4940007"},{"town":"小信中島","koaza":"東鵯平","lat":35.312292,"lng":136.751,"zip":"4940007"},{"town":"萩原町串作","koaza":"蛇塚","lat":35.278249,"lng":136.749841,"zip":"4910376"},{"town":"萩原町萩原","koaza":"西出","lat":35.279967,"lng":136.75095,"zip":"4910353"},{"town":"奥町","koaza":"堤下二","lat":35.327993,"lng":136.75025,"zip":"4910201"},{"town":"東五城","koaza":"大平裏","lat":35.307406,"lng":136.751044,"zip":"4940008"},{"town":"開明","koaza":"杁先","lat":35.322371,"lng":136.750538,"zip":"4940001"},{"town":"萩原町築込","koaza":"東古川","lat":35.269121,"lng":136.750783,"zip":"4910374"},{"town":"明地","koaza":"新田橋上南","lat":35.284185,"lng":136.750292,"zip":"4940012"},{"town":"西萩原","koaza":"下出","lat":35.288034,"lng":136.750464,"zip":"4940011"},{"town":"北今","koaza":"十八丁三ノ切","lat":35.293685,"lng":136.75106,"zip":"4940004"},{"town":"西萩原","koaza":"葭山","lat":35.289718,"lng":136.751032,"zip":"4940011"},{"town":"萩原町串作","koaza":"南方","lat":35.276562,"lng":136.750738,"zip":"4910376"},{"town":"萩原町戸苅","koaza":"西浦","lat":35.274744,"lng":136.750805,"zip":"4910375"},{"town":"萩原町串作","koaza":"北方","lat":35.278156,"lng":136.750618,"zip":"4910376"},{"town":"三条","koaza":"大平","lat":35.305282,"lng":136.750562,"zip":"4940003"},{"town":"三条","koaza":"西蛭子","lat":35.299695,"lng":136.752084,"zip":"4940003"},{"town":"三条","koaza":"今泉","lat":35.303926,"lng":136.751254,"zip":"4940003"},{"town":"奥町","koaza":"川並東","lat":35.327448,"lng":136.75194,"zip":"4910201"},{"town":"萩原町戸苅","koaza":"山下","lat":35.272048,"lng":136.751477,"zip":"4910375"},{"town":"萩原町戸苅","koaza":"杉林","lat":35.273544,"lng":136.751383,"zip":"4910375"},{"town":"萩原町萩原","koaza":"橋上","lat":35.284255,"lng":136.752317,"zip":"4910353"},{"town":"北今","koaza":"苗代三ノ切","lat":35.295057,"lng":136.751607,"zip":"4940004"},{"town":"萩原町戸苅","koaza":"本郷屋敷","lat":35.274905,"lng":136.752606,"zip":"4910375"},{"town":"萩原町串作","koaza":"荒神","lat":35.275703,"lng":136.753534,"zip":"4910376"},{"town":"萩原町串作","koaza":"荒神浦","lat":35.276482,"lng":136.752927,"zip":"4910376"},{"town":"萩原町築込","koaza":"丸古場","lat":35.269787,"lng":136.753415,"zip":"4910374"},{"town":"萩原町串作","koaza":"天神","lat":35.277952,"lng":136.752597,"zip":"4910376"},{"town":"開明","koaza":"乾土","lat":35.318645,"lng":136.753408,"zip":"4940001"},{"town":"奥町","koaza":"郷中江東","lat":35.326093,"lng":136.753987,"zip":"4910201"},{"town":"小信中島","koaza":"仁井西","lat":35.3099,"lng":136.752289,"zip":"4940007"},{"town":"萩原町萩原","koaza":"下町","lat":35.279621,"lng":136.754244,"zip":"4910353"},{"town":"萩原町萩原","koaza":"上町","lat":35.282121,"lng":136.752332,"zip":"4910353"},{"town":"北今","koaza":"苗代一ノ切","lat":35.29319,"lng":136.753785,"zip":"4940004"},{"town":"奥町","koaza":"野方","lat":35.329904,"lng":136.753987,"zip":"4910201"},{"town":"萩原町戸苅","koaza":"落段","lat":35.270851,"lng":136.753444,"zip":"4910375"},{"town":"萩原町築込","koaza":"河戸","lat":35.266785,"lng":136.753065,"zip":"4910374"},{"town":"萩原町戸苅","koaza":"中之切","lat":35.271786,"lng":136.753154,"zip":"4910375"},{"town":"萩原町戸苅","koaza":"御拂","lat":35.272527,"lng":136.752455,"zip":"4910375"},{"town":"木曽川町玉ノ井","koaza":"砂割","lat":35.331829,"lng":136.752782,"zip":"4930004"},{"town":"萩原町築込","koaza":"中屋敷","lat":35.2686,"lng":136.753765,"zip":"4910374"},{"town":"萩原町戸苅","koaza":"本郷前","lat":35.273909,"lng":136.75352,"zip":"4910375"},{"town":"萩原町築込","koaza":"砂先","lat":35.267872,"lng":136.754378,"zip":"4910374"},{"town":"萩原町萩原","koaza":"寺屋敷","lat":35.284003,"lng":136.754668,"zip":"4910353"},{"town":"木曽川町玉ノ井","koaza":"土腐","lat":35.332417,"lng":136.753185,"zip":"4930004"},{"town":"奥町","koaza":"加古穂","lat":35.32385,"lng":136.753396,"zip":"4910201"},{"town":"開明","koaza":"出屋敷","lat":35.320314,"lng":136.752147,"zip":"4940001"},{"town":"開明","koaza":"絹屋田","lat":35.317036,"lng":136.752196,"zip":"4940001"},{"town":"木曽川町玉ノ井","koaza":"野方浦","lat":35.331148,"lng":136.754411,"zip":"4930004"},{"town":"開明","koaza":"畑添","lat":35.315566,"lng":136.753479,"zip":"4940001"},{"town":"三条","koaza":"野間","lat":35.314011,"lng":136.753483,"zip":"4940003"},{"town":"萩原町串作","koaza":"水絶","lat":35.277855,"lng":136.753537,"zip":"4910376"},{"town":"三条","koaza":"墓北","lat":35.306249,"lng":136.753554,"zip":"4940003"},{"town":"木曽川町玉ノ井","koaza":"大縄場一ノ切","lat":35.334417,"lng":136.753796,"zip":"4930004"},{"town":"萩原町萩原","koaza":"替土","lat":35.282785,"lng":136.755492,"zip":"4910353"},{"town":"萩原町朝宮","koaza":"河原","lat":35.288641,"lng":136.753934,"zip":"4910354"},{"town":"萩原町萩原","koaza":"御茶屋","lat":35.281194,"lng":136.754064,"zip":"4910353"},{"town":"奥町","koaza":"下口西","lat":35.328041,"lng":136.756274,"zip":"4910201"},{"town":"北今","koaza":"堀田","lat":35.291705,"lng":136.755593,"zip":"4940004"},{"town":"北今","koaza":"下渡","lat":35.295925,"lng":136.754704,"zip":"4940004"},{"town":"木曽川町玉ノ井","koaza":"柳原","lat":35.333429,"lng":136.755713,"zip":"4930004"},{"town":"萩原町串作","koaza":"女郎花","lat":35.277768,"lng":136.754426,"zip":"4910376"},{"town":"萩原町戸苅","koaza":"上畑","lat":35.272817,"lng":136.75406,"zip":"4910375"},{"town":"小信中島","koaza":"仁井北","lat":35.310964,"lng":136.754551,"zip":"4940007"},{"town":"萩原町戸苅","koaza":"滝用水西","lat":35.274731,"lng":136.754516,"zip":"4910375"},{"town":"東五城","koaza":"備前","lat":35.309917,"lng":136.754763,"zip":"4940008"},{"town":"東五城","koaza":"祐久野","lat":35.303052,"lng":136.753591,"zip":"4940008"},{"town":"萩原町萩原","koaza":"松山","lat":35.287028,"lng":136.754157,"zip":"4910353"},{"town":"萩原町萩原","koaza":"古井溝","lat":35.280634,"lng":136.755084,"zip":"4910353"},{"town":"北今","koaza":"再鳥一","lat":35.294308,"lng":136.756244,"zip":"4940004"},{"town":"萩原町朝宮","koaza":"下平","lat":35.289726,"lng":136.755931,"zip":"4910354"},{"town":"萩原町築込","koaza":"生出浦","lat":35.267404,"lng":136.755075,"zip":"4910374"},{"town":"萩原町築込","koaza":"野中","lat":35.268516,"lng":136.755475,"zip":"4910374"},{"town":"奥町","koaza":"芝原","lat":35.325519,"lng":136.757058,"zip":"4910201"},{"town":"木曽川町玉ノ井","koaza":"大縄場三ノ切","lat":35.335869,"lng":136.755495,"zip":"4930004"},{"town":"三条","koaza":"高三味","lat":35.304638,"lng":136.755125,"zip":"4940003"},{"town":"三条","koaza":"郷西","lat":35.299941,"lng":136.754754,"zip":"4940003"},{"town":"萩原町串作","koaza":"平","lat":35.27535,"lng":136.756142,"zip":"4910376"},{"town":"木曽川町玉ノ井","koaza":"四ツ辻西","lat":35.332102,"lng":136.755564,"zip":"4930004"},{"town":"東五城","koaza":"東備前","lat":35.309931,"lng":136.755879,"zip":"4940008"},{"town":"萩原町高松","koaza":"西郷裏","lat":35.272302,"lng":136.756148,"zip":"4910373"},{"town":"奥町","koaza":"野越","lat":35.323929,"lng":136.757091,"zip":"4910201"},{"town":"開明","koaza":"西出","lat":35.322135,"lng":136.757106,"zip":"4940001"},{"town":"北今","koaza":"地蔵跡","lat":35.296401,"lng":136.756205,"zip":"4940004"},{"town":"開明","koaza":"樋西","lat":35.320301,"lng":136.757398,"zip":"4940001"},{"town":"木曽川町玉ノ井","koaza":"大縄場四ノ切","lat":35.336516,"lng":136.755978,"zip":"4930004"},{"town":"開明","koaza":"東沼","lat":35.318687,"lng":136.758388,"zip":"4940001"},{"town":"開明","koaza":"村上","lat":35.317075,"lng":136.757172,"zip":"4940001"},{"town":"萩原町串作","koaza":"才勝","lat":35.277788,"lng":136.755842,"zip":"4910376"},{"town":"萩原町朝宮","koaza":"山東","lat":35.287724,"lng":136.755902,"zip":"4910354"},{"town":"三条","koaza":"四反田","lat":35.312828,"lng":136.755498,"zip":"4940003"},{"town":"萩原町朝宮","koaza":"神明前","lat":35.289084,"lng":136.756682,"zip":"4910354"},{"town":"萩原町高松","koaza":"川田","lat":35.271109,"lng":136.75572,"zip":"4910373"},{"town":"三条","koaza":"屋敷","lat":35.313532,"lng":136.756609,"zip":"4940003"},{"town":"木曽川町玉ノ井","koaza":"新屋敷五ノ切","lat":35.334422,"lng":136.756183,"zip":"4930004"},{"town":"萩原町高松","koaza":"高松","lat":35.270987,"lng":136.755453,"zip":"4910373"},{"town":"三条","koaza":"中","lat":35.305146,"lng":136.756382,"zip":"4940003"},{"town":"萩原町萩原","koaza":"河原崎","lat":35.280332,"lng":136.75767,"zip":"4910353"},{"town":"萩原町滝","koaza":"北平","lat":35.274298,"lng":136.756395,"zip":"4910372"},{"town":"萩原町萩原","koaza":"高畑","lat":35.284656,"lng":136.756558,"zip":"4910353"},{"town":"三条","koaza":"酉新田","lat":35.299441,"lng":136.757364,"zip":"4940003"},{"town":"木曽川町玉ノ井","koaza":"大縄場六ノ切","lat":35.337939,"lng":136.757186,"zip":"4930004"},{"town":"萩原町串作","koaza":"荒神田面","lat":35.277237,"lng":136.756521,"zip":"4910376"},{"town":"北今","koaza":"小家","lat":35.296281,"lng":136.7576,"zip":"4940004"},{"town":"木曽川町玉ノ井","koaza":"四ツ辻東","lat":35.331699,"lng":136.756648,"zip":"4930004"},{"town":"奥町","koaza":"三出西","lat":35.329497,"lng":136.758125,"zip":"4910201"},{"town":"萩原町朝宮","koaza":"嫁振","lat":35.290766,"lng":136.757208,"zip":"4910354"},{"town":"萩原町高松","koaza":"東郷裏西ノ切","lat":35.272191,"lng":136.757091,"zip":"4910373"},{"town":"北今","koaza":"定納","lat":35.292544,"lng":136.758037,"zip":"4940004"},{"town":"三条","koaza":"通","lat":35.307169,"lng":136.756868,"zip":"4940003"},{"town":"三条","koaza":"道東","lat":35.309938,"lng":136.757239,"zip":"4940003"},{"town":"三条","koaza":"郷南西","lat":35.305679,"lng":136.758276,"zip":"4940003"},{"town":"三条","koaza":"山","lat":35.303083,"lng":136.757329,"zip":"4940003"},{"town":"萩原町高松","koaza":"地蔵前","lat":35.270844,"lng":136.757451,"zip":"4910373"},{"town":"北今","koaza":"林一ノ切","lat":35.29429,"lng":136.758293,"zip":"4940004"},{"town":"萩原町串作","koaza":"下口","lat":35.275075,"lng":136.757322,"zip":"4910376"},{"town":"木曽川町玉ノ井","koaza":"大縄場七ノ切","lat":35.338628,"lng":136.758062,"zip":"4930004"},{"town":"木曽川町玉ノ井","koaza":"新屋敷四ノ切","lat":35.336119,"lng":136.757911,"zip":"4930004"},{"town":"木曽川町玉ノ井","koaza":"古井田","lat":35.334447,"lng":136.758235,"zip":"4930004"},{"town":"木曽川町玉ノ井","koaza":"蒲池","lat":35.332962,"lng":136.757519,"zip":"4930004"},{"town":"萩原町萩原","koaza":"友重","lat":35.283305,"lng":136.758114,"zip":"4910353"},{"town":"萩原町萩原","koaza":"南友重","lat":35.281644,"lng":136.757426,"zip":"4910353"},{"town":"萩原町朝宮","koaza":"中道","lat":35.28717,"lng":136.757685,"zip":"4910354"},{"town":"萩原町萩原","koaza":"山越","lat":35.284425,"lng":136.75824,"zip":"4910353"},{"town":"萩原町朝宮","koaza":"狐土居","lat":35.287686,"lng":136.75871,"zip":"4910354"},{"town":"萩原町串作","koaza":"流","lat":35.276915,"lng":136.758363,"zip":"4910376"},{"town":"北今","koaza":"再鳥二ノ切","lat":35.295287,"lng":136.758512,"zip":"4940004"},{"town":"奥町","koaza":"薬師","lat":35.328473,"lng":136.759042,"zip":"4910201"},{"town":"奥町","koaza":"貴船","lat":35.327677,"lng":136.758919,"zip":"4910201"},{"town":"萩原町朝宮","koaza":"宮前","lat":35.289449,"lng":136.759647,"zip":"4910354"},{"town":"萩原町萩原","koaza":"南大畔","lat":35.278859,"lng":136.75865,"zip":"4910353"},{"town":"萩原町高松","koaza":"東郷裏","lat":35.271593,"lng":136.757999,"zip":"4910373"},{"town":"三条","koaza":"江向","lat":35.313623,"lng":136.759386,"zip":"4940003"},{"town":"三条","koaza":"下り戸","lat":35.312109,"lng":136.759725,"zip":"4940003"},{"town":"木曽川町玉ノ井","koaza":"大縄場九ノ切","lat":35.340099,"lng":136.759131,"zip":"4930004"},{"town":"萩原町滝","koaza":"戌亥出","lat":35.273938,"lng":136.758177,"zip":"4910372"},{"town":"木曽川町玉ノ井","koaza":"大縄場十ノ切","lat":35.340967,"lng":136.759146,"zip":"4930004"},{"town":"北今","koaza":"再鳥三","lat":35.296969,"lng":136.758503,"zip":"4940004"},{"town":"木曽川町玉ノ井","koaza":"三出浦","lat":35.331652,"lng":136.758872,"zip":"4930004"},{"town":"木曽川町玉ノ井","koaza":"宮前","lat":35.335445,"lng":136.759653,"zip":"4930004"},{"town":"木曽川町玉ノ井","koaza":"新屋敷三ノ切","lat":35.337308,"lng":136.758999,"zip":"4930004"},{"town":"木曽川町玉ノ井","koaza":"高畑","lat":35.332967,"lng":136.758468,"zip":"4930004"},{"town":"木曽川町里小牧","koaza":"砂ノ口","lat":35.342419,"lng":136.759897,"zip":"4930005"},{"town":"奥町","koaza":"貴船前","lat":35.325598,"lng":136.759867,"zip":"4910201"},{"town":"三条","koaza":"苅","lat":35.306503,"lng":136.758866,"zip":"4940003"},{"town":"三条","koaza":"北平","lat":35.301915,"lng":136.759328,"zip":"4940003"},{"town":"三条","koaza":"郷内西","lat":35.300609,"lng":136.759859,"zip":"4940003"},{"town":"萩原町串作","koaza":"西沖","lat":35.276944,"lng":136.759377,"zip":"4910376"},{"town":"萩原町萩原","koaza":"西大畔","lat":35.280377,"lng":136.759805,"zip":"4910353"},{"town":"萩原町串作","koaza":"小折","lat":35.275047,"lng":136.759433,"zip":"4910376"},{"town":"奥町","koaza":"三出","lat":35.330506,"lng":136.760732,"zip":"4910201"},{"town":"北今","koaza":"川原","lat":35.29334,"lng":136.759907,"zip":"4940004"},{"town":"萩原町朝宮","koaza":"産明神","lat":35.287538,"lng":136.759394,"zip":"4910354"},{"town":"三条","koaza":"新","lat":35.306443,"lng":136.760006,"zip":"4940003"},{"town":"三条","koaza":"賀","lat":35.309257,"lng":136.761034,"zip":"4940003"},{"town":"木曽川町玉ノ井","koaza":"穴太部","lat":35.337612,"lng":136.761192,"zip":"4930004"},{"town":"萩原町朝宮","koaza":"宮西","lat":35.290338,"lng":136.759767,"zip":"4910354"},{"town":"木曽川町玉ノ井","koaza":"新屋敷二ノ切","lat":35.338556,"lng":136.760633,"zip":"4930004"},{"town":"萩原町朝宮","koaza":"神ノ木","lat":35.287173,"lng":136.761202,"zip":"4910354"},{"town":"萩原町朝宮","koaza":"朝宮前","lat":35.285504,"lng":136.76087,"zip":"4910354"},{"town":"北今","koaza":"林二ノ切","lat":35.294648,"lng":136.760617,"zip":"4940004"},{"town":"萩原町朝宮","koaza":"芦山","lat":35.294375,"lng":136.762164,"zip":"4910354"},{"town":"木曽川町玉ノ井","koaza":"稲荷前","lat":35.332706,"lng":136.761588,"zip":"4930004"},{"town":"萩原町萩原","koaza":"押切","lat":35.28436,"lng":136.760866,"zip":"4910353"},{"town":"開明","koaza":"郷中","lat":35.321444,"lng":136.76079,"zip":"4940001"},{"town":"木曽川町里小牧","koaza":"下町場","lat":35.345498,"lng":136.760381,"zip":"4930005"},{"town":"三条","koaza":"郷南東","lat":35.305626,"lng":136.760497,"zip":"4940003"},{"town":"木曽川町玉ノ井","koaza":"宮東","lat":35.335675,"lng":136.761144,"zip":"4930004"},{"town":"奥町","koaza":"貴船東","lat":35.328422,"lng":136.760414,"zip":"4910201"},{"town":"北今","koaza":"林三ノ切","lat":35.295992,"lng":136.760847,"zip":"4940004"},{"town":"木曽川町里小牧","koaza":"吹寄洲","lat":35.354654,"lng":136.762071,"zip":"4930005"},{"town":"萩原町萩原","koaza":"県","lat":35.283418,"lng":136.760853,"zip":"4910353"},{"town":"萩原町串作","koaza":"東沖","lat":35.276969,"lng":136.760425,"zip":"4910376"},{"town":"奥町","koaza":"甚四前","lat":35.326195,"lng":136.761238,"zip":"4910201"},{"town":"木曽川町玉ノ井","koaza":"新屋敷一ノ切","lat":35.339527,"lng":136.761991,"zip":"4930004"},{"town":"開明","koaza":"前脇","lat":35.31863,"lng":136.761869,"zip":"4940001"},{"town":"開明","koaza":"新田郷","lat":35.315624,"lng":136.760948,"zip":"4940001"},{"town":"開明","koaza":"西池田","lat":35.31365,"lng":136.760971,"zip":"4940001"},{"town":"開明","koaza":"蒲原","lat":35.31214,"lng":136.762222,"zip":"4940001"},{"town":"萩原町萩原","koaza":"東大畔","lat":35.280318,"lng":136.760872,"zip":"4910353"},{"town":"奥町","koaza":"南目草","lat":35.324279,"lng":136.762758,"zip":"4910201"},{"town":"木曽川町里小牧","koaza":"笹原","lat":35.35014,"lng":136.762282,"zip":"4930005"},{"town":"西五城","koaza":"板倉前西切","lat":35.298327,"lng":136.759905,"zip":"4940005"},{"town":"木曽川町里小牧","koaza":"新茅場","lat":35.344272,"lng":136.761714,"zip":"4930005"},{"town":"三条","koaza":"田","lat":35.307326,"lng":136.761791,"zip":"4940003"},{"town":"萩原町萩原","koaza":"二子西","lat":35.281036,"lng":136.761936,"zip":"4910353"},{"town":"木曽川町玉ノ井","koaza":"稲荷浦","lat":35.33382,"lng":136.761583,"zip":"4930004"},{"town":"萩原町西御堂","koaza":"土根","lat":35.266052,"lng":136.762264,"zip":"4910365"},{"town":"萩原町朝宮","koaza":"茶園","lat":35.288518,"lng":136.762315,"zip":"4910354"},{"town":"萩原町串作","koaza":"前田面","lat":35.276994,"lng":136.761496,"zip":"4910376"},{"town":"萩原町朝宮","koaza":"寺裏","lat":35.291235,"lng":136.762388,"zip":"4910354"},{"town":"萩原町串作","koaza":"滝浦","lat":35.274665,"lng":136.763099,"zip":"4910376"},{"town":"萩原町滝","koaza":"北裡","lat":35.274223,"lng":136.761684,"zip":"4910372"},{"town":"木曽川町玉ノ井","koaza":"寺西","lat":35.336343,"lng":136.762292,"zip":"4930004"},{"town":"萩原町滝","koaza":"内田","lat":35.272807,"lng":136.761947,"zip":"4910372"},{"town":"萩原町高木","koaza":"島田","lat":35.270575,"lng":136.760627,"zip":"4910371"},{"town":"奥町","koaza":"大切前","lat":35.328864,"lng":136.762173,"zip":"4910201"},{"town":"萩原町高木","koaza":"佐名坪","lat":35.268865,"lng":136.761722,"zip":"4910371"},{"town":"萩原町高木","koaza":"西川田","lat":35.267826,"lng":136.763749,"zip":"4910371"},{"town":"三条","koaza":"天神西","lat":35.303137,"lng":136.763132,"zip":"4940003"},{"town":"三条","koaza":"古川","lat":35.300649,"lng":136.761959,"zip":"4940003"},{"town":"木曽川町玉ノ井","koaza":"俣江田","lat":35.337946,"lng":136.762591,"zip":"4930004"},{"town":"木曽川町玉ノ井","koaza":"蓮池","lat":35.337118,"lng":136.76255,"zip":"4930004"},{"town":"奥町","koaza":"畑中","lat":35.326712,"lng":136.763005,"zip":"4910201"},{"town":"木曽川町里小牧","koaza":"上川原","lat":35.355127,"lng":136.763883,"zip":"4930005"},{"town":"三条","koaza":"ヱグロ","lat":35.308889,"lng":136.763512,"zip":"4940003"},{"town":"萩原町萩原","koaza":"庚申塚","lat":35.283517,"lng":136.763699,"zip":"4910353"},{"town":"萩原町朝宮","koaza":"宮東","lat":35.290157,"lng":136.76255,"zip":"4910354"},{"town":"北方町北方","koaza":"下宝江","lat":35.357237,"lng":136.762914,"zip":"4938001"},{"town":"木曽川町玉ノ井","koaza":"八尻","lat":35.333969,"lng":136.762987,"zip":"4930004"},{"town":"萩原町朝宮","koaza":"栄","lat":35.292478,"lng":136.763194,"zip":"4910354"},{"town":"木曽川町里小牧","koaza":"本茅場","lat":35.350016,"lng":136.762809,"zip":"4930005"},{"town":"三条","koaza":"小辰己","lat":35.304529,"lng":136.763127,"zip":"4940003"},{"town":"開明","koaza":"大橋西","lat":35.32243,"lng":136.763744,"zip":"4940001"},{"town":"萩原町串作","koaza":"郷","lat":35.278741,"lng":136.762367,"zip":"4910376"},{"town":"萩原町串作","koaza":"長田","lat":35.277029,"lng":136.762995,"zip":"4910376"},{"town":"木曽川町里小牧","koaza":"道路寺","lat":35.345561,"lng":136.76273,"zip":"4930005"},{"town":"萩原町花井方","koaza":"朝宮浦","lat":35.293786,"lng":136.763214,"zip":"4910351"},{"town":"萩原町萩原","koaza":"松田","lat":35.282161,"lng":136.76392,"zip":"4910353"},{"town":"萩原町滝","koaza":"西天水","lat":35.273541,"lng":136.763799,"zip":"4910372"},{"town":"萩原町花井方","koaza":"西天神","lat":35.299249,"lng":136.762591,"zip":"4910351"},{"town":"萩原町萩原","koaza":"大門前","lat":35.280991,"lng":136.763126,"zip":"4910353"},{"town":"三条","koaza":"田畑","lat":35.306366,"lng":136.763199,"zip":"4940003"},{"town":"萩原町朝宮","koaza":"長池","lat":35.287269,"lng":136.763189,"zip":"4910354"},{"town":"木曽川町三ツ法寺","koaza":"村内","lat":35.331592,"lng":136.764221,"zip":"4930003"},{"town":"木曽川町玉ノ井","koaza":"寺東","lat":35.336151,"lng":136.763916,"zip":"4930004"},{"town":"開明","koaza":"小原道東","lat":35.320242,"lng":136.763577,"zip":"4940001"},{"town":"萩原町花井方","koaza":"平前","lat":35.29957,"lng":136.763766,"zip":"4910351"},{"town":"開明","koaza":"教堂池","lat":35.315687,"lng":136.763744,"zip":"4940001"},{"town":"木曽川町里小牧","koaza":"西蒲原","lat":35.343784,"lng":136.763006,"zip":"4930005"},{"town":"開明","koaza":"北葭野","lat":35.314687,"lng":136.763746,"zip":"4940001"},{"town":"木曽川町里小牧","koaza":"武蔵野","lat":35.346014,"lng":136.764486,"zip":"4930005"},{"town":"萩原町花井方","koaza":"天神","lat":35.297815,"lng":136.763682,"zip":"4910351"},{"town":"萩原町花井方","koaza":"平","lat":35.300306,"lng":136.764023,"zip":"4910351"},{"town":"木曽川町玉ノ井","koaza":"道路寺","lat":35.339773,"lng":136.763191,"zip":"4930004"},{"town":"奥町","koaza":"丁田","lat":35.329991,"lng":136.763678,"zip":"4910201"},{"town":"奥町","koaza":"前沼","lat":35.328105,"lng":136.764248,"zip":"4910201"},{"town":"萩原町滝","koaza":"越前","lat":35.272743,"lng":136.763972,"zip":"4910372"},{"town":"木曽川町玉ノ井","koaza":"吉原道北","lat":35.33489,"lng":136.764222,"zip":"4930004"},{"town":"木曽川町玉ノ井","koaza":"辻廻","lat":35.332753,"lng":136.764707,"zip":"4930004"},{"town":"萩原町富田方","koaza":"西出","lat":35.290154,"lng":136.763578,"zip":"4910352"},{"town":"木曽川町里小牧","koaza":"神明東","lat":35.34804,"lng":136.763877,"zip":"4930005"},{"town":"萩原町串作","koaza":"東田面","lat":35.277824,"lng":136.764393,"zip":"4910376"},{"town":"木曽川町玉ノ井","koaza":"吉原西","lat":35.333423,"lng":136.764091,"zip":"4930004"},{"town":"萩原町串作","koaza":"天井","lat":35.275996,"lng":136.764167,"zip":"4910376"},{"town":"奥町","koaza":"県郭","lat":35.330217,"lng":136.764772,"zip":"4910201"},{"town":"萩原町富田方","koaza":"西の川","lat":35.287944,"lng":136.764793,"zip":"4910352"},{"town":"木曽川町玉ノ井","koaza":"池田","lat":35.339005,"lng":136.764377,"zip":"4930004"},{"town":"木曽川町里小牧","koaza":"東蒲原","lat":35.343637,"lng":136.763951,"zip":"4930005"},{"town":"萩原町富田方","koaza":"郷中","lat":35.290039,"lng":136.765072,"zip":"4910352"},{"town":"木曽川町里小牧","koaza":"砂越","lat":35.353172,"lng":136.764222,"zip":"4930005"},{"town":"萩原町萩原","koaza":"家老","lat":35.281214,"lng":136.764699,"zip":"4910353"},{"town":"三条","koaza":"芦山","lat":35.30185,"lng":136.765265,"zip":"4940003"},{"town":"萩原町萩原","koaza":"長池","lat":35.285331,"lng":136.763901,"zip":"4910353"},{"town":"北方町北方","koaza":"宝江新田","lat":35.359925,"lng":136.76599,"zip":"4938001"},{"town":"萩原町富田方","koaza":"酉新田","lat":35.292144,"lng":136.764276,"zip":"4910352"},{"town":"奥町","koaza":"上平池","lat":35.326897,"lng":136.764805,"zip":"4910201"},{"town":"萩原町花井方","koaza":"栄","lat":35.292904,"lng":136.764484,"zip":"4910351"},{"town":"萩原町花井方","koaza":"一本松","lat":35.294424,"lng":136.765449,"zip":"4910351"},{"town":"萩原町串作","koaza":"二子前","lat":35.280107,"lng":136.764443,"zip":"4910376"},{"town":"萩原町花井方","koaza":"宮前","lat":35.296407,"lng":136.764761,"zip":"4910351"},{"town":"三条","koaza":"郷東藤","lat":35.308883,"lng":136.76464,"zip":"4940003"},{"town":"萩原町花井方","koaza":"乾出","lat":35.29704,"lng":136.764709,"zip":"4910351"},{"town":"萩原町高木","koaza":"十三塚","lat":35.271749,"lng":136.764781,"zip":"4910371"},{"town":"木曽川町里小牧","koaza":"渡瀬","lat":35.350448,"lng":136.764933,"zip":"4930005"},{"town":"開明","koaza":"内沼","lat":35.320441,"lng":136.766695,"zip":"4940001"},{"town":"萩原町高木","koaza":"西出","lat":35.275086,"lng":136.764836,"zip":"4910371"},{"town":"開明","koaza":"宮西","lat":35.318733,"lng":136.76671,"zip":"4940001"},{"town":"木曽川町里小牧","koaza":"宮東","lat":35.35237,"lng":136.765842,"zip":"4930005"},{"town":"木曽川町玉ノ井","koaza":"春日井","lat":35.337702,"lng":136.765558,"zip":"4930004"},{"town":"萩原町高木","koaza":"蟹子","lat":35.273451,"lng":136.765188,"zip":"4910371"},{"town":"開明","koaza":"柳苗代","lat":35.31714,"lng":136.765449,"zip":"4940001"},{"town":"開明","koaza":"廻池郭","lat":35.321746,"lng":136.766623,"zip":"4940001"},{"town":"木曽川町里小牧","koaza":"川田","lat":35.347987,"lng":136.766167,"zip":"4930005"},{"town":"木曽川町里小牧","koaza":"小牧野","lat":35.344238,"lng":136.766493,"zip":"4930005"},{"town":"木曽川町里小牧","koaza":"社宮司","lat":35.341118,"lng":136.764992,"zip":"4930005"},{"town":"萩原町高木","koaza":"味噌屋","lat":35.274396,"lng":136.765422,"zip":"4910371"},{"town":"萩原町富田方","koaza":"流","lat":35.287316,"lng":136.765884,"zip":"4910352"},{"town":"萩原町富田方","koaza":"八剱","lat":35.285707,"lng":136.765567,"zip":"4910352"},{"town":"木曽川町外割田","koaza":"西郷西","lat":35.338895,"lng":136.765504,"zip":"4930007"},{"town":"萩原町萩原","koaza":"大日","lat":35.283507,"lng":136.765665,"zip":"4910353"},{"town":"木曽川町里小牧","koaza":"南渡瀬","lat":35.350101,"lng":136.766101,"zip":"4930005"},{"town":"開明","koaza":"墓所北","lat":35.313683,"lng":136.766551,"zip":"4940001"},{"town":"萩原町富田方","koaza":"茶原","lat":35.291585,"lng":136.766996,"zip":"4910352"},{"town":"開明","koaza":"愛宕北","lat":35.312165,"lng":136.766306,"zip":"4940001"},{"town":"木曽川町玉ノ井","koaza":"馬三味","lat":35.336089,"lng":136.766362,"zip":"4930004"},{"town":"萩原町花井方","koaza":"東天神","lat":35.299378,"lng":136.765772,"zip":"4910351"},{"town":"木曽川町外割田","koaza":"西片ノ池","lat":35.340508,"lng":136.766093,"zip":"4930007"},{"town":"開明","koaza":"大橋北","lat":35.314933,"lng":136.766275,"zip":"4940001"},{"town":"奥町","koaza":"七丁","lat":35.324403,"lng":136.767662,"zip":"4910201"},{"town":"木曽川町玉ノ井","koaza":"上流","lat":35.334644,"lng":136.765991,"zip":"4930004"},{"town":"奥町","koaza":"土桶","lat":35.325779,"lng":136.766773,"zip":"4910201"},{"town":"奥町","koaza":"川崎","lat":35.329211,"lng":136.766377,"zip":"4910201"},{"town":"萩原町萩原","koaza":"西ノ川","lat":35.283212,"lng":136.766892,"zip":"4910353"},{"town":"木曽川町玉ノ井","koaza":"下流","lat":35.333557,"lng":136.765989,"zip":"4930004"},{"town":"木曽川町三ツ法寺","koaza":"辻前","lat":35.331825,"lng":136.766252,"zip":"4930003"},{"town":"萩原町串作","koaza":"河室浦","lat":35.276383,"lng":136.76699,"zip":"4910376"},{"town":"萩原町串作","koaza":"河田","lat":35.279553,"lng":136.767304,"zip":"4910376"},{"town":"萩原町萩原","koaza":"三本木","lat":35.280935,"lng":136.766052,"zip":"4910353"},{"town":"萩原町高木","koaza":"中道","lat":35.273527,"lng":136.767084,"zip":"4910371"},{"town":"木曽川町外割田","koaza":"小牧境","lat":35.342023,"lng":136.766616,"zip":"4930007"},{"town":"木曽川町里小牧","koaza":"寺東","lat":35.352282,"lng":136.768968,"zip":"4930005"},{"town":"大和町福森","koaza":"宮前","lat":35.301632,"lng":136.76683,"zip":"4910935"},{"town":"萩原町富田方","koaza":"二子裏","lat":35.287293,"lng":136.766783,"zip":"4910352"},{"town":"北方町北方","koaza":"宝江新田砂越","lat":35.35727,"lng":136.766392,"zip":"4938001"},{"town":"萩原町富田方","koaza":"観音堂","lat":35.289856,"lng":136.767007,"zip":"4910352"},{"town":"木曽川町外割田","koaza":"東片ノ池","lat":35.341222,"lng":136.767289,"zip":"4930007"},{"town":"萩原町富田方","koaza":"山中","lat":35.289003,"lng":136.767568,"zip":"4910352"},{"town":"北方町北方","koaza":"宝江","lat":35.359898,"lng":136.766457,"zip":"4938001"},{"town":"萩原町花井方","koaza":"富田浦","lat":35.292848,"lng":136.766765,"zip":"4910351"},{"town":"萩原町花井方","koaza":"郷前","lat":35.294322,"lng":136.767597,"zip":"4910351"},{"town":"萩原町高木","koaza":"立石","lat":35.271642,"lng":136.766664,"zip":"4910371"},{"town":"木曽川町三ツ法寺","koaza":"西流","lat":35.332288,"lng":136.767207,"zip":"4930003"},{"town":"萩原町高木","koaza":"半田","lat":35.269956,"lng":136.767056,"zip":"4910371"},{"town":"萩原町花井方","koaza":"郷中","lat":35.295733,"lng":136.768453,"zip":"4910351"},{"town":"木曽川町外割田","koaza":"郷中川田","lat":35.339199,"lng":136.767327,"zip":"4930007"},{"town":"萩原町花井方","koaza":"郷浦","lat":35.297226,"lng":136.768106,"zip":"4910351"},{"town":"木曽川町里小牧","koaza":"野方","lat":35.350369,"lng":136.7688,"zip":"4930005"},{"town":"木曽川町三ツ法寺","koaza":"宮西","lat":35.331585,"lng":136.767301,"zip":"4930003"},{"town":"木曽川町外割田","koaza":"天王西","lat":35.338135,"lng":136.766845,"zip":"4930007"},{"town":"萩原町萩原","koaza":"沼ケ池","lat":35.282606,"lng":136.767696,"zip":"4910353"},{"town":"萩原町花井方","koaza":"東天神東の切","lat":35.297742,"lng":136.768318,"zip":"4910351"},{"town":"萩原町富田方","koaza":"上畑","lat":35.285472,"lng":136.767402,"zip":"4910352"},{"town":"木曽川町外割田","koaza":"西芳池","lat":35.336744,"lng":136.767518,"zip":"4930007"},{"town":"木曽川町里小牧","koaza":"新田","lat":35.348662,"lng":136.768517,"zip":"4930005"},{"town":"北方町北方","koaza":"中宝江","lat":35.361951,"lng":136.767129,"zip":"4938001"},{"town":"萩原町高木","koaza":"町東","lat":35.271006,"lng":136.767829,"zip":"4910371"},{"town":"開明","koaza":"西屋敷","lat":35.314923,"lng":136.767203,"zip":"4940001"},{"town":"北方町北方","koaza":"宝江下","lat":35.360325,"lng":136.767276,"zip":"4938001"},{"town":"大和町福森","koaza":"河原畑","lat":35.299306,"lng":136.767826,"zip":"4910935"},{"town":"木曽川町里小牧","koaza":"西青木","lat":35.343821,"lng":136.767479,"zip":"4930005"},{"town":"北方町中島","koaza":"往還南","lat":35.356245,"lng":136.767438,"zip":"4938003"},{"town":"木曽川町外割田","koaza":"孫兵衛池","lat":35.342357,"lng":136.768641,"zip":"4930007"},{"town":"木曽川町里小牧","koaza":"蛭田","lat":35.346116,"lng":136.768423,"zip":"4930005"},{"town":"萩原町高木","koaza":"津崎","lat":35.273338,"lng":136.768884,"zip":"4910371"},{"town":"萩原町高木","koaza":"乾","lat":35.276393,"lng":136.767357,"zip":"4910371"},{"town":"木曽川町里小牧","koaza":"天神","lat":35.354299,"lng":136.765944,"zip":"4930005"},{"town":"開明","koaza":"北釈迦堂","lat":35.322962,"lng":136.767915,"zip":"4940001"},{"town":"開明","koaza":"北西沼","lat":35.321361,"lng":136.768654,"zip":"4940001"},{"town":"木曽川町外割田","koaza":"大畔西","lat":35.341542,"lng":136.767965,"zip":"4930007"},{"town":"北方町中島","koaza":"西流","lat":35.359464,"lng":136.767858,"zip":"4938003"},{"town":"木曽川町里小牧","koaza":"上川田","lat":35.354814,"lng":136.767632,"zip":"4930005"},{"town":"北方町中島","koaza":"下出東","lat":35.357754,"lng":136.767812,"zip":"4938003"},{"town":"木曽川町里小牧","koaza":"寺北","lat":35.354131,"lng":136.76886,"zip":"4930005"},{"town":"大和町馬引","koaza":"東中境","lat":35.303155,"lng":136.768089,"zip":"4910931"},{"town":"大和町福森","koaza":"井戸畑","lat":35.300244,"lng":136.769033,"zip":"4910935"},{"town":"大和町福森","koaza":"馬引境","lat":35.30157,"lng":136.769346,"zip":"4910935"},{"town":"萩原町萩原","koaza":"三味南","lat":35.281251,"lng":136.767692,"zip":"4910353"},{"town":"萩原町高木","koaza":"東浦","lat":35.276079,"lng":136.76828,"zip":"4910371"},{"town":"北方町中島","koaza":"流西","lat":35.359439,"lng":136.768478,"zip":"4938003"},{"town":"北方町中島","koaza":"黒髭","lat":35.360966,"lng":136.768559,"zip":"4938003"},{"town":"開明","koaza":"北小憧","lat":35.313342,"lng":136.768326,"zip":"4940001"},{"town":"北方町北方","koaza":"上宝江","lat":35.363782,"lng":136.768622,"zip":"4938001"},{"town":"萩原町中島","koaza":"光堂","lat":35.268536,"lng":136.769501,"zip":"4910364"},{"town":"萩原町西御堂","koaza":"蓮池","lat":35.265665,"lng":136.768574,"zip":"4910365"},{"town":"萩原町西御堂","koaza":"花ノ木","lat":35.263837,"lng":136.768615,"zip":"4910365"},{"town":"萩原町西御堂","koaza":"沖田","lat":35.262382,"lng":136.768627,"zip":"4910365"},{"town":"萩原町西御堂","koaza":"野間","lat":35.261566,"lng":136.768671,"zip":"4910365"},{"town":"萩原町富田方","koaza":"雀戸","lat":35.285914,"lng":136.769347,"zip":"4910352"},{"town":"奥町","koaza":"宮郭","lat":35.331058,"lng":136.769478,"zip":"4910201"},{"town":"奥町","koaza":"宮前","lat":35.328673,"lng":136.770128,"zip":"4910201"},{"town":"木曽川町外割田","koaza":"東芳池","lat":35.336244,"lng":136.768494,"zip":"4930007"},{"town":"木曽川町三ツ法寺","koaza":"東流","lat":35.332267,"lng":136.76861,"zip":"4930003"},{"town":"奥町","koaza":"剱光寺","lat":35.325998,"lng":136.770141,"zip":"4910201"},{"town":"萩原町花井方","koaza":"中田島","lat":35.294208,"lng":136.76986,"zip":"4910351"},{"town":"萩原町中島","koaza":"戌亥","lat":35.269356,"lng":136.769524,"zip":"4910364"},{"town":"木曽川町外割田","koaza":"千代","lat":35.341903,"lng":136.768856,"zip":"4930007"},{"town":"萩原町富田方","koaza":"柳原","lat":35.290727,"lng":136.769583,"zip":"4910352"},{"town":"萩原町高木","koaza":"尾中畑","lat":35.27177,"lng":136.768701,"zip":"4910371"},{"town":"萩原町高木","koaza":"東川田","lat":35.271026,"lng":136.769066,"zip":"4910371"},{"town":"萩原町河田方","koaza":"下り松","lat":35.282834,"lng":136.769067,"zip":"4910366"},{"town":"開明","koaza":"東屋敷","lat":35.314575,"lng":136.76881,"zip":"4940001"},{"town":"開明","koaza":"新田沼","lat":35.32028,"lng":136.77005,"zip":"4940001"},{"town":"開明","koaza":"神明郭","lat":35.317846,"lng":136.770144,"zip":"4940001"},{"town":"萩原町河田方","koaza":"三味浦","lat":35.280635,"lng":136.769025,"zip":"4910366"},{"town":"開明","koaza":"馬保里","lat":35.316594,"lng":136.771393,"zip":"4940001"},{"town":"木曽川町外割田","koaza":"西郷中","lat":35.339084,"lng":136.76908,"zip":"4930007"},{"town":"開明","koaza":"北屋敷","lat":35.316091,"lng":136.76925,"zip":"4940001"},{"town":"大和町苅安賀","koaza":"杉之木","lat":35.287691,"lng":136.769544,"zip":"4910934"},{"town":"萩原町河田方","koaza":"西狭間","lat":35.279197,"lng":136.769128,"zip":"4910366"},{"town":"木曽川町外割田","koaza":"南乙五郎","lat":35.339996,"lng":136.769521,"zip":"4930007"},{"town":"大和町福森","koaza":"郷西","lat":35.299002,"lng":136.769688,"zip":"4910935"},{"town":"木曽川町外割田","koaza":"下玉ノ井境","lat":35.335167,"lng":136.767915,"zip":"4930007"},{"town":"北方町中島","koaza":"西辻ノ内","lat":35.359225,"lng":136.76958,"zip":"4938003"},{"town":"北方町中島","koaza":"南辻ノ内","lat":35.356168,"lng":136.770839,"zip":"4938003"},{"town":"萩原町河田方","koaza":"八剣北","lat":35.277753,"lng":136.770057,"zip":"4910366"},{"town":"北方町中島","koaza":"西郷","lat":35.360711,"lng":136.770562,"zip":"4938003"},{"town":"萩原町西御堂","koaza":"社宮司","lat":35.266709,"lng":136.769602,"zip":"4910365"},{"town":"木曽川町外割田","koaza":"南青木","lat":35.342705,"lng":136.768644,"zip":"4930007"},{"town":"木曽川町黒田","koaza":"北宿一の切","lat":35.347187,"lng":136.770154,"zip":"4930001"},{"town":"萩原町西御堂","koaza":"四ツ辻","lat":35.264048,"lng":136.76949,"zip":"4910365"},{"town":"大和町苅安賀","koaza":"藤之木","lat":35.289469,"lng":136.769757,"zip":"4910934"},{"town":"北方町中島","koaza":"宮浦","lat":35.361914,"lng":136.770063,"zip":"4938003"},{"town":"萩原町西御堂","koaza":"虫祭","lat":35.262468,"lng":136.771255,"zip":"4910365"},{"town":"開明","koaza":"流","lat":35.312189,"lng":136.771445,"zip":"4940001"},{"town":"木曽川町外割田","koaza":"前堀田","lat":35.336781,"lng":136.769451,"zip":"4930007"},{"town":"開明","koaza":"南新田","lat":35.321474,"lng":136.770172,"zip":"4940001"},{"town":"木曽川町外割田","koaza":"上桂徳輪","lat":35.336148,"lng":136.769105,"zip":"4930007"},{"town":"木曽川町外割田","koaza":"北乙五郎","lat":35.340609,"lng":136.770328,"zip":"4930007"},{"town":"北方町中島","koaza":"西松本","lat":35.358207,"lng":136.77093,"zip":"4938003"},{"town":"木曽川町外割田","koaza":"西郷東","lat":35.338607,"lng":136.770435,"zip":"4930007"},{"town":"北方町北方","koaza":"畑下郷","lat":35.363967,"lng":136.770252,"zip":"4938001"},{"town":"木曽川町里小牧","koaza":"清水","lat":35.353727,"lng":136.770967,"zip":"4930005"},{"town":"萩原町中島","koaza":"白山","lat":35.270303,"lng":136.770338,"zip":"4910364"},{"town":"開明","koaza":"北新田","lat":35.323126,"lng":136.770361,"zip":"4940001"},{"town":"奥町","koaza":"田畑","lat":35.324088,"lng":136.770642,"zip":"4910201"},{"town":"開明","koaza":"南井保里","lat":35.313882,"lng":136.77205,"zip":"4940001"},{"town":"萩原町西宮重","koaza":"西出","lat":35.2764,"lng":136.770333,"zip":"4910362"},{"town":"大和町馬引","koaza":"印田","lat":35.303177,"lng":136.771817,"zip":"4910931"},{"town":"萩原町西宮重","koaza":"池之井","lat":35.274229,"lng":136.770374,"zip":"4910362"},{"town":"大和町苅安賀","koaza":"観音堂","lat":35.290865,"lng":136.77226,"zip":"4910934"},{"town":"萩原町河田方","koaza":"中道","lat":35.282459,"lng":136.771294,"zip":"4910366"},{"town":"萩原町中島","koaza":"番所","lat":35.267993,"lng":136.771514,"zip":"4910364"},{"town":"木曽川町里小牧","koaza":"山方","lat":35.355131,"lng":136.770119,"zip":"4930005"},{"town":"萩原町西御堂","koaza":"石塚","lat":35.265955,"lng":136.771854,"zip":"4910365"},{"town":"萩原町西御堂","koaza":"宮西","lat":35.264747,"lng":136.770409,"zip":"4910365"},{"town":"萩原町河田方","koaza":"北河洲","lat":35.280665,"lng":136.77077,"zip":"4910366"},{"town":"萩原町西御堂","koaza":"苅宿","lat":35.263907,"lng":136.770742,"zip":"4910365"},{"town":"萩原町河田方","koaza":"南河洲","lat":35.278521,"lng":136.771467,"zip":"4910366"},{"town":"萩原町西御堂","koaza":"東向江","lat":35.261015,"lng":136.771538,"zip":"4910365"},{"town":"木曽川町黒田","koaza":"北宿二の切","lat":35.346962,"lng":136.771385,"zip":"4930001"},{"town":"萩原町河田方","koaza":"南木戸","lat":35.284342,"lng":136.771014,"zip":"4910366"},{"town":"萩原町花井方","koaza":"柳原","lat":35.294861,"lng":136.770137,"zip":"4910351"},{"town":"大和町福森","koaza":"郷中","lat":35.29984,"lng":136.771776,"zip":"4910935"},{"town":"木曽川町外割田","koaza":"蓮池","lat":35.341407,"lng":136.771038,"zip":"4930007"},{"town":"萩原町西御堂","koaza":"郷西切","lat":35.264968,"lng":136.772266,"zip":"4910365"},{"town":"開明","koaza":"郷東","lat":35.315567,"lng":136.771402,"zip":"4940001"},{"town":"北方町北方","koaza":"吹埋","lat":35.365124,"lng":136.772615,"zip":"4938001"},{"town":"奥町","koaza":"神田","lat":35.328657,"lng":136.771415,"zip":"4910201"},{"town":"萩原町西宮重","koaza":"西光堂","lat":35.273339,"lng":136.771289,"zip":"4910362"},{"town":"大和町苅安賀","koaza":"杉山","lat":35.286929,"lng":136.772306,"zip":"4910934"},{"town":"大和町苅安賀","koaza":"薬師堂","lat":35.293631,"lng":136.772029,"zip":"4910934"},{"town":"萩原町西宮重","koaza":"北屋敷","lat":35.277197,"lng":136.772645,"zip":"4910362"},{"town":"大和町苅安賀","koaza":"狭間","lat":35.288662,"lng":136.771375,"zip":"4910934"},{"town":"開明","koaza":"名古羅","lat":35.318774,"lng":136.77294,"zip":"4940001"},{"town":"木曽川町外割田","koaza":"四の通り","lat":35.337827,"lng":136.771874,"zip":"4930007"},{"town":"北方町中島","koaza":"東郷","lat":35.359981,"lng":136.771747,"zip":"4938003"},{"town":"大和町苅安賀","koaza":"伝治越","lat":35.295768,"lng":136.771573,"zip":"4910934"},{"town":"開明","koaza":"杁西郭","lat":35.322801,"lng":136.772406,"zip":"4940001"},{"town":"木曽川町外割田","koaza":"寺前","lat":35.339982,"lng":136.772489,"zip":"4930007"},{"town":"萩原町西御堂","koaza":"郷南切","lat":35.264003,"lng":136.772755,"zip":"4910365"},{"town":"奥町","koaza":"宮東","lat":35.331401,"lng":136.771601,"zip":"4910201"},{"town":"開明","koaza":"城堀","lat":35.321321,"lng":136.772693,"zip":"4940001"},{"town":"大和町毛受","koaza":"西池田","lat":35.297826,"lng":136.772746,"zip":"4910932"},{"town":"北方町中島","koaza":"中起","lat":35.355448,"lng":136.77128,"zip":"4938003"},{"town":"大和町福森","koaza":"郷","lat":35.30099,"lng":136.772961,"zip":"4910935"},{"town":"大和町毛受","koaza":"伝治腰","lat":35.296651,"lng":136.772566,"zip":"4910932"},{"town":"萩原町林野","koaza":"苗代","lat":35.282386,"lng":136.772355,"zip":"4910361"},{"town":"萩原町林野","koaza":"ツブラ","lat":35.2799,"lng":136.772444,"zip":"4910361"},{"town":"木曽川町外割田","koaza":"東郷中","lat":35.341036,"lng":136.773621,"zip":"4930007"},{"town":"萩原町西宮重","koaza":"中光堂","lat":35.272482,"lng":136.772476,"zip":"4910362"},{"town":"萩原町中島","koaza":"城趾","lat":35.271168,"lng":136.773432,"zip":"4910364"},{"town":"萩原町中島","koaza":"北方郷","lat":35.270207,"lng":136.773219,"zip":"4910364"},{"town":"萩原町中島","koaza":"往還","lat":35.267892,"lng":136.772648,"zip":"4910364"},{"town":"北方町北方","koaza":"下新堤","lat":35.366047,"lng":136.772987,"zip":"4938001"},{"town":"木曽川町黒田","koaza":"西沼","lat":35.351882,"lng":136.772193,"zip":"4930001"},{"town":"大和町苅安賀","koaza":"佐平治前","lat":35.294549,"lng":136.773883,"zip":"4910934"},{"town":"木曽川町黒田","koaza":"寺西","lat":35.344613,"lng":136.772713,"zip":"4930001"},{"town":"北方町北方","koaza":"泉屋西","lat":35.363483,"lng":136.772572,"zip":"4938001"},{"town":"北方町北方","koaza":"西金丸","lat":35.361617,"lng":136.773343,"zip":"4938001"},{"town":"開明","koaza":"桝井戸","lat":35.320316,"lng":136.772384,"zip":"4940001"},{"town":"木曽川町外割田","koaza":"宮廻","lat":35.34241,"lng":136.771265,"zip":"4930007"},{"town":"木曽川町内割田","koaza":"渡り戸","lat":35.34328,"lng":136.772844,"zip":"4930006"},{"town":"北方町中島","koaza":"東松本","lat":35.355525,"lng":136.773126,"zip":"4938003"},{"town":"大和町馬引","koaza":"西出","lat":35.302864,"lng":136.773895,"zip":"4910931"},{"town":"奥町","koaza":"郷浦","lat":35.325728,"lng":136.773252,"zip":"4910201"},{"town":"萩原町西御堂","koaza":"北畑","lat":35.266304,"lng":136.77376,"zip":"4910365"},{"town":"大和町苅安賀","koaza":"地蔵前","lat":35.289473,"lng":136.774454,"zip":"4910934"},{"town":"奥町","koaza":"向神田","lat":35.326986,"lng":136.773478,"zip":"4910201"},{"town":"萩原町西宮重","koaza":"南屋敷","lat":35.275087,"lng":136.772617,"zip":"4910362"},{"town":"北方町北方","koaza":"南辰已前","lat":35.358085,"lng":136.774875,"zip":"4938001"},{"town":"北方町北方","koaza":"北辰已前","lat":35.359478,"lng":136.774799,"zip":"4938001"},{"town":"萩原町林野","koaza":"宮浦","lat":35.284335,"lng":136.774446,"zip":"4910361"},{"town":"萩原町林野","koaza":"中道西","lat":35.282188,"lng":136.773482,"zip":"4910361"},{"town":"萩原町林野","koaza":"大門先","lat":35.280498,"lng":136.774179,"zip":"4910361"},{"town":"木曽川町外割田","koaza":"三の通り","lat":35.337305,"lng":136.773694,"zip":"4930007"},{"town":"北方町北方","koaza":"辰已郷","lat":35.360747,"lng":136.773635,"zip":"4938001"},{"town":"木曽川町内割田","koaza":"八荷丸","lat":35.343077,"lng":136.773611,"zip":"4930006"},{"town":"萩原町西御堂","koaza":"西赤口","lat":35.261095,"lng":136.773966,"zip":"4910365"},{"town":"萩原町西御堂","koaza":"突田","lat":35.262025,"lng":136.774664,"zip":"4910365"},{"town":"萩原町西御堂","koaza":"馬場","lat":35.262774,"lng":136.774676,"zip":"4910365"},{"town":"大和町苅安賀","koaza":"斉宮寺","lat":35.292758,"lng":136.77458,"zip":"4910934"},{"town":"萩原町中島","koaza":"南方郷北切","lat":35.268524,"lng":136.77503,"zip":"4910364"},{"town":"北方町北方","koaza":"西泉屋郷","lat":35.363392,"lng":136.774791,"zip":"4938001"},{"town":"大和町苅安賀","koaza":"花井町裏","lat":35.291038,"lng":136.775002,"zip":"4910934"},{"town":"木曽川町黒田","koaza":"北沼","lat":35.352401,"lng":136.774651,"zip":"4930001"},{"town":"開明","koaza":"会所郭","lat":35.32003,"lng":136.775169,"zip":"4940001"},{"town":"萩原町西御堂","koaza":"金森","lat":35.26443,"lng":136.775113,"zip":"4910365"},{"town":"開明","koaza":"東向野","lat":35.317185,"lng":136.775463,"zip":"4940001"},{"town":"奥町","koaza":"八瀬割","lat":35.329112,"lng":136.775223,"zip":"4910201"},{"town":"開明","koaza":"三味北","lat":35.315601,"lng":136.775466,"zip":"4940001"},{"town":"開明","koaza":"三味郭","lat":35.314126,"lng":136.775253,"zip":"4940001"},{"town":"萩原町西宮重","koaza":"長福地","lat":35.275121,"lng":136.774232,"zip":"4910362"},{"town":"奥町","koaza":"郷中","lat":35.324199,"lng":136.774422,"zip":"4910201"},{"town":"北方町北方","koaza":"新堤下","lat":35.36671,"lng":136.775071,"zip":"4938001"},{"town":"大和町苅安賀","koaza":"中西之杁","lat":35.287841,"lng":136.775333,"zip":"4910934"},{"town":"奥町","koaza":"六丁山","lat":35.331197,"lng":136.775241,"zip":"4910201"},{"town":"北方町北方","koaza":"沼田","lat":35.355458,"lng":136.774636,"zip":"4938001"},{"town":"北方町北方","koaza":"沼","lat":35.354254,"lng":136.775141,"zip":"4938001"},{"town":"萩原町西宮重","koaza":"東出","lat":35.277117,"lng":136.775053,"zip":"4910362"},{"town":"開明","koaza":"雲閑寺郭","lat":35.320657,"lng":136.775038,"zip":"4940001"},{"town":"開明","koaza":"杁東郭","lat":35.322365,"lng":136.775259,"zip":"4940001"},{"town":"北方町北方","koaza":"沼上","lat":35.356705,"lng":136.774849,"zip":"4938001"},{"town":"萩原町林野","koaza":"中道東","lat":35.282063,"lng":136.77513,"zip":"4910361"},{"town":"木曽川町内割田","koaza":"三反田","lat":35.342723,"lng":136.774693,"zip":"4930006"},{"town":"萩原町西御堂","koaza":"伝正寺","lat":35.265837,"lng":136.774355,"zip":"4910365"},{"town":"大和町馬引","koaza":"横手","lat":35.307167,"lng":136.77447,"zip":"4910931"},{"town":"萩原町西宮重","koaza":"東光堂","lat":35.273331,"lng":136.774847,"zip":"4910362"},{"town":"木曽川町黒田","koaza":"中沼北ノ切","lat":35.351799,"lng":136.774648,"zip":"4930001"},{"town":"木曽川町黒田","koaza":"北宿三の切","lat":35.346946,"lng":136.774717,"zip":"4930001"},{"town":"萩原町林野","koaza":"花ノ木","lat":35.279969,"lng":136.775677,"zip":"4910361"},{"town":"木曽川町黒田","koaza":"寺東","lat":35.345067,"lng":136.774569,"zip":"4930001"},{"town":"奥町","koaza":"立切先","lat":35.327141,"lng":136.775277,"zip":"4910201"},{"town":"開明","koaza":"苅安賀道","lat":35.311149,"lng":136.774834,"zip":"4940001"},{"town":"木曽川町外割田","koaza":"二の通り","lat":35.337317,"lng":136.774553,"zip":"4930007"},{"town":"大和町馬引","koaza":"郷未申","lat":35.303555,"lng":136.776442,"zip":"4910931"},{"town":"木曽川町内割田","koaza":"屋敷","lat":35.343562,"lng":136.775875,"zip":"4930006"},{"town":"大和町馬引","koaza":"焼野","lat":35.30889,"lng":136.776787,"zip":"4910931"},{"town":"萩原町西御堂","koaza":"八幡西","lat":35.26521,"lng":136.776209,"zip":"4910365"},{"town":"萩原町中島","koaza":"丸宮","lat":35.26935,"lng":136.775797,"zip":"4910364"},{"town":"大和町苅安賀","koaza":"上西之杁","lat":35.288783,"lng":136.776525,"zip":"4910934"},{"town":"萩原町中島","koaza":"浄土寺","lat":35.271761,"lng":136.774937,"zip":"4910364"},{"town":"北方町北方","koaza":"東泉屋郷","lat":35.362644,"lng":136.776015,"zip":"4938001"},{"town":"大和町毛受","koaza":"城之腰","lat":35.299674,"lng":136.775603,"zip":"4910932"},{"town":"大和町毛受","koaza":"北河原","lat":35.301743,"lng":136.775736,"zip":"4910932"},{"town":"奥町","koaza":"墓南","lat":35.325407,"lng":136.775407,"zip":"4910201"},{"town":"大和町毛受","koaza":"辻畑","lat":35.297986,"lng":136.776421,"zip":"4910932"},{"town":"木曽川町内割田","koaza":"南出","lat":35.34187,"lng":136.774643,"zip":"4930006"},{"town":"木曽川町黒田","koaza":"北八ツケ池","lat":35.35058,"lng":136.775654,"zip":"4930001"},{"town":"大和町苅安賀","koaza":"下西之杁","lat":35.285528,"lng":136.774424,"zip":"4910934"},{"town":"大和町馬引","koaza":"乾出","lat":35.307066,"lng":136.775586,"zip":"4910931"},{"town":"大和町馬引","koaza":"郷戌亥","lat":35.305161,"lng":136.776333,"zip":"4910931"},{"town":"萩原町中島","koaza":"法蔵寺","lat":35.266072,"lng":136.776471,"zip":"4910364"},{"town":"萩原町西御堂","koaza":"東赤口","lat":35.261025,"lng":136.77567,"zip":"4910365"},{"town":"木曽川町外割田","koaza":"一の通り","lat":35.337018,"lng":136.775719,"zip":"4930007"},{"town":"木曽川町黒田","koaza":"錦里","lat":35.345823,"lng":136.775711,"zip":"4930001"},{"town":"木曽川町黒田","koaza":"酉新田西ノ切","lat":35.351428,"lng":136.777551,"zip":"4930001"},{"town":"萩原町林野","koaza":"金森","lat":35.281948,"lng":136.775927,"zip":"4910361"},{"town":"萩原町東宮重","koaza":"祢宜屋","lat":35.274662,"lng":136.77621,"zip":"4910363"},{"town":"木曽川町黒田","koaza":"北宿四の切","lat":35.348718,"lng":136.776819,"zip":"4930001"},{"town":"大和町毛受","koaza":"八法寺","lat":35.296283,"lng":136.776772,"zip":"4910932"},{"town":"木曽川町外割田","koaza":"城跡","lat":35.340325,"lng":136.776111,"zip":"4930007"},{"town":"北方町北方","koaza":"内沼","lat":35.357714,"lng":136.777608,"zip":"4938001"},{"town":"萩原町西御堂","koaza":"半抜","lat":35.263779,"lng":136.777181,"zip":"4910365"},{"town":"萩原町西御堂","koaza":"三反田","lat":35.261984,"lng":136.776314,"zip":"4910365"},{"town":"開明","koaza":"南瀬古","lat":35.32041,"lng":136.777593,"zip":"4940001"},{"town":"萩原町東宮重","koaza":"上祢宜屋","lat":35.275307,"lng":136.776244,"zip":"4910363"},{"town":"大和町苅安賀","koaza":"西北出","lat":35.291855,"lng":136.77723,"zip":"4910934"},{"town":"開明","koaza":"山塚","lat":35.32285,"lng":136.776972,"zip":"4940001"},{"town":"開明","koaza":"西石亀","lat":35.310912,"lng":136.777738,"zip":"4940001"},{"town":"大和町苅安賀","koaza":"古宮","lat":35.294585,"lng":136.777106,"zip":"4910934"},{"town":"北方町北方","koaza":"西本郷","lat":35.366545,"lng":136.779063,"zip":"4938001"},{"town":"大和町苅安賀","koaza":"北出","lat":35.292447,"lng":136.777877,"zip":"4910934"},{"town":"萩原町東宮重","koaza":"江北","lat":35.277068,"lng":136.776822,"zip":"4910363"},{"town":"萩原町東宮重","koaza":"北沖","lat":35.276215,"lng":136.777897,"zip":"4910363"},{"town":"木曽川町内割田","koaza":"二の通り","lat":35.338577,"lng":136.776994,"zip":"4930006"},{"town":"萩原町東宮重","koaza":"長原","lat":35.27408,"lng":136.777733,"zip":"4910363"},{"town":"木曽川町内割田","koaza":"墓東","lat":35.341053,"lng":136.776596,"zip":"4930006"},{"town":"木曽川町黒田","koaza":"宝光寺","lat":35.344451,"lng":136.777177,"zip":"4930001"},{"town":"大和町毛受","koaza":"西屋敷","lat":35.300067,"lng":136.778043,"zip":"4910932"},{"town":"北方町曽根","koaza":"虫祭","lat":35.353137,"lng":136.778692,"zip":"4938002"},{"town":"木曽川町黒田","koaza":"高田","lat":35.342,"lng":136.777287,"zip":"4930001"},{"town":"大和町苅安賀","koaza":"火口上","lat":35.289593,"lng":136.778184,"zip":"4910934"},{"town":"大和町馬引","koaza":"郷裏","lat":35.306983,"lng":136.778056,"zip":"4910931"},{"town":"萩原町中島","koaza":"前田","lat":35.266783,"lng":136.778487,"zip":"4910364"},{"town":"萩原町中島","koaza":"道場","lat":35.265235,"lng":136.7787,"zip":"4910364"},{"town":"北方町北方","koaza":"新屋敷郷","lat":35.361917,"lng":136.777716,"zip":"4938001"},{"town":"大和町苅安賀","koaza":"下火口","lat":35.287188,"lng":136.779546,"zip":"4910934"},{"town":"萩原町東宮重","koaza":"西屋敷","lat":35.275149,"lng":136.777365,"zip":"4910363"},{"town":"大和町苅安賀","koaza":"更屋敷","lat":35.284429,"lng":136.778671,"zip":"4910934"},{"town":"木曽川町内割田","koaza":"杁ノ戸南","lat":35.339808,"lng":136.777397,"zip":"4930006"},{"town":"木曽川町黒田","koaza":"川北","lat":35.346498,"lng":136.778315,"zip":"4930001"},{"town":"萩原町林野","koaza":"鷺宮","lat":35.280682,"lng":136.777742,"zip":"4910361"},{"town":"開明","koaza":"飛山流","lat":35.315472,"lng":136.779177,"zip":"4940001"},{"town":"今伊勢町馬寄","koaza":"下沼","lat":35.325396,"lng":136.778846,"zip":"4910058"},{"town":"今伊勢町馬寄","koaza":"上沼","lat":35.329293,"lng":136.777911,"zip":"4910058"},{"town":"開明","koaza":"北瀬古","lat":35.32162,"lng":136.776929,"zip":"4940001"},{"town":"北方町北方","koaza":"新屋敷浦","lat":35.364223,"lng":136.777958,"zip":"4938001"},{"town":"今伊勢町馬寄","koaza":"川田","lat":35.331403,"lng":136.778276,"zip":"4910058"},{"town":"開明","koaza":"平","lat":35.313929,"lng":136.779239,"zip":"4940001"},{"town":"大和町苅安賀","koaza":"東北出","lat":35.292292,"lng":136.778664,"zip":"4910934"},{"town":"萩原町中島","koaza":"町屋","lat":35.270339,"lng":136.777701,"zip":"4910364"},{"town":"萩原町中島","koaza":"道場東切","lat":35.265581,"lng":136.778393,"zip":"4910364"},{"town":"木曽川町内割田","koaza":"一の通り","lat":35.338707,"lng":136.77787,"zip":"4930006"},{"town":"萩原町西御堂","koaza":"柴野","lat":35.264646,"lng":136.778041,"zip":"4910365"},{"town":"木曽川町内割田","koaza":"寺前","lat":35.342891,"lng":136.777755,"zip":"4930006"},{"town":"萩原町西御堂","koaza":"鍋野","lat":35.262964,"lng":136.778157,"zip":"4910365"},{"town":"木曽川町黒田","koaza":"北宿五の切","lat":35.348481,"lng":136.778762,"zip":"4930001"},{"town":"開明","koaza":"西上免","lat":35.322384,"lng":136.778829,"zip":"4940001"},{"town":"萩原町中島","koaza":"胡广塚","lat":35.269342,"lng":136.778349,"zip":"4910364"},{"town":"萩原町中島","koaza":"胡广塚郷","lat":35.268914,"lng":136.778906,"zip":"4910364"},{"town":"木曽川町黒田","koaza":"柳原南","lat":35.340486,"lng":136.778961,"zip":"4930001"},