[{"town":"愛知町","koaza":"","lat":"35.154072","lng":"136.876174"},{"town":"熱田新田東組","koaza":"","lat":"35.122146","lng":"136.878838"},{"town":"荒江町","koaza":"","lat":"35.142888","lng":"136.885887"},{"town":"荒子一丁目","koaza":"","lat":"35.141895","lng":"136.858825"},{"town":"荒子二丁目","koaza":"","lat":"35.138367","lng":"136.859018"},{"town":"荒子四丁目","koaza":"","lat":"35.134712","lng":"136.855602"},{"town":"荒子五丁目","koaza":"","lat":"35.133008","lng":"136.855342"},{"town":"荒越町一丁目","koaza":"","lat":"35.134897","lng":"136.884192"},{"town":"荒越町二丁目","koaza":"","lat":"35.133119","lng":"136.883330"},{"town":"荒越町三丁目","koaza":"","lat":"35.133241","lng":"136.884641"},{"town":"荒子町","koaza":"","lat":"35.134436","lng":"136.858561"},{"town":"荒中町","koaza":"","lat":"35.134084","lng":"136.852565"},{"town":"一色新町一丁目","koaza":"","lat":"35.129017","lng":"136.831071"},{"town":"一色新町二丁目","koaza":"","lat":"35.129846","lng":"136.827496"},{"town":"一色新町三丁目","koaza":"","lat":"35.126862","lng":"136.827653"},{"town":"石場町一丁目","koaza":"","lat":"35.148769","lng":"136.883989"},{"town":"石場町二丁目","koaza":"","lat":"35.148045","lng":"136.883515"},{"town":"石場町三丁目","koaza":"","lat":"35.147255","lng":"136.883759"},{"town":"石場町四丁目","koaza":"","lat":"35.146457","lng":"136.883582"},{"town":"一柳通一丁目","koaza":"","lat":"35.145669","lng":"136.847000"},{"town":"一柳通二丁目","koaza":"","lat":"35.145016","lng":"136.845401"},{"town":"岩塚町","koaza":"","lat":"35.148262","lng":"136.851228"},{"town":"牛立町一丁目","koaza":"","lat":"35.139551","lng":"136.885234"},{"town":"牛立町二丁目","koaza":"","lat":"35.138871","lng":"136.883125"},{"town":"牛立町三丁目","koaza":"","lat":"35.137653","lng":"136.884996"},{"town":"牛立町四丁目","koaza":"","lat":"35.137362","lng":"136.883150"},{"town":"牛立町五丁目","koaza":"","lat":"35.136212","lng":"136.884811"},{"town":"打出一丁目","koaza":"","lat":"35.138532","lng":"136.841239"},{"town":"打出二丁目","koaza":"","lat":"35.134619","lng":"136.840551"},{"town":"打出町","koaza":"","lat":"35.131930","lng":"136.841139"},{"town":"打出本町七丁目","koaza":"","lat":"35.132172","lng":"136.842183"},{"town":"打中一丁目","koaza":"","lat":"35.138578","lng":"136.843527"},{"town":"打中二丁目","koaza":"","lat":"35.134565","lng":"136.843507"},{"town":"馬手町一丁目","koaza":"","lat":"35.130382","lng":"136.864752"},{"town":"馬手町二丁目","koaza":"","lat":"35.128739","lng":"136.865009"},{"town":"馬手町三丁目","koaza":"","lat":"35.127524","lng":"136.865224"},{"town":"運河町","koaza":"","lat":"35.159582","lng":"136.885099"},{"town":"運河通一丁目","koaza":"","lat":"35.158679","lng":"136.885200"},{"town":"榎津西町","koaza":"","lat":"35.134750","lng":"136.819445"},{"town":"榎松町","koaza":"","lat":"35.132504","lng":"136.818648"},{"town":"江松一丁目","koaza":"","lat":"35.129880","lng":"136.822483"},{"town":"江松二丁目","koaza":"","lat":"35.127824","lng":"136.821795"},{"town":"江松三丁目","koaza":"","lat":"35.123105","lng":"136.824709"},{"town":"江松四丁目","koaza":"","lat":"35.120165","lng":"136.826139"},{"town":"江松五丁目","koaza":"","lat":"35.123128","lng":"136.822461"},{"town":"江松西町","koaza":"","lat":"35.128660","lng":"136.819174"},{"town":"笈瀬町一丁目","koaza":"","lat":"35.150896","lng":"136.881922"},{"town":"笈瀬町二丁目","koaza":"","lat":"35.149602","lng":"136.881185"},{"town":"応仁町一丁目","koaza":"","lat":"35.138720","lng":"136.881287"},{"town":"応仁町二丁目","koaza":"","lat":"35.137286","lng":"136.881618"},{"town":"大塩町一丁目","koaza":"","lat":"35.130746","lng":"136.860441"},{"town":"大塩町二丁目","koaza":"","lat":"35.129558","lng":"136.860749"},{"town":"大塩町三丁目","koaza":"","lat":"35.128564","lng":"136.860462"},{"town":"大畑町一丁目","koaza":"","lat":"35.132793","lng":"136.867029"},{"town":"大畑町二丁目","koaza":"","lat":"35.130437","lng":"136.867311"},{"town":"大山町","koaza":"","lat":"35.130018","lng":"136.878932"},{"town":"押元町一丁目","koaza":"","lat":"35.139493","lng":"136.866176"},{"town":"押元町二丁目","koaza":"","lat":"35.138881","lng":"136.868098"},{"town":"尾頭橋一丁目","koaza":"","lat":"35.144159","lng":"136.894215"},{"town":"尾頭橋二丁目","koaza":"","lat":"35.143382","lng":"136.889666"},{"town":"尾頭橋三丁目","koaza":"","lat":"35.145061","lng":"136.890372"},{"town":"尾頭橋四丁目","koaza":"","lat":"35.148106","lng":"136.889315"},{"town":"尾頭橋通一丁目","koaza":"","lat":"35.142220","lng":"136.895422"},{"town":"開平町一丁目","koaza":"","lat":"35.146108","lng":"136.846571"},{"town":"開平町二丁目","koaza":"","lat":"35.145512","lng":"136.845093"},{"town":"掛入町一丁目","koaza":"","lat":"35.127605","lng":"136.862753"},{"town":"掛入町二丁目","koaza":"","lat":"35.126568","lng":"136.862411"},{"town":"掛入町三丁目","koaza":"","lat":"35.125566","lng":"136.862491"},{"town":"烏森町","koaza":"","lat":"35.151146","lng":"136.862239"},{"town":"かの里一丁目","koaza":"","lat":"35.132400","lng":"136.814006"},{"town":"かの里二丁目","koaza":"","lat":"35.128308","lng":"136.817000"},{"town":"かの里三丁目","koaza":"","lat":"35.128470","lng":"136.814983"},{"town":"上高畑一丁目","koaza":"","lat":"35.144319","lng":"136.858302"},{"town":"上高畑二丁目","koaza":"","lat":"35.144589","lng":"136.854667"},{"town":"上流町一丁目","koaza":"","lat":"35.133678","lng":"136.863957"},{"town":"上流町二丁目","koaza":"","lat":"35.132316","lng":"136.864541"},{"town":"上脇町一丁目","koaza":"","lat":"35.137424","lng":"136.872476"},{"town":"上脇町二丁目","koaza":"","lat":"35.135798","lng":"136.872368"},{"town":"川前町","koaza":"","lat":"35.145187","lng":"136.836896"},{"town":"北江町一丁目","koaza":"","lat":"35.126172","lng":"136.868020"},{"town":"北江町二丁目","koaza":"","lat":"35.126157","lng":"136.867068"},{"town":"北江町三丁目","koaza":"","lat":"35.126169","lng":"136.865176"},{"town":"清川町一丁目","koaza":"","lat":"35.139658","lng":"136.877489"},{"town":"清川町二丁目","koaza":"","lat":"35.138549","lng":"136.877620"},{"town":"清川町三丁目","koaza":"","lat":"35.137199","lng":"136.877652"},{"town":"清川町四丁目","koaza":"","lat":"35.135632","lng":"136.877708"},{"town":"清川町五丁目","koaza":"","lat":"35.133902","lng":"136.877662"},{"town":"清川町六丁目","koaza":"","lat":"35.132255","lng":"136.877681"},{"town":"清船町一丁目","koaza":"","lat":"35.139186","lng":"136.874777"},{"town":"清船町二丁目","koaza":"","lat":"35.137094","lng":"136.874717"},{"town":"清船町三丁目","koaza":"","lat":"35.135523","lng":"136.874866"},{"town":"清船町四丁目","koaza":"","lat":"35.133865","lng":"136.874803"},{"town":"清船町五丁目","koaza":"","lat":"35.132173","lng":"136.874858"},{"town":"吉良町","koaza":"","lat":"35.139898","lng":"136.861608"},{"town":"草平町一丁目","koaza":"","lat":"35.130990","lng":"136.855248"},{"town":"草平町二丁目","koaza":"","lat":"35.129639","lng":"136.855352"},{"town":"供米田一丁目","koaza":"","lat":"35.136007","lng":"136.816784"},{"town":"供米田二丁目","koaza":"","lat":"35.135409","lng":"136.813612"},{"town":"供米田三丁目","koaza":"","lat":"35.135119","lng":"136.810323"},{"town":"小碓通一丁目","koaza":"","lat":"35.123971","lng":"136.869108"},{"town":"小碓通二丁目","koaza":"","lat":"35.122855","lng":"136.869225"},{"town":"小碓通三丁目","koaza":"","lat":"35.121732","lng":"136.869367"},{"town":"小碓通四丁目","koaza":"","lat":"35.120533","lng":"136.869364"},{"town":"小碓通五丁目","koaza":"","lat":"35.119183","lng":"136.869057"},{"town":"九重町","koaza":"","lat":"35.156976","lng":"136.875184"},{"town":"小城町一丁目","koaza":"","lat":"35.135582","lng":"136.862018"},{"town":"小城町二丁目","koaza":"","lat":"35.135175","lng":"136.860872"},{"town":"小塚町","koaza":"","lat":"35.138657","lng":"136.863975"},{"town":"五女子一丁目","koaza":"","lat":"35.144431","lng":"136.884555"},{"town":"五女子二丁目","koaza":"","lat":"35.142330","lng":"136.883700"},{"town":"五女子町一丁目","koaza":"","lat":"35.145242","lng":"136.882801"},{"town":"五女子町二丁目","koaza":"","lat":"35.144461","lng":"136.882377"},{"town":"五女子町三丁目","koaza":"","lat":"35.143367","lng":"136.882281"},{"town":"五女子町四丁目","koaza":"","lat":"35.142525","lng":"136.882081"},{"town":"五女子町五丁目","koaza":"","lat":"35.141588","lng":"136.881564"},{"town":"小本一丁目","koaza":"","lat":"35.148517","lng":"136.862385"},{"town":"小本二丁目","koaza":"","lat":"35.144935","lng":"136.863068"},{"town":"小本三丁目","koaza":"","lat":"35.144812","lng":"136.861095"},{"town":"小本本町一丁目","koaza":"","lat":"35.146256","lng":"136.865984"},{"town":"小本本町二丁目","koaza":"","lat":"35.144300","lng":"136.865422"},{"town":"小本本町三丁目","koaza":"","lat":"35.142252","lng":"136.864462"},{"town":"五月通一丁目","koaza":"","lat":"35.155961","lng":"136.872433"},{"town":"五月通二丁目","koaza":"","lat":"35.155220","lng":"136.872891"},{"town":"五月通三丁目","koaza":"","lat":"35.154109","lng":"136.872639"},{"town":"五月通四丁目","koaza":"","lat":"35.153171","lng":"136.872422"},{"town":"五月南通一丁目","koaza":"","lat":"35.152210","lng":"136.872505"},{"town":"五月南通二丁目","koaza":"","lat":"35.151078","lng":"136.872451"},{"town":"五月南通三丁目","koaza":"","lat":"35.149940","lng":"136.872435"},{"town":"山王一丁目","koaza":"","lat":"35.153366","lng":"136.891141"},{"town":"山王二丁目","koaza":"","lat":"35.148875","lng":"136.893575"},{"town":"山王三丁目","koaza":"","lat":"35.150789","lng":"136.891015"},{"town":"山王四丁目","koaza":"","lat":"35.147580","lng":"136.891806"},{"town":"四女子町一丁目","koaza":"","lat":"35.145739","lng":"136.872938"},{"town":"四女子町二丁目","koaza":"","lat":"35.144070","lng":"136.872847"},{"town":"四女子町三丁目","koaza":"","lat":"35.145781","lng":"136.870792"},{"town":"四女子町四丁目","koaza":"","lat":"35.144551","lng":"136.870323"},{"town":"篠原橋通一丁目","koaza":"","lat":"35.140913","lng":"136.872869"},{"town":"篠原橋通二丁目","koaza":"","lat":"35.140507","lng":"136.868450"},{"town":"篠原橋通三丁目","koaza":"","lat":"35.140466","lng":"136.864469"},{"town":"島井町","koaza":"","lat":"35.155769","lng":"136.817989"},{"town":"下之一色町","koaza":"","lat":"35.119252","lng":"136.835954"},{"town":"十一番町一丁目","koaza":"","lat":"35.124974","lng":"136.879960"},{"town":"十一番町二丁目","koaza":"","lat":"35.124183","lng":"136.879786"},{"town":"十一番町三丁目","koaza":"","lat":"35.122839","lng":"136.879965"},{"town":"十一番町四丁目","koaza":"","lat":"35.121796","lng":"136.880033"},{"town":"十一番町五丁目","koaza":"","lat":"35.120718","lng":"136.879854"},{"town":"十一番町六丁目","koaza":"","lat":"35.119781","lng":"136.879880"},{"town":"十一番町七丁目","koaza":"","lat":"35.118915","lng":"136.879883"},{"town":"十番町一丁目","koaza":"","lat":"35.124773","lng":"136.882336"},{"town":"十番町二丁目","koaza":"","lat":"35.123838","lng":"136.882306"},{"town":"十番町三丁目","koaza":"","lat":"35.122860","lng":"136.882229"},{"town":"十番町四丁目","koaza":"","lat":"35.121779","lng":"136.882149"},{"town":"十番町五丁目","koaza":"","lat":"35.120612","lng":"136.882125"},{"town":"十番町六丁目","koaza":"","lat":"35.119777","lng":"136.881948"},{"town":"十番町七丁目","koaza":"","lat":"35.118912","lng":"136.881861"},{"town":"正徳町一丁目","koaza":"","lat":"35.121652","lng":"136.863714"},{"town":"松年町一丁目","koaza":"","lat":"35.123983","lng":"136.873384"},{"town":"松年町二丁目","koaza":"","lat":"35.122804","lng":"136.873341"},{"town":"松年町三丁目","koaza":"","lat":"35.121767","lng":"136.873335"},{"town":"松年町四丁目","koaza":"","lat":"35.120284","lng":"136.873304"},{"town":"松年町五丁目","koaza":"","lat":"35.119152","lng":"136.873384"},{"town":"昭明町一丁目","koaza":"","lat":"35.124059","lng":"136.871423"},{"town":"昭明町二丁目","koaza":"","lat":"35.122860","lng":"136.870918"},{"town":"昭明町三丁目","koaza":"","lat":"35.121763","lng":"136.871041"},{"town":"昭明町四丁目","koaza":"","lat":"35.120662","lng":"136.870962"},{"town":"昭明町五丁目","koaza":"","lat":"35.119094","lng":"136.870714"},{"town":"昭和橋通一丁目","koaza":"","lat":"35.125031","lng":"136.873376"},{"town":"昭和橋通二丁目","koaza":"","lat":"35.124916","lng":"136.870685"},{"town":"昭和橋通三丁目","koaza":"","lat":"35.124916","lng":"136.868091"},{"town":"昭和橋通四丁目","koaza":"","lat":"35.124671","lng":"136.864966"},{"town":"昭和橋通五丁目","koaza":"","lat":"35.124457","lng":"136.861335"},{"town":"昭和橋通六丁目","koaza":"","lat":"35.124284","lng":"136.857531"},{"town":"昭和橋通九丁目","koaza":"","lat":"35.123743","lng":"136.842902"},{"town":"神郷町一丁目","koaza":"","lat":"35.135149","lng":"136.881739"},{"town":"神郷町二丁目","koaza":"","lat":"35.132966","lng":"136.880815"},{"town":"神郷町三丁目","koaza":"","lat":"35.130045","lng":"136.879928"},{"town":"助光一丁目","koaza":"","lat":"35.138298","lng":"136.827251"},{"town":"助光二丁目","koaza":"","lat":"35.135741","lng":"136.827148"},{"town":"助光三丁目","koaza":"","lat":"35.132698","lng":"136.827366"},{"town":"澄池町","koaza":"","lat":"35.150638","lng":"136.874513"},{"town":"宗円町一丁目","koaza":"","lat":"35.145998","lng":"136.868456"},{"town":"宗円町二丁目","koaza":"","lat":"35.145240","lng":"136.868160"},{"town":"外新町一丁目","koaza":"","lat":"35.128320","lng":"136.883590"},{"town":"外新町二丁目","koaza":"","lat":"35.128389","lng":"136.882127"},{"town":"外新町三丁目","koaza":"","lat":"35.128332","lng":"136.880604"},{"town":"外新町四丁目","koaza":"","lat":"35.128071","lng":"136.879048"},{"town":"大地","koaza":"","lat":"35.161605","lng":"136.833154"},{"town":"大当郎一丁目","koaza":"","lat":"35.133315","lng":"136.834655"},{"town":"大当郎二丁目","koaza":"","lat":"35.133345","lng":"136.831248"},{"town":"大当郎三丁目","koaza":"","lat":"35.129402","lng":"136.834235"},{"town":"大蟷螂町","koaza":"","lat":"35.131944","lng":"136.836712"},{"town":"太平通一丁目","koaza":"","lat":"35.142422","lng":"136.870625"},{"town":"太平通二丁目","koaza":"","lat":"35.139383","lng":"136.870598"},{"town":"太平通三丁目","koaza":"","lat":"35.136657","lng":"136.869820"},{"town":"太平通四丁目","koaza":"","lat":"35.134285","lng":"136.869339"},{"town":"太平通五丁目","koaza":"","lat":"35.131812","lng":"136.869062"},{"town":"太平通六丁目","koaza":"","lat":"35.129348","lng":"136.869161"},{"town":"太平通七丁目","koaza":"","lat":"35.126776","lng":"136.869048"},{"town":"高杉町","koaza":"","lat":"35.125802","lng":"136.842793"},{"town":"高畑一丁目","koaza":"","lat":"35.141879","lng":"136.855125"},{"town":"高畑二丁目","koaza":"","lat":"35.137513","lng":"136.855056"},{"town":"高畑三丁目","koaza":"","lat":"35.138455","lng":"136.852206"},{"town":"高畑四丁目","koaza":"","lat":"35.141914","lng":"136.851393"},{"town":"高畑五丁目","koaza":"","lat":"35.144839","lng":"136.851188"},{"town":"玉川町一丁目","koaza":"","lat":"35.123480","lng":"136.877982"},{"town":"玉川町二丁目","koaza":"","lat":"35.121367","lng":"136.878164"},{"town":"玉川町三丁目","koaza":"","lat":"35.120055","lng":"136.878218"},{"town":"玉川町四丁目","koaza":"","lat":"35.118842","lng":"136.878154"},{"town":"玉船町一丁目","koaza":"","lat":"35.123370","lng":"136.875251"},{"town":"玉船町二丁目","koaza":"","lat":"35.121404","lng":"136.875194"},{"town":"玉船町三丁目","koaza":"","lat":"35.119980","lng":"136.875338"},{"town":"玉船町四丁目","koaza":"","lat":"35.118849","lng":"136.875357"},{"town":"丹後町一丁目","koaza":"","lat":"35.135428","lng":"136.882620"},{"town":"丹後町二丁目","koaza":"","lat":"35.133218","lng":"136.881978"},{"town":"中京南通二丁目","koaza":"","lat":"35.148204","lng":"136.874344"},{"town":"中京南通三丁目","koaza":"","lat":"35.147343","lng":"136.873322"},{"town":"中郷一丁目","koaza":"","lat":"35.138453","lng":"136.849446"},{"town":"中郷二丁目","koaza":"","lat":"35.138929","lng":"136.845986"},{"town":"中郷三丁目","koaza":"","lat":"35.134533","lng":"136.846371"},{"town":"中郷四丁目","koaza":"","lat":"35.134383","lng":"136.849729"},{"town":"中郷五丁目","koaza":"","lat":"35.130992","lng":"136.849915"},{"town":"月島町","koaza":"","lat":"35.156232","lng":"136.882310"},{"town":"辻畑町","koaza":"","lat":"35.146912","lng":"136.864662"},{"town":"蔦元町一丁目","koaza":"","lat":"35.143256","lng":"136.872985"},{"town":"蔦元町二丁目","koaza":"","lat":"35.141940","lng":"136.872853"},{"town":"土野町","koaza":"","lat":"35.144980","lng":"136.840563"},{"town":"露橋一丁目","koaza":"","lat":"35.151706","lng":"136.887127"},{"town":"露橋二丁目","koaza":"","lat":"35.147151","lng":"136.886175"},{"town":"露橋町","koaza":"","lat":"35.151662","lng":"136.883631"},{"town":"戸田一丁目","koaza":"","lat":"35.141656","lng":"136.807491"},{"town":"戸田二丁目","koaza":"","lat":"35.139439","lng":"136.807356"},{"town":"戸田三丁目","koaza":"","lat":"35.137665","lng":"136.807177"},{"town":"戸田四丁目","koaza":"","lat":"35.135529","lng":"136.806914"},{"town":"戸田五丁目","koaza":"","lat":"35.133343","lng":"136.806560"},{"town":"戸田西一丁目","koaza":"","lat":"35.141421","lng":"136.802470"},{"town":"戸田西二丁目","koaza":"","lat":"35.139447","lng":"136.802300"},{"town":"戸田西三丁目","koaza":"","lat":"35.137241","lng":"136.802213"},{"town":"戸田明正一丁目","koaza":"","lat":"35.145440","lng":"136.808892"},{"town":"戸田明正二丁目","koaza":"","lat":"35.145212","lng":"136.805948"},{"town":"戸田明正三丁目","koaza":"","lat":"35.145195","lng":"136.802770"},{"town":"戸田ゆたか一丁目","koaza":"","lat":"35.134754","lng":"136.802219"},{"town":"戸田ゆたか二丁目","koaza":"","lat":"35.132330","lng":"136.802951"},{"town":"富川町一丁目","koaza":"","lat":"35.146370","lng":"136.877286"},{"town":"富川町二丁目","koaza":"","lat":"35.144414","lng":"136.877327"},{"town":"富川町三丁目","koaza":"","lat":"35.143103","lng":"136.877389"},{"town":"富川町四丁目","koaza":"","lat":"35.142004","lng":"136.877534"},{"town":"富川町五丁目","koaza":"","lat":"35.140720","lng":"136.877556"},{"town":"富田町大字江松","koaza":"","lat":"35.126187","lng":"136.824334"},{"town":"富田町大字包里","koaza":"","lat":"35.127441","lng":"136.813499"},{"town":"富田町大字供米田","koaza":"","lat":"35.131167","lng":"136.811475"},{"town":"富田町大字千音寺","koaza":"","lat":"35.160588","lng":"136.809918"},{"town":"富田町大字戸田","koaza":"","lat":"35.147846","lng":"136.812067"},{"town":"富田町大字長須賀","koaza":"","lat":"35.147916","lng":"136.828231"},{"town":"富田町大字服部","koaza":"","lat":"35.152929","lng":"136.811946"},{"town":"富田町大字春田","koaza":"","lat":"35.145967","lng":"136.811211"},{"town":"富田町大字伏屋","koaza":"","lat":"35.142164","lng":"136.832687"},{"town":"富田町大字前田","koaza":"","lat":"35.138916","lng":"136.834253"},{"town":"富田町大字万場","koaza":"","lat":"35.153849","lng":"136.835894"},{"town":"富田町大字榎津","koaza":"","lat":"35.134663","lng":"136.823194"},{"town":"富永一丁目","koaza":"","lat":"35.124255","lng":"136.812723"},{"town":"富永二丁目","koaza":"","lat":"35.123567","lng":"136.809756"},{"town":"富永三丁目","koaza":"","lat":"35.122885","lng":"136.807601"},{"town":"富永四丁目","koaza":"","lat":"35.123007","lng":"136.804915"},{"town":"富船町一丁目","koaza":"","lat":"35.147195","lng":"136.874506"},{"town":"富船町二丁目","koaza":"","lat":"35.146026","lng":"136.874652"},{"town":"富船町三丁目","koaza":"","lat":"35.144326","lng":"136.874494"},{"town":"富船町四丁目","koaza":"","lat":"35.142462","lng":"136.874663"},{"town":"富船町五丁目","koaza":"","lat":"35.140664","lng":"136.874613"},{"town":"中川運河","koaza":"","lat":"35.133953","lng":"136.876800"},{"town":"中島新町一丁目","koaza":"","lat":"35.130782","lng":"136.852802"},{"town":"中島新町二丁目","koaza":"","lat":"35.127936","lng":"136.851447"},{"town":"中島新町三丁目","koaza":"","lat":"35.125366","lng":"136.851839"},{"town":"中島新町四丁目","koaza":"","lat":"35.122618","lng":"136.852894"},{"town":"長須賀一丁目","koaza":"","lat":"35.150403","lng":"136.825619"},{"town":"長須賀二丁目","koaza":"","lat":"35.147516","lng":"136.825708"},{"town":"長須賀三丁目","koaza":"","lat":"35.144925","lng":"136.826434"},{"town":"中須町","koaza":"","lat":"35.134341","lng":"136.837880"},{"town":"中野新町一丁目","koaza":"","lat":"35.128159","lng":"136.872053"},{"town":"中野新町二丁目","koaza":"","lat":"35.127840","lng":"136.871210"},{"town":"中野新町三丁目","koaza":"","lat":"35.127520","lng":"136.872082"},{"town":"中野新町四丁目","koaza":"","lat":"35.127005","lng":"136.872043"},{"town":"中野新町五丁目","koaza":"","lat":"35.126671","lng":"136.872407"},{"town":"中野新町六丁目","koaza":"","lat":"35.126289","lng":"136.873272"},{"town":"中野新町七丁目","koaza":"","lat":"35.125881","lng":"136.872095"},{"town":"中野本町一丁目","koaza":"","lat":"35.132035","lng":"136.883800"},{"town":"中野本町二丁目","koaza":"","lat":"35.131742","lng":"136.880353"},{"town":"中花町","koaza":"","lat":"35.130998","lng":"136.846483"},{"town":"長良町一丁目","koaza":"","lat":"35.153220","lng":"136.868830"},{"town":"長良町二丁目","koaza":"","lat":"35.150874","lng":"136.869395"},{"town":"長良町三丁目","koaza":"","lat":"35.149571","lng":"136.870217"},{"town":"長良町四丁目","koaza":"","lat":"35.148598","lng":"136.870440"},{"town":"長良町五丁目","koaza":"","lat":"35.148349","lng":"136.869043"},{"town":"新家一丁目","koaza":"","lat":"35.157532","lng":"136.807271"},{"town":"新家二丁目","koaza":"","lat":"35.155184","lng":"136.807436"},{"town":"新家三丁目","koaza":"","lat":"35.157394","lng":"136.803402"},{"town":"西中島一丁目","koaza":"","lat":"35.121890","lng":"136.849032"},{"town":"西中島二丁目","koaza":"","lat":"35.121572","lng":"136.846648"},{"town":"西日置一丁目","koaza":"","lat":"35.157595","lng":"136.889962"},{"town":"西日置二丁目","koaza":"","lat":"35.155805","lng":"136.890125"},{"town":"西日置町","koaza":"","lat":"35.154453","lng":"136.891907"},{"town":"西日置町十丁目","koaza":"","lat":"35.157633","lng":"136.885169"},{"town":"西日置町九丁目","koaza":"","lat":"35.157805","lng":"136.886838"},{"town":"西伏屋一丁目","koaza":"","lat":"35.145351","lng":"136.822226"},{"town":"西伏屋二丁目","koaza":"","lat":"35.142925","lng":"136.820849"},{"town":"西伏屋三丁目","koaza":"","lat":"35.140540","lng":"136.821481"},{"town":"二女子町一丁目","koaza":"","lat":"35.146192","lng":"136.879995"},{"town":"二女子町二丁目","koaza":"","lat":"35.145494","lng":"136.880286"},{"town":"二女子町三丁目","koaza":"","lat":"35.145106","lng":"136.879348"},{"town":"二女子町四丁目","koaza":"","lat":"35.144576","lng":"136.878944"},{"town":"二女子町五丁目","koaza":"","lat":"35.143585","lng":"136.879727"},{"town":"二女子町六丁目","koaza":"","lat":"35.142781","lng":"136.879604"},{"town":"二女子町七丁目","koaza":"","lat":"35.141737","lng":"136.879289"},{"town":"野田一丁目","koaza":"","lat":"35.143245","lng":"136.847108"},{"town":"野田二丁目","koaza":"","lat":"35.143241","lng":"136.842804"},{"town":"野田三丁目","koaza":"","lat":"35.142400","lng":"136.838462"},{"town":"乗越町一丁目","koaza":"","lat":"35.154179","lng":"136.871143"},{"town":"乗越町二丁目","koaza":"","lat":"35.153271","lng":"136.870920"},{"town":"乗越町三丁目","koaza":"","lat":"35.152261","lng":"136.871230"},{"town":"葉池町一丁目","koaza":"","lat":"35.128870","lng":"136.867482"},{"town":"葉池町二丁目","koaza":"","lat":"35.127536","lng":"136.867696"},{"town":"畑田町一丁目","koaza":"","lat":"35.123510","lng":"136.862278"},{"town":"畑田町二丁目","koaza":"","lat":"35.123375","lng":"136.860592"},{"town":"畑田町三丁目","koaza":"","lat":"35.123292","lng":"136.858610"},{"town":"畑田町四丁目","koaza":"","lat":"35.123124","lng":"136.856665"},{"town":"幡野町","koaza":"","lat":"35.140532","lng":"136.888247"},{"town":"八剱町一丁目","koaza":"","lat":"35.126343","lng":"136.883421"},{"town":"八剱町二丁目","koaza":"","lat":"35.126341","lng":"136.882222"},{"town":"八剱町三丁目","koaza":"","lat":"35.126230","lng":"136.880697"},{"town":"八剱町四丁目","koaza":"","lat":"35.126015","lng":"136.879109"},{"town":"八田町","koaza":"","lat":"35.147622","lng":"136.853596"},{"town":"八田本町","koaza":"","lat":"35.146470","lng":"136.847745"},{"town":"服部一丁目","koaza":"","lat":"35.151382","lng":"136.816985"},{"town":"服部二丁目","koaza":"","lat":"35.148575","lng":"136.815765"},{"town":"服部三丁目","koaza":"","lat":"35.149184","lng":"136.812425"},{"town":"服部四丁目","koaza":"","lat":"35.151270","lng":"136.813085"},{"town":"服部五丁目","koaza":"","lat":"35.150783","lng":"136.809924"},{"town":"花池町一丁目","koaza":"","lat":"35.147714","lng":"136.849254"},{"town":"花池町二丁目","koaza":"","lat":"35.147343","lng":"136.849220"},{"town":"花池町三丁目","koaza":"","lat":"35.146955","lng":"136.849476"},{"town":"花塚町一丁目","koaza":"","lat":"35.130529","lng":"136.884388"},{"town":"花塚町二丁目","koaza":"","lat":"35.130407","lng":"136.883301"},{"town":"花塚町三丁目","koaza":"","lat":"35.130885","lng":"136.881468"},{"town":"花塚町四丁目","koaza":"","lat":"35.129837","lng":"136.881501"},{"town":"春田一丁目","koaza":"","lat":"35.145117","lng":"136.811920"},{"town":"春田二丁目","koaza":"","lat":"35.144832","lng":"136.814484"},{"town":"春田三丁目","koaza":"","lat":"35.141625","lng":"136.813977"},{"town":"春田四丁目","koaza":"","lat":"35.138533","lng":"136.812715"},{"town":"春田五丁目","koaza":"","lat":"35.141124","lng":"136.811477"},{"town":"東起町一丁目","koaza":"","lat":"35.122747","lng":"136.842955"},{"town":"東起町二丁目","koaza":"","lat":"35.121838","lng":"136.843002"},{"town":"東起町三丁目","koaza":"","lat":"35.120823","lng":"136.843044"},{"town":"東起町四丁目","koaza":"","lat":"35.119407","lng":"136.842813"},{"town":"東起町五丁目","koaza":"","lat":"35.118157","lng":"136.841688"},{"town":"東かの里町","koaza":"","lat":"35.131438","lng":"136.817541"},{"town":"東中島町一丁目","koaza":"","lat":"35.127729","lng":"136.859856"},{"town":"東中島町二丁目","koaza":"","lat":"35.126793","lng":"136.859849"},{"town":"東中島町三丁目","koaza":"","lat":"35.125846","lng":"136.859844"},{"town":"東中島町四丁目","koaza":"","lat":"35.125166","lng":"136.859853"},{"town":"東中島町五丁目","koaza":"","lat":"35.128240","lng":"136.855482"},{"town":"東中島町六丁目","koaza":"","lat":"35.126783","lng":"136.856420"},{"town":"東中島町七丁目","koaza":"","lat":"35.126023","lng":"136.856567"},{"town":"東中島町八丁目","koaza":"","lat":"35.125166","lng":"136.856735"},{"town":"東春田一丁目","koaza":"","lat":"35.145234","lng":"136.817394"},{"town":"東春田二丁目","koaza":"","lat":"35.141637","lng":"136.817663"},{"town":"東春田三丁目","koaza":"","lat":"35.138745","lng":"136.816888"},{"town":"七反田町","koaza":"","lat":"35.152717","lng":"136.814315"},{"town":"平戸町一丁目","koaza":"","lat":"35.130369","lng":"136.862659"},{"town":"平戸町二丁目","koaza":"","lat":"35.128672","lng":"136.862741"},{"town":"広川町一丁目","koaza":"","lat":"35.153399","lng":"136.882633"},{"town":"広川町二丁目","koaza":"","lat":"35.152594","lng":"136.881406"},{"town":"広川町三丁目","koaza":"","lat":"35.151444","lng":"136.880543"},{"town":"広川町四丁目","koaza":"","lat":"35.150195","lng":"136.879476"},{"town":"広川町五丁目","koaza":"","lat":"35.148586","lng":"136.878097"},{"town":"広住町","koaza":"","lat":"35.155646","lng":"136.884171"},{"town":"広田町一丁目","koaza":"","lat":"35.130751","lng":"136.857795"},{"town":"広田町二丁目","koaza":"","lat":"35.129493","lng":"136.857874"},{"town":"広田町三丁目","koaza":"","lat":"35.128409","lng":"136.857972"},{"town":"福川町一丁目","koaza":"","lat":"35.130801","lng":"136.877846"},{"town":"福川町二丁目","koaza":"","lat":"35.129030","lng":"136.877959"},{"town":"福川町三丁目","koaza":"","lat":"35.127601","lng":"136.877827"},{"town":"福川町四丁目","koaza":"","lat":"35.126115","lng":"136.877958"},{"town":"福川町五丁目","koaza":"","lat":"35.125102","lng":"136.877918"},{"town":"福島一丁目","koaza":"","lat":"35.123841","lng":"136.801773"},{"town":"福島二丁目","koaza":"","lat":"35.123642","lng":"136.798773"},{"town":"福島三丁目","koaza":"","lat":"35.126705","lng":"136.798698"},{"town":"福住町","koaza":"","lat":"35.157134","lng":"136.880781"},{"town":"福船町一丁目","koaza":"","lat":"35.130690","lng":"136.874907"},{"town":"福船町二丁目","koaza":"","lat":"35.129081","lng":"136.875050"},{"town":"福船町三丁目","koaza":"","lat":"35.127580","lng":"136.875103"},{"town":"福船町四丁目","koaza":"","lat":"35.126241","lng":"136.875142"},{"town":"福船町五丁目","koaza":"","lat":"35.125088","lng":"136.875181"},{"town":"伏屋一丁目","koaza":"","lat":"35.144163","lng":"136.824789"},{"town":"伏屋二丁目","koaza":"","lat":"35.141961","lng":"136.829099"},{"town":"伏屋三丁目","koaza":"","lat":"35.140623","lng":"136.829274"},{"town":"伏屋四丁目","koaza":"","lat":"35.140115","lng":"136.825289"},{"town":"伏屋五丁目","koaza":"","lat":"35.142890","lng":"136.825105"},{"town":"舟戸町","koaza":"","lat":"35.151173","lng":"136.877979"},{"town":"豊成町","koaza":"","lat":"35.156055","lng":"136.877854"},{"town":"法蔵町一丁目","koaza":"","lat":"35.124028","lng":"136.867654"},{"town":"法蔵町二丁目","koaza":"","lat":"35.123685","lng":"136.864872"},{"town":"細米町一丁目","koaza":"","lat":"35.136589","lng":"136.863626"},{"town":"細米町二丁目","koaza":"","lat":"35.135517","lng":"136.864414"},{"town":"法華一丁目","koaza":"","lat":"35.127846","lng":"136.846724"},{"town":"法華二丁目","koaza":"","lat":"35.125524","lng":"136.846818"},{"town":"法華西町","koaza":"","lat":"35.129970","lng":"136.843933"},{"town":"法華西町一丁目","koaza":"","lat":"35.131839","lng":"136.842324"},{"town":"法華西町二丁目","koaza":"","lat":"35.130884","lng":"136.841821"},{"town":"法華西町三丁目","koaza":"","lat":"35.129774","lng":"136.842022"},{"town":"法華西町四丁目","koaza":"","lat":"35.128836","lng":"136.842207"},{"town":"法華西町五丁目","koaza":"","lat":"35.127931","lng":"136.841917"},{"town":"法華西町六丁目","koaza":"","lat":"35.127479","lng":"136.843045"},{"town":"本前田町","koaza":"","lat":"35.143366","lng":"136.836126"},{"town":"前田西町一丁目","koaza":"","lat":"35.139593","lng":"136.831333"},{"town":"前田西町二丁目","koaza":"","lat":"35.137572","lng":"136.831974"},{"town":"前田西町三丁目","koaza":"","lat":"35.135897","lng":"136.831891"},{"town":"前並町","koaza":"","lat":"35.149797","lng":"136.883603"},{"town":"松重町","koaza":"","lat":"35.156993","lng":"136.892676"},{"town":"松ノ木町一丁目","koaza":"","lat":"35.137801","lng":"136.865910"},{"town":"松ノ木町二丁目","koaza":"","lat":"35.136959","lng":"136.865299"},{"town":"松葉町一丁目","koaza":"","lat":"35.152534","lng":"136.865834"},{"town":"松葉町二丁目","koaza":"","lat":"35.151326","lng":"136.865691"},{"town":"松葉町三丁目","koaza":"","lat":"35.150425","lng":"136.864887"},{"town":"松葉町四丁目","koaza":"","lat":"35.149687","lng":"136.864170"},{"town":"松葉町五丁目","koaza":"","lat":"35.148541","lng":"136.865025"},{"town":"的場町一丁目","koaza":"","lat":"35.133475","lng":"136.859257"},{"town":"的場町二丁目","koaza":"","lat":"35.132159","lng":"136.859128"},{"town":"的場町三丁目","koaza":"","lat":"35.131895","lng":"136.856916"},{"town":"丸米町一丁目","koaza":"","lat":"35.134387","lng":"136.872182"},{"town":"丸米町二丁目","koaza":"","lat":"35.132973","lng":"136.871980"},{"town":"万町","koaza":"","lat":"35.147107","lng":"136.857935"},{"town":"万場一丁目","koaza":"","lat":"35.156282","lng":"136.834613"},{"town":"万場二丁目","koaza":"","lat":"35.156049","lng":"136.831669"},{"town":"万場三丁目","koaza":"","lat":"35.153519","lng":"136.831308"},{"town":"万場四丁目","koaza":"","lat":"35.153007","lng":"136.826978"},{"town":"万場五丁目","koaza":"","lat":"35.156167","lng":"136.827556"},{"town":"水里一丁目","koaza":"","lat":"35.128635","lng":"136.811882"},{"town":"水里二丁目","koaza":"","lat":"35.129317","lng":"136.809274"},{"town":"水里三丁目","koaza":"","lat":"35.129203","lng":"136.806970"},{"town":"水里四丁目","koaza":"","lat":"35.128794","lng":"136.805232"},{"town":"水里五丁目","koaza":"","lat":"35.128562","lng":"136.802764"},{"town":"三ツ池町一丁目","koaza":"","lat":"35.155378","lng":"136.871821"},{"town":"三ツ池町二丁目","koaza":"","lat":"35.154591","lng":"136.872201"},{"town":"三ツ屋町一丁目","koaza":"","lat":"35.139784","lng":"136.872655"},{"town":"三ツ屋町二丁目","koaza":"","lat":"35.138787","lng":"136.872630"},{"town":"南八熊町","koaza":"","lat":"35.139422","lng":"136.892723"},{"town":"南脇町一丁目","koaza":"","lat":"35.147747","lng":"136.868865"},{"town":"南脇町二丁目","koaza":"","lat":"35.147552","lng":"136.868006"},{"town":"南脇町三丁目","koaza":"","lat":"35.147122","lng":"136.867653"},{"town":"宮脇町一丁目","koaza":"","lat":"35.137063","lng":"136.868129"},{"town":"宮脇町二丁目","koaza":"","lat":"35.135358","lng":"136.867118"},{"town":"明徳町一丁目","koaza":"","lat":"35.122593","lng":"136.867693"},{"town":"明徳町二丁目","koaza":"","lat":"35.122368","lng":"136.866061"},{"town":"明徳町三丁目","koaza":"","lat":"35.122290","lng":"136.864578"},{"town":"明徳町四丁目","koaza":"","lat":"35.119612","lng":"136.866136"},{"town":"元中野町一丁目","koaza":"","lat":"35.138299","lng":"136.878838"},{"town":"元中野町二丁目","koaza":"","lat":"35.136607","lng":"136.879938"},{"town":"元中野町三丁目","koaza":"","lat":"35.134858","lng":"136.879758"},{"town":"元中野町四丁目","koaza":"","lat":"35.133043","lng":"136.879358"},{"town":"百船町","koaza":"","lat":"35.158667","lng":"136.879814"},{"town":"八神町一丁目","koaza":"","lat":"35.139974","lng":"136.882707"},{"town":"八神町二丁目","koaza":"","lat":"35.139929","lng":"136.880142"},{"town":"八神町三丁目","koaza":"","lat":"35.139519","lng":"136.880264"},{"town":"八神町四丁目","koaza":"","lat":"35.139048","lng":"136.879506"},{"town":"八神町五丁目","koaza":"","lat":"35.138612","lng":"136.879646"},{"town":"八熊一丁目","koaza":"","lat":"35.141273","lng":"136.894795"},{"town":"八熊二丁目","koaza":"","lat":"35.141430","lng":"136.891495"},{"town":"八熊三丁目","koaza":"","lat":"35.141826","lng":"136.888366"},{"town":"八熊通四丁目","koaza":"","lat":"35.140350","lng":"136.884339"},{"town":"八熊通五丁目","koaza":"","lat":"35.140876","lng":"136.882638"},{"town":"八熊通六丁目","koaza":"","lat":"35.140927","lng":"136.879615"},{"town":"八家町一丁目","koaza":"","lat":"35.131250","lng":"136.872017"},{"town":"八家町二丁目","koaza":"","lat":"35.130065","lng":"136.872055"},{"town":"八家町三丁目","koaza":"","lat":"35.128797","lng":"136.872094"},{"town":"八家町六丁目","koaza":"","lat":"35.128481","lng":"136.873558"},{"town":"柳川町","koaza":"","lat":"35.138251","lng":"136.895744"},{"town":"柳島町一丁目","koaza":"","lat":"35.148660","lng":"136.881928"},{"town":"柳島町二丁目","koaza":"","lat":"35.148342","lng":"136.880882"},{"town":"柳島町三丁目","koaza":"","lat":"35.147967","lng":"136.881103"},{"town":"柳島町四丁目","koaza":"","lat":"35.147670","lng":"136.880769"},{"town":"柳島町五丁目","koaza":"","lat":"35.147303","lng":"136.880803"},{"town":"柳島町六丁目","koaza":"","lat":"35.146923","lng":"136.880812"},{"town":"柳田町一丁目","koaza":"","lat":"35.146465","lng":"136.845327"},{"town":"柳田町二丁目","koaza":"","lat":"35.145970","lng":"136.843806"},{"town":"柳堀町","koaza":"","lat":"35.155621","lng":"136.886678"},{"town":"柳瀬町一丁目","koaza":"","lat":"35.146497","lng":"136.849501"},{"town":"柳瀬町二丁目","koaza":"","lat":"35.146088","lng":"136.849604"},{"town":"柳瀬町三丁目","koaza":"","lat":"35.145505","lng":"136.849218"},{"town":"柳森町","koaza":"","lat":"35.149426","lng":"136.858160"},{"town":"八幡本通一丁目","koaza":"","lat":"35.146506","lng":"136.880665"},{"town":"八幡本通二丁目","koaza":"","lat":"35.145681","lng":"136.883624"},{"town":"横井一丁目","koaza":"","lat":"35.148067","lng":"136.836189"},{"town":"横井二丁目","koaza":"","lat":"35.146164","lng":"136.835514"},{"town":"横堀町一丁目","koaza":"","lat":"35.153620","lng":"136.884643"},{"town":"横堀町二丁目","koaza":"","lat":"35.152972","lng":"136.884648"},{"town":"横堀町三丁目","koaza":"","lat":"35.152369","lng":"136.884375"},{"town":"横前町","koaza":"","lat":"35.148119","lng":"136.837638"},{"town":"吉津一丁目","koaza":"","lat":"35.156464","lng":"136.822304"},{"town":"吉津二丁目","koaza":"","lat":"35.153619","lng":"136.821986"},{"town":"吉津三丁目","koaza":"","lat":"35.150824","lng":"136.821379"},{"town":"吉津四丁目","koaza":"","lat":"35.148075","lng":"136.820697"},{"town":"吉津五丁目","koaza":"","lat":"35.145818","lng":"136.819527"},{"town":"好本町一丁目","koaza":"","lat":"35.143739","lng":"136.869582"},{"town":"好本町二丁目","koaza":"","lat":"35.143001","lng":"136.868058"},{"town":"好本町三丁目","koaza":"","lat":"35.141855","lng":"136.867846"},{"town":"若山町一丁目","koaza":"","lat":"35.133676","lng":"136.862194"},{"town":"若山町二丁目","koaza":"","lat":"35.131919","lng":"136.862232"},{"town":"若山町三丁目","koaza":"","lat":"35.133795","lng":"136.860759"},{"town":"若山町四丁目","koaza":"","lat":"35.132112","lng":"136.860888"},{"town":"富田町大字千音寺","koaza":"下川西","lat":"35.162359","lng":"136.802722"},{"town":"富田町大字千音寺","koaza":"川原田","lat":"35.16047","lng":"136.80392"},{"town":"富田町大字千音寺","koaza":"桜木","lat":"35.161888","lng":"136.803836"},{"town":"富田町大字千音寺","koaza":"上川西","lat":"35.164407","lng":"136.804076"},{"town":"富田町大字千音寺","koaza":"下前田畔","lat":"35.163788","lng":"136.805312"},{"town":"富田町大字千音寺","koaza":"甚目寺田","lat":"35.160823","lng":"136.806987"},{"town":"富田町大字千音寺","koaza":"上之坪","lat":"35.165573","lng":"136.807367"},{"town":"富田町大字千音寺","koaza":"中狭間","lat":"35.162611","lng":"136.806649"},{"town":"富田町大字千音寺","koaza":"西川岸塚","lat":"35.161422","lng":"136.80736"},{"town":"富田町大字千音寺","koaza":"猪ノ木","lat":"35.163909","lng":"136.807354"},{"town":"富田町大字千音寺","koaza":"六供","lat":"35.166923","lng":"136.807834"},{"town":"富田町大字千音寺","koaza":"烏帽子","lat":"35.167366","lng":"136.80741"},{"town":"富田町大字千音寺","koaza":"中地","lat":"35.1624","lng":"136.809658"},{"town":"富田町大字千音寺","koaza":"東川岸塚","lat":"35.161006","lng":"136.808825"},{"town":"富田町大字千音寺","koaza":"一本松","lat":"35.166519","lng":"136.810415"},{"town":"富田町大字千音寺","koaza":"三角","lat":"35.167611","lng":"136.809557"},{"town":"富田町大字千音寺","koaza":"諸桑","lat":"35.155235","lng":"136.810752"},{"town":"富田町大字千音寺","koaza":"松ノ木","lat":"35.156238","lng":"136.810085"},{"town":"富田町大字千音寺","koaza":"佛供田","lat":"35.158283","lng":"136.810635"},{"town":"富田町大字千音寺","koaza":"西五反田","lat":"35.160721","lng":"136.810348"},{"town":"富田町大字千音寺","koaza":"西尼ケ塚","lat":"35.167579","lng":"136.811234"},{"town":"富田町大字千音寺","koaza":"向江","lat":"35.154304","lng":"136.811416"},{"town":"富田町大字千音寺","koaza":"平毛","lat":"35.165086","lng":"136.811264"},{"town":"富田町大字千音寺","koaza":"東五反田","lat":"35.161328","lng":"136.811728"},{"town":"富田町大字千音寺","koaza":"南島","lat":"35.155319","lng":"136.812455"},{"town":"富田町大字千音寺","koaza":"上屋敷","lat":"35.162774","lng":"136.813293"},{"town":"富田町大字千音寺","koaza":"粉諸","lat":"35.164399","lng":"136.811817"},{"town":"富田町大字千音寺","koaza":"間渡里","lat":"35.158647","lng":"136.813005"},{"town":"富田町大字千音寺","koaza":"東尼ケ塚","lat":"35.166448","lng":"136.81239"},{"town":"富田町大字千音寺","koaza":"西屋敷","lat":"35.161313","lng":"136.812454"},{"town":"富田町大字千音寺","koaza":"南屋敷","lat":"35.160368","lng":"136.812289"},{"town":"富田町大字千音寺","koaza":"西福正","lat":"35.154422","lng":"136.814456"},{"town":"富田町大字千音寺","koaza":"十六割","lat":"35.155473","lng":"136.814528"},{"town":"富田町大字千音寺","koaza":"稲屋","lat":"35.165067","lng":"136.814298"},{"town":"富田町大字千音寺","koaza":"土坪","lat":"35.15845","lng":"136.814526"},{"town":"富田町大字千音寺","koaza":"中屋敷","lat":"35.160703","lng":"136.814215"},{"town":"富田町大字千音寺","koaza":"市場下屋敷","lat":"35.159217","lng":"136.814811"},{"town":"富田町大字千音寺","koaza":"東屋敷","lat":"35.162727","lng":"136.814659"},{"town":"富田町大字千音寺","koaza":"西六反畑","lat":"35.163445","lng":"136.814953"},{"town":"富田町大字千音寺","koaza":"市場上屋敷","lat":"35.160902","lng":"136.815609"},{"town":"富田町大字千音寺","koaza":"赤星裏","lat":"35.158795","lng":"136.815624"},{"town":"富田町大字千音寺","koaza":"郷東","lat":"35.162193","lng":"136.816162"},{"town":"富田町大字千音寺","koaza":"東福正","lat":"35.154582","lng":"136.816622"},{"town":"富田町大字千音寺","koaza":"三ノ坪","lat":"35.15699","lng":"136.816345"},{"town":"富田町大字千音寺","koaza":"狭間","lat":"35.159257","lng":"136.816725"},{"town":"富田町大字千音寺","koaza":"供木","lat":"35.161128","lng":"136.816963"},{"town":"富田町大字千音寺","koaza":"東六反畑","lat":"35.163737","lng":"136.817909"},{"town":"富田町大字榎津","koaza":"布部田","lat":"35.137413","lng":"136.819319"},{"town":"富田町大字榎津","koaza":"郷中","lat":"35.136223","lng":"136.82345"},{"town":"下之一色町","koaza":"権野","lat":"35.124112","lng":"136.82813"},{"town":"富田町大字長須賀","koaza":"東出","lat":"35.145105","lng":"136.828604"},{"town":"下之一色町","koaza":"戌亥島","lat":"35.122323","lng":"136.82985"},{"town":"下之一色町","koaza":"古川","lat":"35.123068","lng":"136.831146"},{"town":"下之一色町","koaza":"波花","lat":"35.125349","lng":"136.831041"},{"town":"下之一色町","koaza":"西ノ切","lat":"35.121906","lng":"136.831549"},{"town":"下之一色町","koaza":"中ノ切","lat":"35.120783","lng":"136.832314"},{"town":"下之一色町","koaza":"宮分","lat":"35.125764","lng":"136.834611"},{"town":"下之一色町","koaza":"北ノ切","lat":"35.12172","lng":"136.83408"},{"town":"下之一色町","koaza":"北起","lat":"35.123284","lng":"136.835293"},{"town":"下之一色町","koaza":"南ノ切","lat":"35.119877","lng":"136.834115"},{"town":"下之一色町","koaza":"東ノ切","lat":"35.121457","lng":"136.835002"},{"town":"下之一色町","koaza":"操出","lat":"35.119162","lng":"136.834882"},{"town":"下之一色町","koaza":"三角","lat":"35.115455","lng":"136.83516"},{"town":"下之一色町","koaza":"松蔭四丁目","lat":"35.122704","lng":"136.839316"},{"town":"下之一色町","koaza":"松蔭七丁目","lat":"35.119373","lng":"136.839096"},{"town":"下之一色町","koaza":"松蔭三丁目","lat":"35.12418","lng":"136.839108"},{"town":"下之一色町","koaza":"松蔭五丁目","lat":"35.122179","lng":"136.839267"},{"town":"下之一色町","koaza":"松蔭六丁目","lat":"35.121161","lng":"136.839989"},{"town":"下之一色町","koaza":"松蔭一丁目","lat":"35.127924","lng":"136.839824"},{"town":"荒子町","koaza":"六田池","lat":"35.136409","lng":"136.855059"},{"town":"荒子町","koaza":"塔堂屋敷","lat":"35.136884","lng":"136.855499"},{"town":"荒子町","koaza":"大和ケ池","lat":"35.135804","lng":"136.856179"},{"town":"荒子町","koaza":"亭方西","lat":"35.133518","lng":"136.856093"},{"town":"荒子町","koaza":"念仏池","lat":"35.133034","lng":"136.856685"},{"town":"荒子町","koaza":"大門西","lat":"35.135127","lng":"136.85796"},{"town":"荒子町","koaza":"地蔵前","lat":"35.13409","lng":"136.858657"},{"town":"荒子町","koaza":"宮窓","lat":"35.136632","lng":"136.860377"},{"town":"荒子町","koaza":"大門東","lat":"35.135191","lng":"136.860204"},{"town":"荒子町","koaza":"小城","lat":"35.136526","lng":"136.860819"},{"town":"烏森町","koaza":"四反畑","lat":"35.151469","lng":"136.862584"},{"town":"烏森町","koaza":"蓮池","lat":"35.150667","lng":"136.862143"},{"town":"下之一色町","koaza":"松蔭二丁目","lat":"35.125715","lng":"136.839319"}]