[{"town":"朝日愛宕","koaza":"","lat":"35.222217","lng":"136.849612"},{"town":"朝日貝塚","koaza":"","lat":"35.220279","lng":"136.852767"},{"town":"朝日検見","koaza":"","lat":"35.221177","lng":"136.855684"},{"town":"朝日五条","koaza":"","lat":"35.222449","lng":"136.846659"},{"town":"朝日城屋敷","koaza":"","lat":"35.220415","lng":"136.845138"},{"town":"朝日天王","koaza":"","lat":"35.219282","lng":"136.845960"},{"town":"朝日弥生","koaza":"","lat":"35.219057","lng":"136.848726"},{"town":"阿原","koaza":"","lat":"35.216751","lng":"136.858310"},{"town":"阿原池之表","koaza":"","lat":"35.214311","lng":"136.855699"},{"town":"阿原鴨池","koaza":"","lat":"35.216914","lng":"136.856659"},{"town":"阿原北野","koaza":"","lat":"35.214191","lng":"136.861078"},{"town":"阿原神門","koaza":"","lat":"35.208535","lng":"136.857490"},{"town":"阿原角の城","koaza":"","lat":"35.218127","lng":"136.853681"},{"town":"阿原八幡","koaza":"","lat":"35.216049","lng":"136.854512"},{"town":"阿原星の宮","koaza":"","lat":"35.212159","lng":"136.856173"},{"town":"阿原宮東","koaza":"","lat":"35.212805","lng":"136.859606"},{"town":"阿原宮前","koaza":"","lat":"35.210646","lng":"136.859151"},{"town":"一場","koaza":"","lat":"35.223345","lng":"136.840066"},{"town":"一場福島","koaza":"","lat":"35.227319","lng":"136.841626"},{"town":"一場弓町","koaza":"","lat":"35.224640","lng":"136.842613"},{"town":"大嶋一丁目","koaza":"","lat":"35.229004","lng":"136.835153"},{"town":"大嶋二丁目","koaza":"","lat":"35.227744","lng":"136.836537"},{"town":"下津町北下河原","koaza":"","lat":"35.245608","lng":"136.832311"},{"town":"下津町東クタラケ","koaza":"","lat":"35.245989","lng":"136.832893"},{"town":"上河原","koaza":"","lat":"35.195068","lng":"136.853495"},{"town":"清洲","koaza":"","lat":"35.209955","lng":"136.840370"},{"town":"清洲一丁目","koaza":"","lat":"35.215626","lng":"136.836167"},{"town":"清洲二丁目","koaza":"","lat":"35.216205","lng":"136.838343"},{"town":"清洲三丁目","koaza":"","lat":"35.217797","lng":"136.838782"},{"town":"清洲四丁目","koaza":"","lat":"35.221543","lng":"136.835909"},{"town":"清洲田中町","koaza":"","lat":"35.215416","lng":"136.845346"},{"town":"清洲弁天","koaza":"","lat":"35.216288","lng":"136.846743"},{"town":"下河原","koaza":"","lat":"35.186165","lng":"136.850054"},{"town":"上条","koaza":"","lat":"35.206186","lng":"136.825963"},{"town":"上条一丁目","koaza":"","lat":"35.207897","lng":"136.832645"},{"town":"上条二丁目","koaza":"","lat":"35.205417","lng":"136.831125"},{"town":"上条織部","koaza":"","lat":"35.207230","lng":"136.830597"},{"town":"新清洲一丁目","koaza":"","lat":"35.210968","lng":"136.834697"},{"town":"新清洲二丁目","koaza":"","lat":"35.209391","lng":"136.834478"},{"town":"新清洲三丁目","koaza":"","lat":"35.209275","lng":"136.836585"},{"town":"新清洲四丁目","koaza":"","lat":"35.206371","lng":"136.836844"},{"town":"新清洲五丁目","koaza":"","lat":"35.207097","lng":"136.834680"},{"town":"新清洲六丁目","koaza":"","lat":"35.205489","lng":"136.834638"},{"town":"須ケ口","koaza":"","lat":"35.199033","lng":"136.848736"},{"town":"須ケ口駅前一丁目","koaza":"","lat":"35.198731","lng":"136.845079"},{"town":"須ケ口駅前二丁目","koaza":"","lat":"35.198378","lng":"136.844818"},{"town":"助七","koaza":"","lat":"35.203516","lng":"136.855321"},{"town":"助七一丁目","koaza":"","lat":"35.202919","lng":"136.853774"},{"town":"助七二丁目","koaza":"","lat":"35.203439","lng":"136.850239"},{"town":"助七五反田","koaza":"","lat":"35.206415","lng":"136.854845"},{"town":"助七東山中","koaza":"","lat":"35.205219","lng":"136.856139"},{"town":"助七美里","koaza":"","lat":"35.205966","lng":"136.853386"},{"town":"助七芳花","koaza":"","lat":"35.207649","lng":"136.856531"},{"town":"土田","koaza":"","lat":"35.212368","lng":"136.825555"},{"town":"土田一丁目","koaza":"","lat":"35.210586","lng":"136.832681"},{"town":"土田二丁目","koaza":"","lat":"35.210672","lng":"136.828740"},{"town":"土田三丁目","koaza":"","lat":"35.214278","lng":"136.830083"},{"town":"土田小中畑","koaza":"","lat":"35.212731","lng":"136.833771"},{"town":"土田川田","koaza":"","lat":"35.212525","lng":"136.834569"},{"town":"土田北浦","koaza":"","lat":"35.213131","lng":"136.831091"},{"town":"土田郷上切","koaza":"","lat":"35.212053","lng":"136.831524"},{"town":"土田郷下切","koaza":"","lat":"35.209415","lng":"136.830020"},{"town":"土田郷中切","koaza":"","lat":"35.210986","lng":"136.830926"},{"town":"寺野","koaza":"","lat":"35.207652","lng":"136.849988"},{"town":"寺野池端","koaza":"","lat":"35.212414","lng":"136.847848"},{"town":"寺野郷前","koaza":"","lat":"35.205297","lng":"136.850383"},{"town":"寺野花笠","koaza":"","lat":"35.209262","lng":"136.851842"},{"town":"寺野花園","koaza":"","lat":"35.209337","lng":"136.845735"},{"town":"寺野美鈴","koaza":"","lat":"35.210060","lng":"136.854363"},{"town":"寺野元町","koaza":"","lat":"35.206768","lng":"136.847861"},{"town":"桃栄一丁目","koaza":"","lat":"35.198591","lng":"136.840131"},{"town":"桃栄二丁目","koaza":"","lat":"35.196985","lng":"136.841156"},{"town":"桃栄三丁目","koaza":"","lat":"35.195287","lng":"136.843034"},{"town":"桃栄四丁目","koaza":"","lat":"35.193101","lng":"136.846057"},{"town":"土器野","koaza":"","lat":"35.192570","lng":"136.852868"},{"town":"中河原","koaza":"","lat":"35.190575","lng":"136.850042"},{"town":"鍋片一丁目","koaza":"","lat":"35.207409","lng":"136.843485"},{"town":"鍋片二丁目","koaza":"","lat":"35.205224","lng":"136.845508"},{"town":"鍋片三丁目","koaza":"","lat":"35.203488","lng":"136.845361"},{"town":"西市場一丁目","koaza":"","lat":"35.218198","lng":"136.835102"},{"town":"西市場二丁目","koaza":"","lat":"35.220241","lng":"136.835830"},{"town":"西市場三丁目","koaza":"","lat":"35.220361","lng":"136.833209"},{"town":"西市場四丁目","koaza":"","lat":"35.220429","lng":"136.830388"},{"town":"西市場五丁目","koaza":"","lat":"35.219058","lng":"136.828503"},{"town":"西市場六丁目","koaza":"","lat":"35.221048","lng":"136.827534"},{"town":"西須ケ口","koaza":"","lat":"35.201702","lng":"136.839396"},{"town":"西田中","koaza":"","lat":"35.211594","lng":"136.850958"},{"town":"西田中城下","koaza":"","lat":"35.213444","lng":"136.849108"},{"town":"西田中長堀","koaza":"","lat":"35.217018","lng":"136.849189"},{"town":"西田中白山","koaza":"","lat":"35.212712","lng":"136.853159"},{"town":"西田中蓮池","koaza":"","lat":"35.214109","lng":"136.851620"},{"town":"西田中本城","koaza":"","lat":"35.215372","lng":"136.850364"},{"town":"西田中松本","koaza":"","lat":"35.216985","lng":"136.851782"},{"town":"西枇杷島町旭一丁目","koaza":"","lat":"35.196820","lng":"136.862671"},{"town":"西枇杷島町旭二丁目","koaza":"","lat":"35.197089","lng":"136.861221"},{"town":"西枇杷島町旭三丁目","koaza":"","lat":"35.198192","lng":"136.859941"},{"town":"西枇杷島町亥新田","koaza":"","lat":"35.196395","lng":"136.856958"},{"town":"西枇杷島町泉","koaza":"","lat":"35.198900","lng":"136.867360"},{"town":"西枇杷島町一反五畝割","koaza":"","lat":"35.202750","lng":"136.861857"},{"town":"西枇杷島町一反二畝割","koaza":"","lat":"35.203655","lng":"136.860701"},{"town":"西枇杷島町井下見取","koaza":"","lat":"35.206248","lng":"136.877275"},{"town":"西枇杷島町恵比須","koaza":"","lat":"35.199504","lng":"136.864298"},{"town":"西枇杷島町大野","koaza":"","lat":"35.194045","lng":"136.860069"},{"town":"西枇杷島町押花","koaza":"","lat":"35.200675","lng":"136.868087"},{"town":"西枇杷島町小田井一丁目","koaza":"","lat":"35.203328","lng":"136.873097"},{"town":"西枇杷島町小田井二丁目","koaza":"","lat":"35.206220","lng":"136.874353"},{"town":"西枇杷島町小田井三丁目","koaza":"","lat":"35.208313","lng":"136.875239"},{"town":"西枇杷島町小野田","koaza":"","lat":"35.194310","lng":"136.863038"},{"town":"西枇杷島町替地","koaza":"","lat":"35.200338","lng":"136.855936"},{"town":"西枇杷島町片町","koaza":"","lat":"35.197623","lng":"136.870172"},{"town":"西枇杷島町上新","koaza":"","lat":"35.201258","lng":"136.872515"},{"town":"西枇杷島町川口","koaza":"","lat":"35.194559","lng":"136.864425"},{"town":"西枇杷島町北枇杷池","koaza":"","lat":"35.191350","lng":"136.859952"},{"town":"西枇杷島町北二ツ杁","koaza":"","lat":"35.193661","lng":"136.857348"},{"town":"西枇杷島町北大和","koaza":"","lat":"35.203093","lng":"136.869178"},{"town":"西枇杷島町古城一丁目","koaza":"","lat":"35.206005","lng":"136.866888"},{"town":"西枇杷島町古城二丁目","koaza":"","lat":"35.209129","lng":"136.868171"},{"town":"西枇杷島町五畝割","koaza":"","lat":"35.201377","lng":"136.858874"},{"town":"西枇杷島町小場塚","koaza":"","lat":"35.202525","lng":"136.856883"},{"town":"西枇杷島町十軒裏","koaza":"","lat":"35.195551","lng":"136.869036"},{"town":"西枇杷島町芝野新田","koaza":"","lat":"35.197127","lng":"136.859115"},{"town":"西枇杷島町芝場","koaza":"","lat":"35.199060","lng":"136.859850"},{"town":"西枇杷島町下新","koaza":"","lat":"35.199425","lng":"136.871372"},{"town":"西枇杷島町下砂入","koaza":"","lat":"35.195985","lng":"136.867424"},{"town":"西枇杷島町城並一丁目","koaza":"","lat":"35.204557","lng":"136.870201"},{"town":"西枇杷島町城並二丁目","koaza":"","lat":"35.207334","lng":"136.871038"},{"town":"西枇杷島町城並三丁目","koaza":"","lat":"35.209879","lng":"136.871272"},{"town":"西枇杷島町地領","koaza":"","lat":"35.206088","lng":"136.858927"},{"town":"西枇杷島町地領一丁目","koaza":"","lat":"35.205688","lng":"136.863179"},{"town":"西枇杷島町地領二丁目","koaza":"","lat":"35.205943","lng":"136.860460"},{"town":"西枇杷島町新田","koaza":"","lat":"35.200351","lng":"136.858457"},{"town":"西枇杷島町砂入","koaza":"","lat":"35.197165","lng":"136.867330"},{"town":"西枇杷島町末広","koaza":"","lat":"35.201543","lng":"136.864858"},{"town":"西枇杷島町住吉","koaza":"","lat":"35.197287","lng":"136.865506"},{"town":"西枇杷島町大黒","koaza":"","lat":"35.200471","lng":"136.865570"},{"town":"西枇杷島町高葭","koaza":"","lat":"35.196073","lng":"136.858464"},{"town":"西枇杷島町辰新田","koaza":"","lat":"35.193386","lng":"136.859968"},{"town":"西枇杷島町問屋","koaza":"","lat":"35.194132","lng":"136.865890"},{"town":"西枇杷島町七畝割","koaza":"","lat":"35.199778","lng":"136.859499"},{"town":"西枇杷島町西笹子原","koaza":"","lat":"35.194309","lng":"136.860682"},{"town":"西枇杷島町西枇杷池","koaza":"","lat":"35.190767","lng":"136.857197"},{"town":"西枇杷島町西六軒","koaza":"","lat":"35.193362","lng":"136.862460"},{"town":"西枇杷島町子新田","koaza":"","lat":"35.198623","lng":"136.856094"},{"town":"西枇杷島町橋詰","koaza":"","lat":"35.194191","lng":"136.868181"},{"town":"西枇杷島町花咲","koaza":"","lat":"35.203159","lng":"136.866384"},{"town":"西枇杷島町東笹子原","koaza":"","lat":"35.194210","lng":"136.861857"},{"town":"西枇杷島町東六軒","koaza":"","lat":"35.193693","lng":"136.864668"},{"town":"西枇杷島町日の出","koaza":"","lat":"35.196721","lng":"136.864303"},{"town":"西枇杷島町日之出一丁目","koaza":"","lat":"35.195127","lng":"136.865237"},{"town":"西枇杷島町二見","koaza":"","lat":"35.199013","lng":"136.862959"},{"town":"西枇杷島町弁天","koaza":"","lat":"35.202227","lng":"136.863516"},{"town":"西枇杷島町南問屋","koaza":"","lat":"35.192484","lng":"136.866584"},{"town":"西枇杷島町南枇杷池","koaza":"","lat":"35.189885","lng":"136.857959"},{"town":"西枇杷島町南二ツ杁","koaza":"","lat":"35.192021","lng":"136.856930"},{"town":"西枇杷島町南松原","koaza":"","lat":"35.192459","lng":"136.859813"},{"town":"西枇杷島町南大和","koaza":"","lat":"35.201790","lng":"136.868857"},{"town":"西枇杷島町南六軒","koaza":"","lat":"35.191674","lng":"136.863556"},{"town":"西枇杷島町宮前一丁目","koaza":"","lat":"35.202354","lng":"136.860061"},{"town":"西枇杷島町宮前二丁目","koaza":"","lat":"35.203299","lng":"136.858880"},{"town":"西枇杷島町養和","koaza":"","lat":"35.201690","lng":"136.861218"},{"town":"西枇杷島町芳野一丁目","koaza":"","lat":"35.195094","lng":"136.862619"},{"town":"西枇杷島町芳野二丁目","koaza":"","lat":"35.195293","lng":"136.858284"},{"town":"西枇杷島町芳野三丁目","koaza":"","lat":"35.196191","lng":"136.853983"},{"town":"西枇杷島町六拾軒","koaza":"","lat":"35.197848","lng":"136.855429"},{"town":"西堀江","koaza":"","lat":"35.189021","lng":"136.846873"},{"town":"萩野","koaza":"","lat":"35.195169","lng":"136.846505"},{"town":"廻間一丁目","koaza":"","lat":"35.216823","lng":"136.831620"},{"town":"廻間二丁目","koaza":"","lat":"35.217853","lng":"136.830622"},{"town":"廻間三丁目","koaza":"","lat":"35.217151","lng":"136.826802"},{"town":"花水木一丁目","koaza":"","lat":"35.214013","lng":"136.834197"},{"town":"花水木二丁目","koaza":"","lat":"35.214805","lng":"136.832106"},{"town":"春日県","koaza":"","lat":"35.233874","lng":"136.844943"},{"town":"春日明河原","koaza":"","lat":"35.229762","lng":"136.842416"},{"town":"春日石戸尻","koaza":"","lat":"35.230244","lng":"136.851264"},{"town":"春日一番割","koaza":"","lat":"35.236560","lng":"136.831479"},{"town":"春日壱屋敷","koaza":"","lat":"35.240142","lng":"136.835577"},{"town":"春日一丁地","koaza":"","lat":"35.223618","lng":"136.854159"},{"town":"春日一本松","koaza":"","lat":"35.231055","lng":"136.844564"},{"town":"春日稲荷","koaza":"","lat":"35.234587","lng":"136.832014"},{"town":"春日杁前","koaza":"","lat":"35.225059","lng":"136.844622"},{"town":"春日午","koaza":"","lat":"35.238321","lng":"136.834578"},{"town":"春日江先","koaza":"","lat":"35.224045","lng":"136.854955"},{"town":"春日鴛葬寺","koaza":"","lat":"35.234708","lng":"136.849363"},{"town":"春日落合","koaza":"","lat":"35.245113","lng":"136.837250"},{"town":"春日上丑","koaza":"","lat":"35.239296","lng":"136.829483"},{"town":"春日上川畑","koaza":"","lat":"35.244528","lng":"136.831821"},{"town":"春日上河原","koaza":"","lat":"35.231569","lng":"136.843698"},{"town":"春日上須ケ田","koaza":"","lat":"35.243085","lng":"136.833285"},{"town":"春日上高畑","koaza":"","lat":"35.245348","lng":"136.832854"},{"town":"春日上堤クロ","koaza":"","lat":"35.239054","lng":"136.831372"},{"town":"春日上中割","koaza":"","lat":"35.239082","lng":"136.832817"},{"town":"春日上六反地","koaza":"","lat":"35.226494","lng":"136.853106"},{"town":"春日川中","koaza":"","lat":"35.234425","lng":"136.848034"},{"town":"春日河原","koaza":"","lat":"35.228983","lng":"136.843588"},{"town":"春日北河原","koaza":"","lat":"35.249173","lng":"136.836057"},{"town":"春日北焼田","koaza":"","lat":"35.236853","lng":"136.848620"},{"town":"春日桑","koaza":"","lat":"35.232211","lng":"136.837270"},{"town":"春日郷裏","koaza":"","lat":"35.234608","lng":"136.838887"},{"town":"春日郷ケ島","koaza":"","lat":"35.231943","lng":"136.853749"},{"town":"春日高札","koaza":"","lat":"35.229953","lng":"136.849314"},{"town":"春日郷前","koaza":"","lat":"35.239185","lng":"136.838655"},{"town":"春日五反地","koaza":"","lat":"35.231905","lng":"136.851737"},{"town":"春日小塚西","koaza":"","lat":"35.232734","lng":"136.834602"},{"town":"春日小塚南","koaza":"","lat":"35.230728","lng":"136.837101"},{"town":"春日小松生","koaza":"","lat":"35.243322","lng":"136.831673"},{"town":"春日三番割","koaza":"","lat":"35.235301","lng":"136.833159"},{"town":"春日三本松","koaza":"","lat":"35.234952","lng":"136.849271"},{"town":"春日仕合","koaza":"","lat":"35.234236","lng":"136.849709"},{"town":"春日下丑","koaza":"","lat":"35.236832","lng":"136.830177"},{"town":"春日下河原","koaza":"","lat":"35.228688","lng":"136.840815"},{"town":"春日下堤クロ","koaza":"","lat":"35.238135","lng":"136.831708"},{"town":"春日下流","koaza":"","lat":"35.236387","lng":"136.849021"},{"town":"春日下中割","koaza":"","lat":"35.238177","lng":"136.833063"},{"town":"春日社子地","koaza":"","lat":"35.236154","lng":"136.843387"},{"town":"春日定ノ割","koaza":"","lat":"35.231578","lng":"136.836954"},{"town":"春日白弓","koaza":"","lat":"35.235971","lng":"136.850935"},{"town":"春日尻江","koaza":"","lat":"35.225723","lng":"136.853319"},{"town":"春日城裏","koaza":"","lat":"35.224047","lng":"136.845515"},{"town":"春日新田","koaza":"","lat":"35.231793","lng":"136.855970"},{"town":"春日新田畑","koaza":"","lat":"35.235814","lng":"136.839755"},{"town":"春日新畑","koaza":"","lat":"35.236613","lng":"136.840607"},{"town":"春日新堀","koaza":"","lat":"35.237155","lng":"136.838583"},{"town":"春日新堀北","koaza":"","lat":"35.239127","lng":"136.836186"},{"town":"春日新堀南","koaza":"","lat":"35.237862","lng":"136.839637"},{"town":"春日新町","koaza":"","lat":"35.227252","lng":"136.850869"},{"town":"春日神明","koaza":"","lat":"35.230208","lng":"136.846654"},{"town":"春日須ケ田","koaza":"","lat":"35.242850","lng":"136.834689"},{"town":"春日須ケ畑","koaza":"","lat":"35.243071","lng":"136.829675"},{"town":"春日砂賀東","koaza":"","lat":"35.231829","lng":"136.849073"},{"town":"春日代官田","koaza":"","lat":"35.232468","lng":"136.850438"},{"town":"春日大河戸","koaza":"","lat":"35.230090","lng":"136.838998"},{"town":"春日高畑","koaza":"","lat":"35.244000","lng":"136.832688"},{"town":"春日竹村","koaza":"","lat":"35.224474","lng":"136.853772"},{"town":"春日蛸代","koaza":"","lat":"35.234769","lng":"136.849684"},{"town":"春日立作","koaza":"","lat":"35.226748","lng":"136.854409"},{"town":"春日長久寺","koaza":"","lat":"35.225849","lng":"136.851474"},{"town":"春日堤クロ","koaza":"","lat":"35.239984","lng":"136.830372"},{"town":"春日寺浦","koaza":"","lat":"35.230562","lng":"136.848734"},{"town":"春日寺廻り","koaza":"","lat":"35.240476","lng":"136.833884"},{"town":"春日天神","koaza":"","lat":"35.227338","lng":"136.847706"},{"town":"春日樋","koaza":"","lat":"35.229467","lng":"136.840025"},{"town":"春日寅ケ島","koaza":"","lat":"35.223636","lng":"136.853929"},{"town":"春日酉","koaza":"","lat":"35.235354","lng":"136.837165"},{"town":"春日鳥出","koaza":"","lat":"35.234101","lng":"136.852295"},{"town":"春日中河原","koaza":"","lat":"35.226581","lng":"136.845668"},{"town":"春日中沼","koaza":"","lat":"35.229174","lng":"136.854503"},{"town":"春日中ノ割","koaza":"","lat":"35.230602","lng":"136.837578"},{"town":"春日長畑","koaza":"","lat":"35.240525","lng":"136.831696"},{"town":"春日中焼田","koaza":"","lat":"35.236068","lng":"136.848994"},{"town":"春日流","koaza":"","lat":"35.238550","lng":"136.849594"},{"town":"春日仲割","koaza":"","lat":"35.245657","lng":"136.834494"},{"town":"春日西須ケ畑","koaza":"","lat":"35.242761","lng":"136.830627"},{"town":"春日西牧前","koaza":"","lat":"35.231009","lng":"136.838596"},{"town":"春日西牧南","koaza":"","lat":"35.230790","lng":"136.842120"},{"town":"春日西余部","koaza":"","lat":"35.233920","lng":"136.836189"},{"town":"春日二番割","koaza":"","lat":"35.236876","lng":"136.833294"},{"town":"春日弐屋敷","koaza":"","lat":"35.239918","lng":"136.837330"},{"town":"春日猫塚","koaza":"","lat":"35.237382","lng":"136.848395"},{"town":"春日野方","koaza":"","lat":"35.236585","lng":"136.835763"},{"town":"春日野田町","koaza":"","lat":"35.225355","lng":"136.847558"},{"town":"春日八幡","koaza":"","lat":"35.232760","lng":"136.841780"},{"town":"春日八幡裏","koaza":"","lat":"35.234553","lng":"136.842164"},{"town":"春日八幡前","koaza":"","lat":"35.230268","lng":"136.843244"},{"town":"春日八幡南","koaza":"","lat":"35.233290","lng":"136.842381"},{"town":"春日東上河原","koaza":"","lat":"35.227822","lng":"136.845511"},{"town":"春日東小塚","koaza":"","lat":"35.231560","lng":"136.840383"},{"town":"春日東須ケ畑","koaza":"","lat":"35.232807","lng":"136.841295"},{"town":"春日東出","koaza":"","lat":"35.240635","lng":"136.839237"},{"town":"春日富士塚","koaza":"","lat":"35.231637","lng":"136.846113"},{"town":"春日二ツ池","koaza":"","lat":"35.241317","lng":"136.840922"},{"town":"春日淵田","koaza":"","lat":"35.233226","lng":"136.850092"},{"town":"春日舟付","koaza":"","lat":"35.223842","lng":"136.851350"},{"town":"春日振形","koaza":"","lat":"35.237906","lng":"136.841495"},{"town":"春日堀田","koaza":"","lat":"35.241806","lng":"136.831712"},{"town":"春日松原","koaza":"","lat":"35.231359","lng":"136.850904"},{"town":"春日南川原","koaza":"","lat":"35.247470","lng":"136.834629"},{"town":"春日南灰肥","koaza":"","lat":"35.224071","lng":"136.854045"},{"town":"春日宮越","koaza":"","lat":"35.233956","lng":"136.837694"},{"town":"春日宮重","koaza":"","lat":"35.232440","lng":"136.836517"},{"town":"春日宮重町","koaza":"","lat":"35.249502","lng":"136.840543"},{"town":"春日向河原","koaza":"","lat":"35.229996","lng":"136.837990"},{"town":"春日焼河原","koaza":"","lat":"35.229697","lng":"136.845005"},{"town":"春日焼田","koaza":"","lat":"35.236160","lng":"136.846799"},{"town":"春日屋敷","koaza":"","lat":"35.232398","lng":"136.839472"},{"town":"春日柳先","koaza":"","lat":"35.228168","lng":"136.852336"},{"town":"春日夢の森","koaza":"","lat":"35.234041","lng":"136.840091"},{"town":"春日与市河原","koaza":"","lat":"35.225662","lng":"136.845671"},{"town":"春日四辻","koaza":"","lat":"35.229378","lng":"136.851760"},{"town":"春日四番割","koaza":"","lat":"35.233900","lng":"136.833803"},{"town":"春日蓮花寺前","koaza":"","lat":"35.238262","lng":"136.837103"},{"town":"春日六反地","koaza":"","lat":"35.226868","lng":"136.852749"},{"town":"東須ケ口","koaza":"","lat":"35.201888","lng":"136.847947"},{"town":"東外町","koaza":"","lat":"35.201169","lng":"136.844322"},{"town":"枇杷島駅前東一丁目","koaza":"","lat":"35.200443","lng":"136.861724"},{"town":"土田","koaza":"郷前","lat":"35.209576","lng":"136.831277"},{"town":"一場","koaza":"御園","lat":"35.22328","lng":"136.840583"},{"town":"寺野","koaza":"中園","lat":"35.209276","lng":"136.848673"},{"town":"阿原","koaza":"九丁田","lat":"35.216958","lng":"136.858316"},{"town":"阿原","koaza":"向北","lat":"35.215097","lng":"136.862567"}]