[{"town":"赤重町","koaza":"","lat":35.210186,"lng":137.080485},{"town":"暁町","koaza":"","lat":35.241505,"lng":137.103048},{"town":"赤津町","koaza":"","lat":35.226187,"lng":137.130141},{"town":"秋葉町","koaza":"","lat":35.221862,"lng":137.103965},{"town":"朝日町","koaza":"","lat":35.226519,"lng":137.10097},{"town":"東町","koaza":"","lat":35.221058,"lng":137.1174},{"town":"汗干町","koaza":"","lat":35.223304,"lng":137.080048},{"town":"穴田町","koaza":"","lat":35.247893,"lng":137.099743},{"town":"池田町","koaza":"","lat":35.197698,"lng":137.094276},{"town":"石田町","koaza":"","lat":35.199093,"lng":137.090894},{"town":"泉町","koaza":"","lat":35.230349,"lng":137.105004},{"town":"市場町","koaza":"","lat":35.217942,"lng":137.075681},{"town":"銀杏木町","koaza":"","lat":35.223187,"lng":137.098585},{"town":"一里塚町","koaza":"","lat":35.220634,"lng":137.107787},{"town":"井戸金町","koaza":"","lat":35.196555,"lng":137.052653},{"town":"今池町","koaza":"","lat":35.223323,"lng":137.082487},{"town":"今林町","koaza":"","lat":35.202144,"lng":137.09142},{"town":"井山町","koaza":"","lat":35.247618,"lng":137.140758},{"town":"岩屋町","koaza":"","lat":35.239062,"lng":137.158729},{"town":"上之山町一丁目","koaza":"","lat":35.190643,"lng":137.101197},{"town":"上之山町二丁目","koaza":"","lat":35.186108,"lng":137.106941},{"town":"上之山町三丁目","koaza":"","lat":35.185172,"lng":137.101736},{"town":"内田町一丁目","koaza":"","lat":35.256266,"lng":137.068997},{"town":"内田町二丁目","koaza":"","lat":35.249896,"lng":137.070387},{"town":"馬ケ城町","koaza":"","lat":35.231173,"lng":137.125077},{"town":"蛭子町","koaza":"","lat":35.224018,"lng":137.104332},{"town":"追分町","koaza":"","lat":35.22387,"lng":137.084855},{"town":"王子沢町","koaza":"","lat":35.226277,"lng":137.112475},{"town":"大坂町","koaza":"","lat":35.200858,"lng":137.095197},{"town":"大坪町","koaza":"","lat":35.193883,"lng":137.103726},{"town":"小金町","koaza":"","lat":35.227796,"lng":137.085113},{"town":"小田妻町一丁目","koaza":"","lat":35.24406,"lng":137.07265},{"town":"小田妻町二丁目","koaza":"","lat":35.24161,"lng":137.080919},{"town":"落合町","koaza":"","lat":35.25313,"lng":137.123007},{"town":"海上町","koaza":"","lat":35.198718,"lng":137.12966},{"town":"掛下町一丁目","koaza":"","lat":35.19419,"lng":137.095727},{"town":"掛下町二丁目","koaza":"","lat":35.193699,"lng":137.100156},{"town":"片草町","koaza":"","lat":35.25727,"lng":137.171037},{"town":"鐘場町","koaza":"","lat":35.215352,"lng":137.125881},{"town":"鹿乗町","koaza":"","lat":35.262956,"lng":137.05849},{"town":"窯神町","koaza":"","lat":35.228213,"lng":137.097534},{"town":"窯町","koaza":"","lat":35.240888,"lng":137.128189},{"town":"窯元町","koaza":"","lat":35.227783,"lng":137.133613},{"town":"神川町","koaza":"","lat":35.208052,"lng":137.074149},{"town":"上品野町","koaza":"","lat":35.253966,"lng":137.144301},{"town":"上陣屋町","koaza":"","lat":35.23344,"lng":137.091235},{"town":"上ノ切町","koaza":"","lat":35.221863,"lng":137.105659},{"town":"上半田川町","koaza":"","lat":35.274226,"lng":137.151397},{"town":"上本町","koaza":"","lat":35.243808,"lng":137.084693},{"town":"上松山町一丁目","koaza":"","lat":35.233126,"lng":137.081641},{"town":"上松山町二丁目","koaza":"","lat":35.236651,"lng":137.08247},{"town":"上水野町","koaza":"","lat":35.241368,"lng":137.090183},{"town":"上山路町","koaza":"","lat":35.207144,"lng":137.152241},{"town":"川合町","koaza":"","lat":35.215048,"lng":137.113999},{"town":"川北町一丁目","koaza":"","lat":35.217904,"lng":137.062209},{"town":"川北町二丁目","koaza":"","lat":35.218198,"lng":137.060364},{"town":"川西町一丁目","koaza":"","lat":35.216468,"lng":137.064288},{"town":"川西町二丁目","koaza":"","lat":35.215179,"lng":137.061322},{"town":"川端町一丁目","koaza":"","lat":35.221813,"lng":137.076045},{"town":"川端町二丁目","koaza":"","lat":35.221123,"lng":137.072619},{"town":"川端町三丁目","koaza":"","lat":35.22035,"lng":137.069444},{"town":"川平町","koaza":"","lat":35.266467,"lng":137.083809},{"town":"ききょう台一丁目","koaza":"","lat":35.24139,"lng":137.070889},{"town":"ききょう台二丁目","koaza":"","lat":35.24135,"lng":137.0688},{"town":"ききょう台三丁目","koaza":"","lat":35.242914,"lng":137.068955},{"town":"北浦町一丁目","koaza":"","lat":35.221501,"lng":137.078812},{"town":"北浦町二丁目","koaza":"","lat":35.220862,"lng":137.07584},{"town":"北浦町三丁目","koaza":"","lat":35.220214,"lng":137.072914},{"town":"北浦町四丁目","koaza":"","lat":35.219375,"lng":137.069559},{"town":"北丘町","koaza":"","lat":35.265797,"lng":137.120408},{"town":"北白坂町","koaza":"","lat":35.226245,"lng":137.172395},{"town":"北松山町一丁目","koaza":"","lat":35.232021,"lng":137.079939},{"town":"北松山町二丁目","koaza":"","lat":35.23557,"lng":137.078734},{"town":"北みずの坂一丁目","koaza":"","lat":35.247451,"lng":137.064725},{"town":"北みずの坂二丁目","koaza":"","lat":35.247434,"lng":137.06185},{"town":"北みずの坂三丁目","koaza":"","lat":35.249834,"lng":137.061955},{"town":"北山町","koaza":"","lat":35.22709,"lng":137.072583},{"town":"北脇町","koaza":"","lat":35.223371,"lng":137.07249},{"town":"共栄通一丁目","koaza":"","lat":35.221798,"lng":137.083986},{"town":"共栄通二丁目","koaza":"","lat":35.221261,"lng":137.08175},{"town":"共栄通三丁目","koaza":"","lat":35.220648,"lng":137.079064},{"town":"共栄通四丁目","koaza":"","lat":35.219657,"lng":137.075917},{"town":"共栄通五丁目","koaza":"","lat":35.219048,"lng":137.073304},{"town":"共栄通六丁目","koaza":"","lat":35.218093,"lng":137.070835},{"town":"共栄通七丁目","koaza":"","lat":35.217207,"lng":137.068178},{"town":"京町一丁目","koaza":"","lat":35.224429,"lng":137.090341},{"town":"京町二丁目","koaza":"","lat":35.224229,"lng":137.087877},{"town":"熊野町","koaza":"","lat":35.219922,"lng":137.090974},{"town":"蔵所町","koaza":"","lat":35.224888,"lng":137.100191},{"town":"效範町一丁目","koaza":"","lat":35.221717,"lng":137.069528},{"town":"效範町二丁目","koaza":"","lat":35.223372,"lng":137.068866},{"town":"小坂町","koaza":"","lat":35.202038,"lng":137.050936},{"town":"古瀬戸町","koaza":"","lat":35.228296,"lng":137.111407},{"town":"小空町","koaza":"","lat":35.220986,"lng":137.127484},{"town":"瘤木町","koaza":"","lat":35.213559,"lng":137.080596},{"town":"駒前町","koaza":"","lat":35.199882,"lng":137.065559},{"town":"紺屋田町","koaza":"","lat":35.233802,"lng":137.112485},{"town":"五位塚町","koaza":"","lat":35.2348,"lng":137.118866},{"town":"幸町","koaza":"","lat":35.222548,"lng":137.096724},{"town":"坂上町","koaza":"","lat":35.201346,"lng":137.054392},{"town":"栄町","koaza":"","lat":35.22564,"lng":137.099305},{"town":"さつき台一丁目","koaza":"","lat":35.237174,"lng":137.073202},{"town":"さつき台二丁目","koaza":"","lat":35.237356,"lng":137.075304},{"town":"さつき台三丁目","koaza":"","lat":35.237706,"lng":137.07697},{"town":"さつき台四丁目","koaza":"","lat":35.235224,"lng":137.074331},{"town":"さつき台五丁目","koaza":"","lat":35.236131,"lng":137.076223},{"town":"塩草が丘一丁目","koaza":"","lat":null,"lng":null},{"town":"塩草が丘二丁目","koaza":"","lat":null,"lng":null},{"town":"塩草が丘三丁目","koaza":"","lat":null,"lng":null},{"town":"塩草が丘四丁目","koaza":"","lat":null,"lng":null},{"town":"塩草町","koaza":"","lat":35.210793,"lng":137.116979},{"town":"品野町一丁目","koaza":"","lat":35.240318,"lng":137.115172},{"town":"品野町二丁目","koaza":"","lat":35.244857,"lng":137.120134},{"town":"品野町三丁目","koaza":"","lat":35.242678,"lng":137.123368},{"town":"品野町四丁目","koaza":"","lat":35.247891,"lng":137.12064},{"town":"品野町五丁目","koaza":"","lat":35.248267,"lng":137.125911},{"town":"品野町六丁目","koaza":"","lat":35.250879,"lng":137.123367},{"town":"品野町七丁目","koaza":"","lat":35.248946,"lng":137.128868},{"town":"品野町八丁目","koaza":"","lat":35.253125,"lng":137.130816},{"town":"下陣屋町","koaza":"","lat":35.228512,"lng":137.089272},{"town":"下半田川町","koaza":"","lat":35.288824,"lng":137.123013},{"town":"白岩町","koaza":"","lat":35.256814,"lng":137.158299},{"town":"白坂町","koaza":"","lat":35.223303,"lng":137.14616},{"town":"城ケ根町","koaza":"","lat":35.211829,"lng":137.076226},{"town":"城屋敷町","koaza":"","lat":35.216818,"lng":137.073651},{"town":"新郷町","koaza":"","lat":35.213477,"lng":137.084292},{"town":"新田町","koaza":"","lat":35.200291,"lng":137.079495},{"town":"進陶町","koaza":"","lat":35.226913,"lng":137.087222},{"town":"新道町","koaza":"","lat":35.227059,"lng":137.104713},{"town":"新明町","koaza":"","lat":35.21931,"lng":137.124948},{"town":"十軒町","koaza":"","lat":35.255853,"lng":137.059019},{"town":"定光寺町","koaza":"","lat":35.280588,"lng":137.097045},{"town":"水南町","koaza":"","lat":35.227138,"lng":137.075744},{"town":"水北町","koaza":"","lat":35.254248,"lng":137.085619},{"town":"末広町一丁目","koaza":"","lat":35.225716,"lng":137.101665},{"town":"末広町二丁目","koaza":"","lat":35.225528,"lng":137.103157},{"town":"末広町三丁目","koaza":"","lat":35.225119,"lng":137.104342},{"town":"杉塚町","koaza":"","lat":35.226505,"lng":137.106893},{"town":"須原町","koaza":"","lat":35.229251,"lng":137.107502},{"town":"すみれ台一丁目","koaza":"","lat":35.238908,"lng":137.07371},{"town":"すみれ台二丁目","koaza":"","lat":35.240056,"lng":137.073497},{"town":"すみれ台三丁目","koaza":"","lat":35.241353,"lng":137.073163},{"town":"すみれ台四丁目","koaza":"","lat":35.241723,"lng":137.074213},{"town":"すみれ台五丁目","koaza":"","lat":35.239237,"lng":137.076146},{"town":"せいれい町","koaza":"","lat":35.204097,"lng":137.107639},{"town":"背戸側町","koaza":"","lat":35.230013,"lng":137.099729},{"town":"瀬戸口町","koaza":"","lat":35.204524,"lng":137.081906},{"town":"惣作町","koaza":"","lat":35.217913,"lng":137.128687},{"town":"曽野町","koaza":"","lat":35.260826,"lng":137.095437},{"town":"祖母懐町","koaza":"","lat":35.222409,"lng":137.106169},{"town":"太子町","koaza":"","lat":35.217525,"lng":137.122142},{"town":"高根町一丁目","koaza":"","lat":35.211161,"lng":137.070479},{"town":"高根町二丁目","koaza":"","lat":35.209284,"lng":137.068373},{"town":"高根町三丁目","koaza":"","lat":35.207064,"lng":137.06648},{"town":"宝ケ丘町","koaza":"","lat":35.207949,"lng":137.105611},{"town":"滝之湯町","koaza":"","lat":35.224924,"lng":137.091124},{"town":"凧山町","koaza":"","lat":35.221531,"lng":137.135294},{"town":"田中町","koaza":"","lat":35.196629,"lng":137.101825},{"town":"田端町一丁目","koaza":"","lat":35.219173,"lng":137.063945},{"town":"田端町二丁目","koaza":"","lat":35.220827,"lng":137.063431},{"town":"台六町","koaza":"","lat":35.193218,"lng":137.0824},{"town":"寺本町","koaza":"","lat":35.226344,"lng":137.110067},{"town":"陶栄町","koaza":"","lat":35.222661,"lng":137.101662},{"town":"陶原町一丁目","koaza":"","lat":35.222686,"lng":137.093452},{"town":"陶原町二丁目","koaza":"","lat":35.222616,"lng":137.091074},{"town":"陶原町三丁目","koaza":"","lat":35.222724,"lng":137.08967},{"town":"陶原町四丁目","koaza":"","lat":35.222533,"lng":137.088159},{"town":"陶原町五丁目","koaza":"","lat":35.222601,"lng":137.087082},{"town":"陶原町六丁目","koaza":"","lat":35.222597,"lng":137.085869},{"town":"東郷町","koaza":"","lat":35.224914,"lng":137.108851},{"town":"藤四郎町","koaza":"","lat":35.227999,"lng":137.109715},{"town":"陶生町","koaza":"","lat":35.225199,"lng":137.106498},{"town":"陶本町一丁目","koaza":"","lat":35.226025,"lng":137.098751},{"town":"陶本町二丁目","koaza":"","lat":35.225575,"lng":137.097683},{"town":"陶本町三丁目","koaza":"","lat":35.2252,"lng":137.096718},{"town":"陶本町四丁目","koaza":"","lat":35.224801,"lng":137.095474},{"town":"陶本町五丁目","koaza":"","lat":35.224399,"lng":137.09428},{"town":"陶本町六丁目","koaza":"","lat":35.22417,"lng":137.093283},{"town":"東明町","koaza":"","lat":35.222353,"lng":137.127587},{"town":"鳥原町","koaza":"","lat":35.241193,"lng":137.134778},{"town":"道泉町","koaza":"","lat":35.226756,"lng":137.093362},{"town":"苗場町","koaza":"","lat":35.230208,"lng":137.074768},{"town":"仲切町","koaza":"","lat":35.228044,"lng":137.100041},{"town":"仲郷町","koaza":"","lat":35.223062,"lng":137.107593},{"town":"中品野町","koaza":"","lat":35.249856,"lng":137.131906},{"town":"中白坂町","koaza":"","lat":35.225394,"lng":137.163472},{"town":"中畑町","koaza":"","lat":35.223053,"lng":137.132168},{"town":"仲洞町","koaza":"","lat":35.225266,"lng":137.111372},{"town":"中水野町一丁目","koaza":"","lat":35.24723,"lng":137.080854},{"town":"中水野町二丁目","koaza":"","lat":35.247108,"lng":137.075137},{"town":"中山町","koaza":"","lat":35.220879,"lng":137.112609},{"town":"西茨町","koaza":"","lat":35.218114,"lng":137.099285},{"town":"西印所町","koaza":"","lat":35.234369,"lng":137.101848},{"town":"西追分町","koaza":"","lat":35.225368,"lng":137.081758},{"town":"西窯町","koaza":"","lat":35.222759,"lng":137.129699},{"town":"西蔵所町","koaza":"","lat":35.224425,"lng":137.098135},{"town":"西古瀬戸町","koaza":"","lat":35.229662,"lng":137.112188},{"town":"西米泉町","koaza":"","lat":35.200652,"lng":137.084957},{"town":"西郷町","koaza":"","lat":35.224049,"lng":137.106018},{"town":"西権現町","koaza":"","lat":35.221296,"lng":137.093523},{"town":"西白坂町","koaza":"","lat":35.223236,"lng":137.155415},{"town":"西谷町","koaza":"","lat":35.227151,"lng":137.096815},{"town":"西寺山町","koaza":"","lat":35.214677,"lng":137.069127},{"town":"西十三塚町","koaza":"","lat":35.225002,"lng":137.086443},{"town":"西長根町","koaza":"","lat":35.213045,"lng":137.072805},{"town":"西拝戸町","koaza":"","lat":35.223367,"lng":137.123227},{"town":"西原町一丁目","koaza":"","lat":35.212175,"lng":137.067715},{"town":"西原町二丁目","koaza":"","lat":35.209183,"lng":137.064564},{"town":"西本地町一丁目","koaza":"","lat":35.204822,"lng":137.06032},{"town":"西本地町二丁目","koaza":"","lat":35.206696,"lng":137.059035},{"town":"西本町一丁目","koaza":"","lat":35.223759,"lng":137.09988},{"town":"西本町二丁目","koaza":"","lat":35.224052,"lng":137.097775},{"town":"西洞町","koaza":"","lat":35.223284,"lng":137.111544},{"town":"西松山町一丁目","koaza":"","lat":35.229173,"lng":137.077874},{"town":"西松山町二丁目","koaza":"","lat":35.231567,"lng":137.078203},{"town":"西松山町三丁目","koaza":"","lat":35.232729,"lng":137.074992},{"town":"西松山町四丁目","koaza":"","lat":35.234007,"lng":137.075337},{"town":"西山路町","koaza":"","lat":35.207012,"lng":137.124219},{"town":"西山町一丁目","koaza":"","lat":35.22046,"lng":137.059106},{"town":"西山町二丁目","koaza":"","lat":35.224706,"lng":137.059102},{"town":"西吉田町","koaza":"","lat":35.219658,"lng":137.084205},{"town":"西脇町","koaza":"","lat":35.202758,"lng":137.074573},{"town":"萩殿町一丁目","koaza":"","lat":35.219265,"lng":137.101831},{"town":"萩殿町二丁目","koaza":"","lat":35.219412,"lng":137.104711},{"town":"萩殿町三丁目","koaza":"","lat":35.215777,"lng":137.102358},{"town":"萩殿町四丁目","koaza":"","lat":35.214868,"lng":137.10568},{"town":"萩殿町五丁目","koaza":"","lat":35.2129,"lng":137.10473},{"town":"はぎの台一丁目","koaza":"","lat":35.238473,"lng":137.070912},{"town":"はぎの台二丁目","koaza":"","lat":35.238563,"lng":137.06872},{"town":"はぎの台三丁目","koaza":"","lat":35.239899,"lng":137.070893},{"town":"はぎの台四丁目","koaza":"","lat":35.240058,"lng":137.068745},{"town":"萩山台一丁目","koaza":"","lat":35.210439,"lng":137.097831},{"town":"萩山台二丁目","koaza":"","lat":35.211881,"lng":137.099423},{"town":"萩山台三丁目","koaza":"","lat":35.213164,"lng":137.102143},{"town":"萩山台四丁目","koaza":"","lat":35.211688,"lng":137.103902},{"town":"萩山台五丁目","koaza":"","lat":35.210637,"lng":137.104127},{"town":"萩山台六丁目","koaza":"","lat":35.209209,"lng":137.101803},{"town":"萩山台七丁目","koaza":"","lat":35.210494,"lng":137.10124},{"town":"萩山台八丁目","koaza":"","lat":35.208979,"lng":137.097973},{"town":"萩山台九丁目","koaza":"","lat":35.208079,"lng":137.09921},{"town":"白山町一丁目","koaza":"","lat":35.205132,"lng":137.085269},{"town":"白山町二丁目","koaza":"","lat":35.202913,"lng":137.088101},{"town":"巡間町","koaza":"","lat":35.21579,"lng":137.139498},{"town":"長谷口町","koaza":"","lat":35.228553,"lng":137.147035},{"town":"幡中町","koaza":"","lat":35.19642,"lng":137.07685},{"town":"幡西町","koaza":"","lat":35.204266,"lng":137.07317},{"town":"幡野町","koaza":"","lat":35.211658,"lng":137.086078},{"town":"幡山町","koaza":"","lat":35.202765,"lng":137.080293},{"town":"八王子町","koaza":"","lat":35.225602,"lng":137.135665},{"town":"八幡台一丁目","koaza":"","lat":35.206881,"lng":137.092038},{"town":"八幡台二丁目","koaza":"","lat":35.205773,"lng":137.09244},{"town":"八幡台三丁目","koaza":"","lat":35.206252,"lng":137.095669},{"town":"八幡台四丁目","koaza":"","lat":35.204635,"lng":137.096099},{"town":"八幡台五丁目","koaza":"","lat":35.204904,"lng":137.098129},{"town":"八幡台六丁目","koaza":"","lat":35.203928,"lng":137.100584},{"town":"八幡台七丁目","koaza":"","lat":35.202359,"lng":137.098935},{"town":"八幡台八丁目","koaza":"","lat":35.202826,"lng":137.095435},{"town":"八幡台九丁目","koaza":"","lat":35.204123,"lng":137.091934},{"town":"八幡町","koaza":"","lat":35.202476,"lng":137.103647},{"town":"刎田町","koaza":"","lat":35.22727,"lng":137.107297},{"town":"羽根町","koaza":"","lat":35.201532,"lng":137.076812},{"town":"原山台一丁目","koaza":"","lat":35.209227,"lng":137.093573},{"town":"原山台二丁目","koaza":"","lat":35.210494,"lng":137.094039},{"town":"原山台三丁目","koaza":"","lat":35.209675,"lng":137.089745},{"town":"原山台四丁目","koaza":"","lat":35.211143,"lng":137.091327},{"town":"原山台五丁目","koaza":"","lat":35.211761,"lng":137.092046},{"town":"原山台六丁目","koaza":"","lat":35.213614,"lng":137.092502},{"town":"原山台七丁目","koaza":"","lat":35.212573,"lng":137.09322},{"town":"原山台八丁目","koaza":"","lat":35.212784,"lng":137.096162},{"town":"原山町","koaza":"","lat":35.21631,"lng":137.091994},{"town":"針原町","koaza":"","lat":35.233772,"lng":137.140301},{"town":"春雨町","koaza":"","lat":35.21666,"lng":137.108036},{"town":"東赤重町一丁目","koaza":"","lat":35.209354,"lng":137.08456},{"town":"東赤重町二丁目","koaza":"","lat":35.207606,"lng":137.082162},{"town":"東茨町","koaza":"","lat":35.221328,"lng":137.101927},{"town":"東印所町","koaza":"","lat":35.233995,"lng":137.107692},{"town":"東古瀬戸町","koaza":"","lat":35.229177,"lng":137.114301},{"town":"東米泉町","koaza":"","lat":35.199848,"lng":137.087498},{"town":"東権現町","koaza":"","lat":35.218375,"lng":137.095917},{"town":"東白坂町","koaza":"","lat":35.212052,"lng":137.164392},{"town":"東寺山町","koaza":"","lat":35.215786,"lng":137.071583},{"town":"東十三塚町","koaza":"","lat":35.225926,"lng":137.088968},{"town":"東長根町","koaza":"","lat":35.21552,"lng":137.076749},{"town":"東拝戸町","koaza":"","lat":35.225152,"lng":137.122814},{"town":"東菱野町","koaza":"","lat":35.202221,"lng":137.083394},{"town":"東本地町一丁目","koaza":"","lat":35.204658,"lng":137.070056},{"town":"東本地町二丁目","koaza":"","lat":35.205047,"lng":137.066229},{"town":"東本地町三丁目","koaza":"","lat":35.201926,"lng":137.068507},{"town":"東本町一丁目","koaza":"","lat":35.223773,"lng":137.102221},{"town":"東本町二丁目","koaza":"","lat":35.223194,"lng":137.103967},{"town":"東洞町","koaza":"","lat":35.224146,"lng":137.114243},{"town":"東松山町","koaza":"","lat":35.229969,"lng":137.082963},{"town":"東安戸町","koaza":"","lat":35.229896,"lng":137.095211},{"town":"東山路町","koaza":"","lat":35.204919,"lng":137.140588},{"town":"東山町","koaza":"","lat":35.230194,"lng":137.064794},{"town":"東山町一丁目","koaza":"","lat":35.228175,"lng":137.062544},{"town":"東山町二丁目","koaza":"","lat":35.227174,"lng":137.066821},{"town":"東横山町","koaza":"","lat":35.227325,"lng":137.078547},{"town":"東吉田町","koaza":"","lat":35.220159,"lng":137.086747},{"town":"菱野台一丁目","koaza":"","lat":35.208673,"lng":137.095207},{"town":"菱野台二丁目","koaza":"","lat":35.210611,"lng":137.096393},{"town":"菱野台三丁目","koaza":"","lat":35.207135,"lng":137.096969},{"town":"菱野台四丁目","koaza":"","lat":35.208404,"lng":137.09299},{"town":"菱野町","koaza":"","lat":35.206827,"lng":137.077223},{"town":"日の出町","koaza":"","lat":35.242906,"lng":137.077578},{"town":"ひまわり台一丁目","koaza":"","lat":35.237032,"lng":137.071372},{"town":"ひまわり台二丁目","koaza":"","lat":35.237066,"lng":137.069733},{"town":"ひまわり台三丁目","koaza":"","lat":35.237152,"lng":137.068227},{"town":"ひまわり台四丁目","koaza":"","lat":35.237312,"lng":137.066659},{"town":"ひまわり台五丁目","koaza":"","lat":35.234904,"lng":137.071894},{"town":"平町一丁目","koaza":"","lat":35.219043,"lng":137.066462},{"town":"平町二丁目","koaza":"","lat":35.220975,"lng":137.066604},{"town":"平町三丁目","koaza":"","lat":35.222862,"lng":137.06599},{"town":"広久手町","koaza":"","lat":35.190739,"lng":137.121042},{"town":"広之田町","koaza":"","lat":35.2635,"lng":137.129397},{"town":"深川町","koaza":"","lat":35.227365,"lng":137.102089},{"town":"福元町","koaza":"","lat":35.205503,"lng":137.078978},{"town":"ふじの台一丁目","koaza":"","lat":35.243533,"lng":137.06938},{"town":"ふじの台二丁目","koaza":"","lat":35.244064,"lng":137.070764},{"town":"ふじの台三丁目","koaza":"","lat":35.245289,"lng":137.070446},{"town":"弁天町","koaza":"","lat":35.197974,"lng":137.083991},{"town":"本郷町","koaza":"","lat":35.248832,"lng":137.066672},{"town":"坊金町","koaza":"","lat":35.199594,"lng":137.060106},{"town":"前田町","koaza":"","lat":35.225969,"lng":137.1065},{"town":"孫田町","koaza":"","lat":35.223481,"lng":137.076809},{"town":"松原町一丁目","koaza":"","lat":35.225097,"lng":137.067171},{"town":"松原町二丁目","koaza":"","lat":35.226114,"lng":137.067963},{"town":"松原町三丁目","koaza":"","lat":35.226297,"lng":137.069543},{"town":"三沢町一丁目","koaza":"","lat":35.256016,"lng":137.079334},{"town":"三沢町二丁目","koaza":"","lat":35.250336,"lng":137.072882},{"town":"みずの坂一丁目","koaza":"","lat":35.240077,"lng":137.066553},{"town":"みずの坂二丁目","koaza":"","lat":35.242639,"lng":137.066275},{"town":"みずの坂三丁目","koaza":"","lat":35.243191,"lng":137.063751},{"town":"みずの坂四丁目","koaza":"","lat":35.24524,"lng":137.067056},{"town":"みずの坂五丁目","koaza":"","lat":35.245415,"lng":137.062768},{"town":"見付町","koaza":"","lat":35.217726,"lng":137.080412},{"town":"緑町一丁目","koaza":"","lat":35.207675,"lng":137.086944},{"town":"緑町二丁目","koaza":"","lat":35.205913,"lng":137.089802},{"town":"水無瀬町","koaza":"","lat":35.216313,"lng":137.083982},{"town":"南東町","koaza":"","lat":35.223016,"lng":137.113087},{"town":"南ケ丘町","koaza":"","lat":35.193056,"lng":137.074384},{"town":"南白坂町","koaza":"","lat":35.217019,"lng":137.153338},{"town":"南仲之切町","koaza":"","lat":35.224771,"lng":137.102368},{"town":"南菱野町","koaza":"","lat":35.198894,"lng":137.070991},{"town":"南山口町","koaza":"","lat":35.188398,"lng":137.092667},{"town":"南山町一丁目","koaza":"","lat":35.223936,"lng":137.064497},{"town":"南山町二丁目","koaza":"","lat":35.221261,"lng":137.061908},{"town":"南山町三丁目","koaza":"","lat":35.223214,"lng":137.061436},{"town":"美濃池町","koaza":"","lat":35.20844,"lng":137.070858},{"town":"宮里町","koaza":"","lat":35.229135,"lng":137.102763},{"town":"宮地町","koaza":"","lat":35.190522,"lng":137.106554},{"town":"宮脇町","koaza":"","lat":35.228168,"lng":137.104431},{"town":"元町一丁目","koaza":"","lat":35.225812,"lng":137.096614},{"town":"元町二丁目","koaza":"","lat":35.225272,"lng":137.095259},{"town":"元町三丁目","koaza":"","lat":35.224575,"lng":137.092778},{"town":"門前町","koaza":"","lat":35.214041,"lng":137.130703},{"town":"矢形町","koaza":"","lat":35.200358,"lng":137.09883},{"town":"薬師町","koaza":"","lat":35.226119,"lng":137.103962},{"town":"安戸町","koaza":"","lat":35.227405,"lng":137.090434},{"town":"八床町","koaza":"","lat":35.248888,"lng":137.112948},{"town":"屋戸町","koaza":"","lat":35.195935,"lng":137.111099},{"town":"柳ケ坪町","koaza":"","lat":35.197428,"lng":137.098416},{"town":"山口町","koaza":"","lat":35.198783,"lng":137.102862},{"town":"山路町","koaza":"","lat":35.206369,"lng":137.134652},{"town":"やまて坂一丁目","koaza":"","lat":35.232711,"lng":137.070606},{"town":"やまて坂二丁目","koaza":"","lat":35.234186,"lng":137.069879},{"town":"やまて坂三丁目","koaza":"","lat":35.235587,"lng":137.067027},{"town":"山手町","koaza":"","lat":35.230604,"lng":137.069772},{"town":"山の田町","koaza":"","lat":35.194866,"lng":137.060097},{"town":"山脇町","koaza":"","lat":35.224132,"lng":137.095407},{"town":"湯之根町","koaza":"","lat":35.230397,"lng":137.102523},{"town":"ゆりの台","koaza":"","lat":35.244422,"lng":137.073947},{"town":"吉野町","koaza":"","lat":35.189762,"lng":137.110721},{"town":"余床町","koaza":"","lat":35.269963,"lng":137.110432},{"town":"若宮町一丁目","koaza":"","lat":35.207183,"lng":137.111879},{"town":"若宮町二丁目","koaza":"","lat":35.200327,"lng":137.109578},{"town":"若宮町三丁目","koaza":"","lat":35.197289,"lng":137.106176}]