[{"town":"大字山久保","koaza":"","lat":35.851137,"lng":139.606238},{"town":"大字南元宿","koaza":"","lat":35.845881,"lng":139.611974},{"town":"大字中島","koaza":"","lat":35.849373,"lng":139.607017},{"town":"大字新開","koaza":"","lat":35.84522,"lng":139.612636},{"town":"大字町谷","koaza":"","lat":35.847623,"lng":139.611954},{"town":"大字西堀","koaza":"","lat":35.841354,"lng":139.615961},{"town":"大字栄和","koaza":"","lat":35.850661,"lng":139.602706},{"town":"大字昭和","koaza":"","lat":35.878129,"lng":139.577467},{"town":"大字上大久保","koaza":"","lat":35.868947,"lng":139.612054},{"town":"大字五関","koaza":"","lat":35.868319,"lng":139.596914},{"town":"大字田島","koaza":"","lat":35.838676,"lng":139.618621},{"town":"大字在家","koaza":"","lat":35.87922,"lng":139.590916},{"town":"大字白鍬","koaza":"","lat":35.88157,"lng":139.603367},{"town":"大字神田","koaza":"","lat":35.874549,"lng":139.608131},{"town":"大字道場","koaza":"","lat":35.846744,"lng":139.606953},{"town":"大字大久保領家","koaza":"","lat":35.869195,"lng":139.604482},{"town":"大字塚本","koaza":"","lat":35.86719,"lng":139.587572},{"town":"大字宿","koaza":"","lat":35.873514,"lng":139.592218},{"town":"大字下大久保","koaza":"","lat":35.853483,"lng":139.593387},{"town":"大字関","koaza":"","lat":35.837422,"lng":139.614145},{"town":"栄和一丁目","koaza":"","lat":35.861135,"lng":139.616499},{"town":"栄和二丁目","koaza":"","lat":35.864002,"lng":139.616974},{"town":"栄和三丁目","koaza":"","lat":35.867206,"lng":139.617696},{"town":"栄和四丁目","koaza":"","lat":35.869419,"lng":139.616961},{"town":"栄和五丁目","koaza":"","lat":35.865094,"lng":139.614124},{"town":"栄和六丁目","koaza":"","lat":35.860405,"lng":139.611879},{"town":"桜田一丁目","koaza":"","lat":35.849217,"lng":139.623527},{"town":"桜田二丁目","koaza":"","lat":35.850452,"lng":139.621448},{"town":"桜田三丁目","koaza":"","lat":35.852777,"lng":139.620717},{"town":"新開一丁目","koaza":"","lat":35.846518,"lng":139.620599},{"town":"新開二丁目","koaza":"","lat":35.84968,"lng":139.618936},{"town":"新開三丁目","koaza":"","lat":35.849016,"lng":139.616119},{"town":"新開四丁目","koaza":"","lat":35.844573,"lng":139.617726},{"town":"田島一丁目","koaza":"","lat":35.841962,"lng":139.633539},{"town":"田島十丁目","koaza":"","lat":35.839623,"lng":139.622266},{"town":"田島二丁目","koaza":"","lat":35.843947,"lng":139.633229},{"town":"田島三丁目","koaza":"","lat":35.847179,"lng":139.631714},{"town":"田島四丁目","koaza":"","lat":35.848807,"lng":139.628275},{"town":"田島五丁目","koaza":"","lat":35.84539,"lng":139.628398},{"town":"田島六丁目","koaza":"","lat":35.841075,"lng":139.629925},{"town":"田島七丁目","koaza":"","lat":35.840804,"lng":139.625396},{"town":"田島八丁目","koaza":"","lat":35.8436,"lng":139.624639},{"town":"田島九丁目","koaza":"","lat":35.845045,"lng":139.622588},{"town":"道場一丁目","koaza":"","lat":35.856456,"lng":139.616175},{"town":"道場二丁目","koaza":"","lat":35.858253,"lng":139.613247},{"town":"道場三丁目","koaza":"","lat":35.855277,"lng":139.613459},{"town":"道場四丁目","koaza":"","lat":35.855557,"lng":139.609617},{"town":"道場五丁目","koaza":"","lat":35.851077,"lng":139.613894},{"town":"中島一丁目","koaza":"","lat":35.865445,"lng":139.62519},{"town":"中島二丁目","koaza":"","lat":35.865823,"lng":139.622128},{"town":"中島三丁目","koaza":"","lat":35.863073,"lng":139.62259},{"town":"中島四丁目","koaza":"","lat":35.864063,"lng":139.619843},{"town":"西堀一丁目","koaza":"","lat":35.856063,"lng":139.635874},{"town":"西堀十丁目","koaza":"","lat":35.864842,"lng":139.629206},{"town":"西堀二丁目","koaza":"","lat":35.855833,"lng":139.632957},{"town":"西堀三丁目","koaza":"","lat":35.852596,"lng":139.631198},{"town":"西堀四丁目","koaza":"","lat":35.851175,"lng":139.626509},{"town":"西堀五丁目","koaza":"","lat":35.854855,"lng":139.625401},{"town":"西堀六丁目","koaza":"","lat":35.85549,"lng":139.629346},{"town":"西堀七丁目","koaza":"","lat":35.859179,"lng":139.630069},{"town":"西堀八丁目","koaza":"","lat":35.859762,"lng":139.633555},{"town":"西堀九丁目","koaza":"","lat":35.862793,"lng":139.631864},{"town":"町谷一丁目","koaza":"","lat":35.859109,"lng":139.623151},{"town":"町谷二丁目","koaza":"","lat":35.859856,"lng":139.619593},{"town":"町谷三丁目","koaza":"","lat":35.857075,"lng":139.619867},{"town":"町谷四丁目","koaza":"","lat":35.854542,"lng":139.619403},{"town":"南元宿一丁目","koaza":"","lat":35.85893,"lng":139.626103},{"town":"南元宿二丁目","koaza":"","lat":35.861682,"lng":139.626341},{"town":"山久保一丁目","koaza":"","lat":35.868579,"lng":139.622354},{"town":"山久保二丁目","koaza":"","lat":35.870943,"lng":139.622788}]