[{"town":"大字前田","koaza":"","lat":35.814632,"lng":139.729768},{"town":"大字安行西立野","koaza":"","lat":35.856186,"lng":139.755215},{"town":"大字長蔵新田","koaza":"","lat":35.85917,"lng":139.752856},{"town":"大字蓮沼","koaza":"","lat":35.824133,"lng":139.761786},{"town":"大字久左衛門新田","koaza":"","lat":35.865703,"lng":139.763271},{"town":"大字安行小山","koaza":"","lat":35.836068,"lng":139.776347},{"town":"大字安行領在家","koaza":"","lat":35.855481,"lng":139.712222},{"town":"大字東貝塚","koaza":"","lat":35.835508,"lng":139.765265},{"town":"大字大竹","koaza":"","lat":35.831036,"lng":139.764781},{"town":"大字前野宿","koaza":"","lat":35.833737,"lng":139.760399},{"town":"大字安行北谷","koaza":"","lat":35.840213,"lng":139.776859},{"town":"大字行衛","koaza":"","lat":35.876518,"lng":139.71782},{"town":"大字新井宿","koaza":"","lat":35.846629,"lng":139.737091},{"town":"大字安行吉蔵","koaza":"","lat":35.849946,"lng":139.769815},{"town":"大字源左衛門新田","koaza":"","lat":35.862761,"lng":139.729759},{"town":"大字赤芝新田","koaza":"","lat":35.853444,"lng":139.746117},{"town":"大字安行藤八","koaza":"","lat":35.856693,"lng":139.761011},{"town":"大字東内野","koaza":"","lat":35.867899,"lng":139.721422},{"town":"大字赤井","koaza":"","lat":35.831833,"lng":139.752004},{"town":"大字安行吉岡","koaza":"","lat":35.838606,"lng":139.754821},{"town":"大字榛松","koaza":"","lat":35.823563,"lng":139.771517},{"town":"大字新堀","koaza":"","lat":35.827425,"lng":139.783579},{"town":"大字差間","koaza":"","lat":35.869863,"lng":139.725521},{"town":"大字藤兵衛新田","koaza":"","lat":35.867103,"lng":139.766215},{"town":"大字西立野","koaza":"","lat":35.858427,"lng":139.748676},{"town":"大字安行慈林","koaza":"","lat":35.840565,"lng":139.748791},{"town":"大字安行","koaza":"","lat":35.851228,"lng":139.755688},{"town":"大字道合","koaza":"","lat":35.850842,"lng":139.717674},{"town":"大字安行領家","koaza":"","lat":35.845389,"lng":139.76152},{"town":"大字峯","koaza":"","lat":35.832364,"lng":139.774442},{"town":"大字西新井宿","koaza":"","lat":35.846833,"lng":139.732173},{"town":"大字東本郷","koaza":"","lat":35.824449,"lng":139.765413},{"town":"大字里","koaza":"","lat":35.834452,"lng":139.729844},{"town":"大字小谷場","koaza":"","lat":35.845561,"lng":139.679431},{"town":"大字石神","koaza":"","lat":35.858065,"lng":139.736979},{"town":"大字芝","koaza":"","lat":35.843399,"lng":139.690803},{"town":"大字赤山","koaza":"","lat":35.849097,"lng":139.747202},{"town":"大字木曽呂","koaza":"","lat":35.85907,"lng":139.721183},{"town":"大字安行原","koaza":"","lat":35.841611,"lng":139.767781},{"town":"大字神戸","koaza":"","lat":35.852169,"lng":139.726578},{"town":"大字伊刈","koaza":"","lat":35.846655,"lng":139.699402},{"town":"大字安行領根岸","koaza":"","lat":35.843731,"lng":139.718087},{"town":"大字三ツ和","koaza":"","lat":35.824012,"lng":139.737699},{"town":"大字辻","koaza":"","lat":35.825396,"lng":139.730117},{"town":"青木一丁目","koaza":"","lat":35.805521,"lng":139.728197},{"town":"青木二丁目","koaza":"","lat":35.808808,"lng":139.726738},{"town":"青木三丁目","koaza":"","lat":35.812167,"lng":139.726058},{"town":"青木四丁目","koaza":"","lat":35.815092,"lng":139.725054},{"town":"青木五丁目","koaza":"","lat":35.8188,"lng":139.722948},{"town":"赤井一丁目","koaza":"","lat":35.8246,"lng":139.747839},{"town":"赤井二丁目","koaza":"","lat":35.82363,"lng":139.750311},{"town":"赤井三丁目","koaza":"","lat":35.825545,"lng":139.753659},{"town":"赤井四丁目","koaza":"","lat":35.828467,"lng":139.749298},{"town":"朝日一丁目","koaza":"","lat":35.80764,"lng":139.734619},{"town":"朝日二丁目","koaza":"","lat":35.812116,"lng":139.732222},{"town":"朝日三丁目","koaza":"","lat":35.810493,"lng":139.737231},{"town":"朝日四丁目","koaza":"","lat":35.81135,"lng":139.742148},{"town":"朝日五丁目","koaza":"","lat":35.809096,"lng":139.747851},{"town":"朝日六丁目","koaza":"","lat":35.80696,"lng":139.745262},{"town":"新井町","koaza":"","lat":35.802027,"lng":139.740595},{"town":"荒川町","koaza":"","lat":35.796268,"lng":139.70463},{"town":"安行出羽一丁目","koaza":"","lat":35.851064,"lng":139.761302},{"town":"安行出羽二丁目","koaza":"","lat":35.853044,"lng":139.764654},{"town":"安行出羽三丁目","koaza":"","lat":35.854806,"lng":139.766379},{"town":"安行出羽四丁目","koaza":"","lat":35.852764,"lng":139.768227},{"town":"安行出羽五丁目","koaza":"","lat":35.850793,"lng":139.765473},{"town":"飯塚一丁目","koaza":"","lat":35.799086,"lng":139.715075},{"town":"飯塚二丁目","koaza":"","lat":35.799689,"lng":139.712385},{"town":"飯塚三丁目","koaza":"","lat":35.800362,"lng":139.709691},{"town":"飯塚四丁目","koaza":"","lat":35.796509,"lng":139.71145},{"town":"飯原町","koaza":"","lat":35.798281,"lng":139.706722},{"town":"江戸一丁目","koaza":"","lat":35.822187,"lng":139.753876},{"town":"江戸二丁目","koaza":"","lat":35.820451,"lng":139.750323},{"town":"江戸三丁目","koaza":"","lat":35.818042,"lng":139.752647},{"town":"江戸袋一丁目","koaza":"","lat":35.816923,"lng":139.757192},{"town":"江戸袋二丁目","koaza":"","lat":35.81373,"lng":139.756645},{"town":"金山町","koaza":"","lat":35.796664,"lng":139.721908},{"town":"上青木一丁目","koaza":"","lat":35.823116,"lng":139.72014},{"town":"上青木二丁目","koaza":"","lat":35.825972,"lng":139.724641},{"town":"上青木三丁目","koaza":"","lat":35.826596,"lng":139.719874},{"town":"上青木四丁目","koaza":"","lat":35.831254,"lng":139.719691},{"town":"上青木五丁目","koaza":"","lat":35.832076,"lng":139.724032},{"town":"上青木六丁目","koaza":"","lat":35.835354,"lng":139.720349},{"town":"上青木西一丁目","koaza":"","lat":35.825956,"lng":139.711803},{"town":"上青木西二丁目","koaza":"","lat":35.825188,"lng":139.715416},{"town":"上青木西三丁目","koaza":"","lat":35.827459,"lng":139.715433},{"town":"上青木西四丁目","koaza":"","lat":35.829946,"lng":139.71218},{"town":"上青木西五丁目","koaza":"","lat":35.830899,"lng":139.715649},{"town":"川口一丁目","koaza":"","lat":35.798166,"lng":139.718846},{"town":"川口二丁目","koaza":"","lat":35.7976,"lng":139.717711},{"town":"川口三丁目","koaza":"","lat":35.802267,"lng":139.715894},{"town":"川口四丁目","koaza":"","lat":35.803587,"lng":139.713491},{"town":"川口五丁目","koaza":"","lat":35.806073,"lng":139.711162},{"town":"川口六丁目","koaza":"","lat":35.803584,"lng":139.709978},{"town":"河原町","koaza":"","lat":35.786841,"lng":139.739375},{"town":"北園町","koaza":"","lat":35.855251,"lng":139.705344},{"town":"北原台一丁目","koaza":"","lat":35.869863,"lng":139.739429},{"town":"北原台二丁目","koaza":"","lat":35.866282,"lng":139.737034},{"town":"北原台三丁目","koaza":"","lat":35.8677,"lng":139.732424},{"town":"幸町一丁目","koaza":"","lat":35.805569,"lng":139.722735},{"town":"幸町二丁目","koaza":"","lat":35.806954,"lng":139.7192},{"town":"幸町三丁目","koaza":"","lat":35.80644,"lng":139.716767},{"town":"栄町一丁目","koaza":"","lat":35.803487,"lng":139.727705},{"town":"栄町二丁目","koaza":"","lat":35.803464,"lng":139.72324},{"town":"栄町三丁目","koaza":"","lat":35.803253,"lng":139.718778},{"town":"坂下町一丁目","koaza":"","lat":35.831838,"lng":139.736862},{"town":"坂下町二丁目","koaza":"","lat":35.829484,"lng":139.744606},{"town":"坂下町三丁目","koaza":"","lat":35.827842,"lng":139.743387},{"town":"坂下町四丁目","koaza":"","lat":35.826766,"lng":139.738492},{"town":"桜町一丁目","koaza":"","lat":35.836901,"lng":139.736732},{"town":"桜町二丁目","koaza":"","lat":35.83981,"lng":139.738462},{"town":"桜町三丁目","koaza":"","lat":35.841117,"lng":139.741233},{"town":"桜町四丁目","koaza":"","lat":35.840268,"lng":139.744063},{"town":"桜町五丁目","koaza":"","lat":35.83825,"lng":139.740316},{"town":"桜町六丁目","koaza":"","lat":35.836853,"lng":139.742278},{"town":"差間一丁目","koaza":"","lat":35.87488,"lng":139.731657},{"town":"差間二丁目","koaza":"","lat":35.874961,"lng":139.72767},{"town":"差間三丁目","koaza":"","lat":35.871427,"lng":139.729653},{"town":"在家町","koaza":"","lat":35.855691,"lng":139.709282},{"town":"芝一丁目","koaza":"","lat":35.833208,"lng":139.703341},{"town":"芝二丁目","koaza":"","lat":35.832212,"lng":139.698654},{"town":"芝三丁目","koaza":"","lat":35.835464,"lng":139.697018},{"town":"芝四丁目","koaza":"","lat":35.833802,"lng":139.69293},{"town":"芝五丁目","koaza":"","lat":35.830973,"lng":139.693366},{"town":"芝下一丁目","koaza":"","lat":35.83682,"lng":139.699649},{"town":"芝下二丁目","koaza":"","lat":35.83739,"lng":139.703538},{"town":"芝下三丁目","koaza":"","lat":35.840178,"lng":139.702076},{"town":"芝新町","koaza":"","lat":35.829351,"lng":139.692857},{"town":"芝園町","koaza":"","lat":35.832131,"lng":139.683929},{"town":"芝高木一丁目","koaza":"","lat":35.84163,"lng":139.69952},{"town":"芝高木二丁目","koaza":"","lat":35.842952,"lng":139.697709},{"town":"芝塚原一丁目","koaza":"","lat":35.837384,"lng":139.681769},{"town":"芝塚原二丁目","koaza":"","lat":35.839191,"lng":139.683585},{"town":"芝中田一丁目","koaza":"","lat":35.82939,"lng":139.699022},{"town":"芝中田二丁目","koaza":"","lat":35.82924,"lng":139.703763},{"town":"芝西一丁目","koaza":"","lat":35.836165,"lng":139.685234},{"town":"芝西二丁目","koaza":"","lat":35.841346,"lng":139.685215},{"town":"芝東町","koaza":"","lat":35.843722,"lng":139.701778},{"town":"芝樋ノ爪一丁目","koaza":"","lat":35.832332,"lng":139.689208},{"town":"芝樋ノ爪二丁目","koaza":"","lat":35.833294,"lng":139.687094},{"town":"芝富士一丁目","koaza":"","lat":35.833666,"lng":139.679534},{"town":"芝富士二丁目","koaza":"","lat":35.837167,"lng":139.678008},{"town":"芝宮根町","koaza":"","lat":35.839622,"lng":139.696969},{"town":"末広一丁目","koaza":"","lat":35.804021,"lng":139.733963},{"town":"末広二丁目","koaza":"","lat":35.805151,"lng":139.73879},{"town":"末広三丁目","koaza":"","lat":35.805693,"lng":139.742838},{"town":"長蔵一丁目","koaza":"","lat":35.859497,"lng":139.755832},{"town":"長蔵二丁目","koaza":"","lat":35.860749,"lng":139.759315},{"town":"長蔵三丁目","koaza":"","lat":35.861398,"lng":139.762527},{"town":"戸塚一丁目","koaza":"","lat":35.872883,"lng":139.741968},{"town":"戸塚二丁目","koaza":"","lat":35.873023,"lng":139.746946},{"town":"戸塚三丁目","koaza":"","lat":35.869191,"lng":139.748336},{"town":"戸塚四丁目","koaza":"","lat":35.867159,"lng":139.742745},{"town":"戸塚五丁目","koaza":"","lat":35.864889,"lng":139.748179},{"town":"戸塚六丁目","koaza":"","lat":35.863062,"lng":139.754174},{"town":"戸塚境町","koaza":"","lat":35.863459,"lng":139.760412},{"town":"戸塚鋏町","koaza":"","lat":35.865406,"lng":139.757581},{"town":"戸塚東一丁目","koaza":"","lat":35.874109,"lng":139.751652},{"town":"戸塚東二丁目","koaza":"","lat":35.871767,"lng":139.754173},{"town":"戸塚東三丁目","koaza":"","lat":35.868594,"lng":139.755624},{"town":"戸塚東四丁目","koaza":"","lat":35.871987,"lng":139.758624},{"town":"戸塚南一丁目","koaza":"","lat":35.860182,"lng":139.749937},{"town":"戸塚南二丁目","koaza":"","lat":35.862569,"lng":139.751648},{"town":"戸塚南三丁目","koaza":"","lat":35.862743,"lng":139.747899},{"town":"戸塚南四丁目","koaza":"","lat":35.863406,"lng":139.744086},{"town":"戸塚南五丁目","koaza":"","lat":35.863807,"lng":139.741623},{"town":"中青木一丁目","koaza":"","lat":35.807918,"lng":139.721523},{"town":"中青木二丁目","koaza":"","lat":35.810786,"lng":139.719879},{"town":"中青木三丁目","koaza":"","lat":35.813993,"lng":139.718597},{"town":"中青木四丁目","koaza":"","lat":35.816835,"lng":139.718025},{"town":"中青木五丁目","koaza":"","lat":35.819498,"lng":139.717636},{"town":"仲町","koaza":"","lat":35.806861,"lng":139.706626},{"town":"並木一丁目","koaza":"","lat":35.811595,"lng":139.712557},{"town":"並木二丁目","koaza":"","lat":35.815288,"lng":139.706866},{"town":"並木三丁目","koaza":"","lat":35.817373,"lng":139.704808},{"town":"並木四丁目","koaza":"","lat":35.822142,"lng":139.708515},{"town":"並木元町","koaza":"","lat":35.807868,"lng":139.714055},{"town":"新堀町","koaza":"","lat":35.825057,"lng":139.781901},{"town":"西青木一丁目","koaza":"","lat":35.814236,"lng":139.712562},{"town":"西青木二丁目","koaza":"","lat":35.816563,"lng":139.712471},{"town":"西青木三丁目","koaza":"","lat":35.818564,"lng":139.712478},{"town":"西青木四丁目","koaza":"","lat":35.821256,"lng":139.711739},{"town":"西青木五丁目","koaza":"","lat":35.821694,"lng":139.715543},{"town":"西川口一丁目","koaza":"","lat":35.815586,"lng":139.70225},{"town":"西川口二丁目","koaza":"","lat":35.81195,"lng":139.699995},{"town":"西川口三丁目","koaza":"","lat":35.811881,"lng":139.704479},{"town":"西川口四丁目","koaza":"","lat":35.810133,"lng":139.707814},{"town":"西川口五丁目","koaza":"","lat":35.80806,"lng":139.703816},{"town":"西川口六丁目","koaza":"","lat":35.808182,"lng":139.700477},{"town":"榛松一丁目","koaza":"","lat":35.820501,"lng":139.771521},{"town":"榛松二丁目","koaza":"","lat":35.822491,"lng":139.775486},{"town":"榛松三丁目","koaza":"","lat":35.823775,"lng":139.779367},{"town":"八幡木一丁目","koaza":"","lat":35.819372,"lng":139.747387},{"town":"八幡木二丁目","koaza":"","lat":35.815394,"lng":139.749143},{"town":"八幡木三丁目","koaza":"","lat":35.812036,"lng":139.751547},{"town":"鳩ヶ谷本町一丁目","koaza":"","lat":35.833299,"lng":139.738111},{"town":"鳩ヶ谷本町二丁目","koaza":"","lat":35.834851,"lng":139.741433},{"town":"鳩ヶ谷本町三丁目","koaza":"","lat":35.833097,"lng":139.742626},{"town":"鳩ヶ谷本町四丁目","koaza":"","lat":35.83214,"lng":139.745834},{"town":"鳩ヶ谷緑町一丁目","koaza":"","lat":35.816471,"lng":139.729099},{"town":"鳩ヶ谷緑町二丁目","koaza":"","lat":35.819365,"lng":139.727249},{"town":"原町","koaza":"","lat":35.801084,"lng":139.707027},{"town":"東川口一丁目","koaza":"","lat":35.877791,"lng":139.741103},{"town":"東川口二丁目","koaza":"","lat":35.877089,"lng":139.748291},{"town":"東川口三丁目","koaza":"","lat":35.87867,"lng":139.745843},{"town":"東川口四丁目","koaza":"","lat":35.880568,"lng":139.742645},{"town":"東川口五丁目","koaza":"","lat":35.883018,"lng":139.745835},{"town":"東川口六丁目","koaza":"","lat":35.878202,"lng":139.752406},{"town":"東本郷一丁目","koaza":"","lat":35.822043,"lng":139.757953},{"town":"東本郷二丁目","koaza":"","lat":35.826455,"lng":139.757401},{"town":"東領家一丁目","koaza":"","lat":35.797614,"lng":139.746929},{"town":"東領家二丁目","koaza":"","lat":35.796645,"lng":139.750989},{"town":"東領家三丁目","koaza":"","lat":35.793458,"lng":139.753206},{"town":"東領家四丁目","koaza":"","lat":35.795236,"lng":139.75861},{"town":"東領家五丁目","koaza":"","lat":35.789109,"lng":139.753375},{"town":"舟戸町","koaza":"","lat":35.790992,"lng":139.725377},{"town":"本町一丁目","koaza":"","lat":35.795741,"lng":139.725608},{"town":"本町二丁目","koaza":"","lat":35.799551,"lng":139.72664},{"town":"本町三丁目","koaza":"","lat":35.800601,"lng":139.723237},{"town":"本町四丁目","koaza":"","lat":35.800287,"lng":139.720441},{"town":"本蓮一丁目","koaza":"","lat":35.822203,"lng":139.761556},{"town":"本蓮二丁目","koaza":"","lat":35.818621,"lng":139.760624},{"town":"本蓮三丁目","koaza":"","lat":35.81597,"lng":139.76143},{"town":"本蓮四丁目","koaza":"","lat":35.814577,"lng":139.762322},{"town":"本前川一丁目","koaza":"","lat":35.840882,"lng":139.707325},{"town":"本前川二丁目","koaza":"","lat":35.842579,"lng":139.706765},{"town":"本前川三丁目","koaza":"","lat":35.844199,"lng":139.707185},{"town":"前上町","koaza":"","lat":35.834406,"lng":139.714824},{"town":"前川一丁目","koaza":"","lat":35.83369,"lng":139.709021},{"town":"前川二丁目","koaza":"","lat":35.838125,"lng":139.715327},{"town":"前川三丁目","koaza":"","lat":35.839933,"lng":139.711788},{"town":"前川四丁目","koaza":"","lat":35.837972,"lng":139.707809},{"town":"前川町三丁目","koaza":"","lat":35.842626,"lng":139.713577},{"town":"前川町四丁目","koaza":"","lat":35.845096,"lng":139.704603},{"town":"三ツ和一丁目","koaza":"","lat":35.825425,"lng":139.741412},{"town":"三ツ和二丁目","koaza":"","lat":35.823959,"lng":139.74383},{"town":"三ツ和三丁目","koaza":"","lat":35.821838,"lng":139.744839},{"town":"緑町","koaza":"","lat":35.803052,"lng":139.696301},{"town":"南町一丁目","koaza":"","lat":35.801545,"lng":139.704237},{"town":"南町二丁目","koaza":"","lat":35.804612,"lng":139.705212},{"town":"南鳩ヶ谷一丁目","koaza":"","lat":35.82028,"lng":139.740753},{"town":"南鳩ヶ谷二丁目","koaza":"","lat":35.816321,"lng":139.744151},{"town":"南鳩ヶ谷三丁目","koaza":"","lat":35.816053,"lng":139.740279},{"town":"南鳩ヶ谷四丁目","koaza":"","lat":35.814457,"lng":139.737808},{"town":"南鳩ヶ谷五丁目","koaza":"","lat":35.815307,"lng":139.733005},{"town":"南鳩ヶ谷六丁目","koaza":"","lat":35.819158,"lng":139.733666},{"town":"南鳩ヶ谷七丁目","koaza":"","lat":35.823202,"lng":139.733123},{"town":"南鳩ヶ谷八丁目","koaza":"","lat":35.819295,"lng":139.729404},{"town":"南前川一丁目","koaza":"","lat":35.827796,"lng":139.708205},{"town":"南前川二丁目","koaza":"","lat":35.830664,"lng":139.708462},{"town":"宮町","koaza":"","lat":35.803137,"lng":139.699638},{"town":"元郷一丁目","koaza":"","lat":35.799216,"lng":139.732457},{"town":"元郷二丁目","koaza":"","lat":35.794919,"lng":139.730177},{"town":"元郷三丁目","koaza":"","lat":35.792827,"lng":139.735733},{"town":"元郷四丁目","koaza":"","lat":35.796852,"lng":139.734962},{"town":"元郷五丁目","koaza":"","lat":35.799165,"lng":139.738867},{"town":"元郷六丁目","koaza":"","lat":35.799784,"lng":139.743225},{"town":"柳崎一丁目","koaza":"","lat":35.852263,"lng":139.701102},{"town":"柳崎二丁目","koaza":"","lat":35.85053,"lng":139.698022},{"town":"柳崎三丁目","koaza":"","lat":35.854652,"lng":139.698534},{"town":"柳崎四丁目","koaza":"","lat":35.858426,"lng":139.700881},{"town":"柳崎五丁目","koaza":"","lat":35.859226,"lng":139.704174},{"town":"柳根町","koaza":"","lat":35.850288,"lng":139.705825},{"town":"弥平一丁目","koaza":"","lat":35.801726,"lng":139.746781},{"town":"弥平二丁目","koaza":"","lat":35.802315,"lng":139.749886},{"town":"弥平三丁目","koaza":"","lat":35.803745,"lng":139.752511},{"town":"弥平四丁目","koaza":"","lat":35.798635,"lng":139.756312},{"town":"領家一丁目","koaza":"","lat":35.796988,"lng":139.741687},{"town":"領家二丁目","koaza":"","lat":35.794441,"lng":139.741901},{"town":"領家三丁目","koaza":"","lat":35.790975,"lng":139.748405},{"town":"領家四丁目","koaza":"","lat":35.789685,"lng":139.746029},{"town":"領家五丁目","koaza":"","lat":35.787019,"lng":139.743316}]