[{"town":"大字上広谷","koaza":"","lat":35.936974,"lng":139.423205},{"town":"大字青柳","koaza":"","lat":35.893537,"lng":139.45183},{"town":"大字岸","koaza":"","lat":35.891774,"lng":139.483761},{"town":"大字富士見","koaza":"","lat":35.952998,"lng":139.42185},{"town":"大字藤倉","koaza":"","lat":35.89532,"lng":139.438519},{"town":"大字栄","koaza":"","lat":35.95724,"lng":139.424367},{"town":"大字上新河岸","koaza":"","lat":35.892889,"lng":139.503813},{"town":"大字豊田新田","koaza":"","lat":35.894257,"lng":139.451529},{"town":"大字南大塚","koaza":"","lat":35.892748,"lng":139.452286},{"town":"大字扇河岸","koaza":"","lat":35.898505,"lng":139.498562},{"town":"大字野田","koaza":"","lat":35.918313,"lng":139.4709},{"town":"大字東明寺","koaza":"","lat":35.936369,"lng":139.50621},{"town":"大字下新河岸","koaza":"","lat":35.880605,"lng":139.490485},{"town":"大字鯨井新田","koaza":"","lat":35.933353,"lng":139.420291},{"town":"大字川越","koaza":"","lat":35.93036,"lng":139.501678},{"town":"大字平塚新田","koaza":"","lat":35.955058,"lng":139.462269},{"town":"大字寺井","koaza":"","lat":35.933485,"lng":139.507074},{"town":"大字高島","koaza":"","lat":35.914135,"lng":139.509496},{"town":"大字竹野","koaza":"","lat":35.954131,"lng":139.424933},{"town":"大字八ツ島","koaza":"","lat":35.916573,"lng":139.509887},{"town":"大字砂久保","koaza":"","lat":35.885635,"lng":139.482803},{"town":"大字牛子","koaza":"","lat":35.892066,"lng":139.508738},{"town":"大字谷中","koaza":"","lat":35.942572,"lng":139.495251},{"town":"大字小仙波","koaza":"","lat":35.917308,"lng":139.502212},{"town":"大字鹿飼","koaza":"","lat":35.946918,"lng":139.516144},{"town":"大字今泉","koaza":"","lat":35.895325,"lng":139.526683},{"town":"大字並木","koaza":"","lat":35.90207,"lng":139.523316},{"town":"大字東本宿","koaza":"","lat":35.935372,"lng":139.53609},{"town":"大字萱沼","koaza":"","lat":35.890892,"lng":139.551584},{"town":"大字石田","koaza":"","lat":35.940979,"lng":139.487559},{"town":"大字大中居","koaza":"","lat":35.908515,"lng":139.512612},{"town":"大字上戸","koaza":"","lat":35.928423,"lng":139.44924},{"town":"大字上松原","koaza":"","lat":35.865571,"lng":139.476914},{"town":"大字上老袋","koaza":"","lat":35.946445,"lng":139.530417},{"town":"大字古市場","koaza":"","lat":35.886366,"lng":139.528888},{"town":"大字中老袋","koaza":"","lat":35.94232,"lng":139.535609},{"town":"大字小中居","koaza":"","lat":35.9076,"lng":139.524144},{"town":"大字石田本郷","koaza":"","lat":35.944096,"lng":139.504614},{"town":"大字吉田","koaza":"","lat":35.929575,"lng":139.429195},{"town":"大字平塚","koaza":"","lat":35.946629,"lng":139.465369},{"town":"大字木野目","koaza":"","lat":35.895275,"lng":139.518338},{"town":"大字北田島","koaza":"","lat":35.93669,"lng":139.500565},{"town":"大字渋井","koaza":"","lat":35.882321,"lng":139.536316},{"town":"大字大袋","koaza":"","lat":35.89787,"lng":139.443872},{"town":"大字寺山","koaza":"","lat":35.941363,"lng":139.469764},{"town":"大字伊佐沼","koaza":"","lat":35.926899,"lng":139.512927},{"town":"大字天沼新田","koaza":"","lat":35.934775,"lng":139.426859},{"town":"大字下老袋","koaza":"","lat":35.930566,"lng":139.531116},{"town":"大字上寺山","koaza":"","lat":35.933132,"lng":139.466622},{"town":"大字砂","koaza":"","lat":35.89465,"lng":139.497635},{"town":"大字安比奈新田","koaza":"","lat":35.90159,"lng":139.42474},{"town":"大字南田島","koaza":"","lat":35.901255,"lng":139.507384},{"town":"大字砂新田","koaza":"","lat":35.882105,"lng":139.493504},{"town":"大字松郷","koaza":"","lat":35.92408,"lng":139.501777},{"town":"大字福田","koaza":"","lat":35.954312,"lng":139.473247},{"town":"大字寺尾","koaza":"","lat":35.885231,"lng":139.509471},{"town":"大字小ケ谷","koaza":"","lat":35.921487,"lng":139.457673},{"town":"大字府川","koaza":"","lat":35.948391,"lng":139.484735},{"town":"大字小堤","koaza":"","lat":35.939557,"lng":139.440266},{"town":"大字下赤坂","koaza":"","lat":35.860134,"lng":139.478455},{"town":"大字菅間","koaza":"","lat":35.951834,"lng":139.496928},{"town":"大字下小坂","koaza":"","lat":35.947461,"lng":139.45502},{"town":"大字中福","koaza":"","lat":35.86165,"lng":139.46532},{"town":"大字下松原","koaza":"","lat":35.869043,"lng":139.488442},{"town":"大字下広谷","koaza":"","lat":35.951094,"lng":139.42861},{"town":"大字山田","koaza":"","lat":35.944225,"lng":139.477853},{"town":"大字藤間","koaza":"","lat":35.88006,"lng":139.496716},{"town":"大字久下戸","koaza":"","lat":35.895023,"lng":139.538122},{"town":"大字鯨井","koaza":"","lat":35.93752,"lng":139.453685},{"town":"大字鴨田","koaza":"","lat":35.935397,"lng":139.517297},{"town":"大字池辺","koaza":"","lat":35.907112,"lng":139.444906},{"town":"大字的場","koaza":"","lat":35.913387,"lng":139.437627},{"town":"大字古谷本郷","koaza":"","lat":35.908993,"lng":139.544091},{"town":"大字古谷上","koaza":"","lat":35.921471,"lng":139.530763},{"town":"大字笠幡","koaza":"","lat":35.908242,"lng":139.404865},{"town":"大字増形","koaza":"","lat":35.895189,"lng":139.427104},{"town":"大字大袋新田","koaza":"","lat":35.892488,"lng":139.4421},{"town":"大字山城","koaza":"","lat":35.890864,"lng":139.444314},{"town":"大字豊田本","koaza":"","lat":35.898308,"lng":139.456998},{"town":"大字小室","koaza":"","lat":35.91631,"lng":139.463163},{"town":"大字大仙波新田","koaza":"","lat":35.901051,"lng":139.494573},{"town":"大字大仙波","koaza":"","lat":35.908772,"lng":139.500868},{"town":"大字大塚新田","koaza":"","lat":35.897999,"lng":139.464973},{"town":"大字今福","koaza":"","lat":35.880888,"lng":139.473591},{"town":"旭町一丁目","koaza":"","lat":35.90405,"lng":139.475619},{"town":"旭町二丁目","koaza":"","lat":35.901059,"lng":139.473597},{"town":"旭町三丁目","koaza":"","lat":35.898553,"lng":139.471365},{"town":"新宿町一丁目","koaza":"","lat":35.902933,"lng":139.480752},{"town":"新宿町二丁目","koaza":"","lat":35.902704,"lng":139.485507},{"town":"新宿町三丁目","koaza":"","lat":35.899203,"lng":139.483823},{"town":"新宿町四丁目","koaza":"","lat":35.89646,"lng":139.48166},{"town":"新宿町五丁目","koaza":"","lat":35.899698,"lng":139.478256},{"town":"新宿町六丁目","koaza":"","lat":35.894632,"lng":139.476081},{"town":"石原町一丁目","koaza":"","lat":35.924902,"lng":139.477644},{"town":"石原町二丁目","koaza":"","lat":35.928984,"lng":139.473865},{"town":"泉町","koaza":"","lat":35.904778,"lng":139.512687},{"town":"伊勢原町一丁目","koaza":"","lat":35.921753,"lng":139.432419},{"town":"伊勢原町二丁目","koaza":"","lat":35.921236,"lng":139.429784},{"town":"伊勢原町三丁目","koaza":"","lat":35.923475,"lng":139.426869},{"town":"伊勢原町四丁目","koaza":"","lat":35.921916,"lng":139.425659},{"town":"伊勢原町五丁目","koaza":"","lat":35.921592,"lng":139.423382},{"town":"稲荷町","koaza":"","lat":35.881332,"lng":139.503039},{"town":"今成一丁目","koaza":"","lat":35.924702,"lng":139.473608},{"town":"今成二丁目","koaza":"","lat":35.924298,"lng":139.4674},{"town":"今成三丁目","koaza":"","lat":35.921305,"lng":139.467257},{"town":"今成四丁目","koaza":"","lat":35.919236,"lng":139.466882},{"town":"上戸新町","koaza":"","lat":35.925821,"lng":139.449784},{"town":"大塚一丁目","koaza":"","lat":35.897533,"lng":139.459968},{"town":"大塚二丁目","koaza":"","lat":35.89585,"lng":139.469751},{"town":"大塚新町","koaza":"","lat":35.89534,"lng":139.463345},{"town":"大手町","koaza":"","lat":35.923124,"lng":139.485245},{"town":"御成町","koaza":"","lat":35.935719,"lng":139.491354},{"town":"かし野台一丁目","koaza":"","lat":35.887809,"lng":139.441254},{"town":"かし野台二丁目","koaza":"","lat":35.887291,"lng":139.443177},{"town":"霞ケ関北一丁目","koaza":"","lat":35.924442,"lng":139.436129},{"town":"霞ケ関北二丁目","koaza":"","lat":35.927732,"lng":139.436569},{"town":"霞ケ関北三丁目","koaza":"","lat":35.927166,"lng":139.433913},{"town":"霞ケ関北四丁目","koaza":"","lat":35.923888,"lng":139.434539},{"town":"霞ケ関北五丁目","koaza":"","lat":35.924431,"lng":139.43019},{"town":"霞ケ関北六丁目","koaza":"","lat":35.926685,"lng":139.431037},{"town":"霞ケ関東一丁目","koaza":"","lat":35.923375,"lng":139.441919},{"town":"霞ケ関東二丁目","koaza":"","lat":35.924479,"lng":139.445645},{"town":"霞ケ関東三丁目","koaza":"","lat":35.922053,"lng":139.444716},{"town":"霞ケ関東四丁目","koaza":"","lat":35.922745,"lng":139.44738},{"town":"霞ケ関東五丁目","koaza":"","lat":35.922403,"lng":139.449816},{"town":"かすみ野一丁目","koaza":"","lat":35.902281,"lng":139.417137},{"town":"かすみ野二丁目","koaza":"","lat":35.904332,"lng":139.41475},{"town":"かすみ野三丁目","koaza":"","lat":35.899823,"lng":139.414309},{"town":"上野田町","koaza":"","lat":35.913291,"lng":139.470099},{"town":"川鶴一丁目","koaza":"","lat":35.922629,"lng":139.416331},{"town":"川鶴二丁目","koaza":"","lat":35.921778,"lng":139.412795},{"town":"川鶴三丁目","koaza":"","lat":35.920334,"lng":139.406451},{"town":"かわつる三芳野","koaza":"","lat":35.921996,"lng":139.409627},{"town":"岸町一丁目","koaza":"","lat":35.900751,"lng":139.491491},{"town":"岸町二丁目","koaza":"","lat":35.897624,"lng":139.488282},{"town":"岸町三丁目","koaza":"","lat":35.894253,"lng":139.483564},{"town":"喜多町","koaza":"","lat":35.926575,"lng":139.482477},{"town":"久保町","koaza":"","lat":35.9199,"lng":139.489313},{"town":"熊野町","koaza":"","lat":35.875894,"lng":139.503234},{"town":"郭町一丁目","koaza":"","lat":35.923528,"lng":139.487639},{"town":"郭町二丁目","koaza":"","lat":35.924,"lng":139.491692},{"town":"広栄町","koaza":"","lat":35.902056,"lng":139.468042},{"town":"小仙波町一丁目","koaza":"","lat":35.917614,"lng":139.490035},{"town":"小仙波町二丁目","koaza":"","lat":35.920502,"lng":139.493832},{"town":"小仙波町三丁目","koaza":"","lat":35.917301,"lng":139.495388},{"town":"小仙波町四丁目","koaza":"","lat":35.914719,"lng":139.495308},{"town":"小仙波町五丁目","koaza":"","lat":35.914245,"lng":139.491309},{"town":"寿町一丁目","koaza":"","lat":35.905055,"lng":139.466907},{"town":"寿町二丁目","koaza":"","lat":35.9077,"lng":139.466263},{"town":"幸町","koaza":"","lat":35.923048,"lng":139.48262},{"town":"三久保町","koaza":"","lat":35.920807,"lng":139.488197},{"town":"三光町","koaza":"","lat":35.918563,"lng":139.47639},{"town":"志多町","koaza":"","lat":35.928636,"lng":139.484022},{"town":"清水町","koaza":"","lat":35.877976,"lng":139.505819},{"town":"城下町","koaza":"","lat":35.928342,"lng":139.49403},{"town":"新富町一丁目","koaza":"","lat":35.915756,"lng":139.483437},{"town":"新富町二丁目","koaza":"","lat":35.912521,"lng":139.482323},{"town":"神明町","koaza":"","lat":35.930981,"lng":139.479174},{"town":"末広町一丁目","koaza":"","lat":35.921732,"lng":139.478528},{"town":"末広町二丁目","koaza":"","lat":35.923216,"lng":139.480615},{"town":"末広町三丁目","koaza":"","lat":35.922753,"lng":139.477796},{"town":"菅原町","koaza":"","lat":35.906839,"lng":139.486042},{"town":"砂新田一丁目","koaza":"","lat":35.892422,"lng":139.487513},{"town":"砂新田二丁目","koaza":"","lat":35.890062,"lng":139.490081},{"town":"砂新田三丁目","koaza":"","lat":35.88856,"lng":139.488881},{"town":"砂新田四丁目","koaza":"","lat":35.88545,"lng":139.491654},{"town":"砂新田五丁目","koaza":"","lat":35.883887,"lng":139.489017},{"town":"砂新田六丁目","koaza":"","lat":35.879816,"lng":139.485953},{"town":"諏訪町","koaza":"","lat":35.879495,"lng":139.499986},{"town":"仙波町一丁目","koaza":"","lat":35.911091,"lng":139.48957},{"town":"仙波町二丁目","koaza":"","lat":35.907699,"lng":139.489496},{"town":"仙波町三丁目","koaza":"","lat":35.911975,"lng":139.494157},{"town":"仙波町四丁目","koaza":"","lat":35.906702,"lng":139.493496},{"town":"田町","koaza":"","lat":35.914121,"lng":139.475836},{"town":"月吉町","koaza":"","lat":35.920487,"lng":139.473453},{"town":"通町","koaza":"","lat":35.914181,"lng":139.485164},{"town":"豊田町一丁目","koaza":"","lat":35.905399,"lng":139.461502},{"town":"豊田町二丁目","koaza":"","lat":35.901414,"lng":139.458424},{"town":"豊田町三丁目","koaza":"","lat":35.901397,"lng":139.463429},{"town":"豊田本一丁目","koaza":"","lat":35.911298,"lng":139.46558},{"town":"豊田本二丁目","koaza":"","lat":35.910877,"lng":139.459572},{"town":"豊田本三丁目","koaza":"","lat":35.911058,"lng":139.454275},{"town":"豊田本四丁目","koaza":"","lat":35.904573,"lng":139.455732},{"town":"豊田本五丁目","koaza":"","lat":35.901479,"lng":139.45149},{"town":"問屋町","koaza":"","lat":35.922883,"lng":139.511314},{"town":"中台一丁目","koaza":"","lat":35.89153,"lng":139.474345},{"town":"中台二丁目","koaza":"","lat":35.888308,"lng":139.473402},{"town":"中台三丁目","koaza":"","lat":35.889296,"lng":139.469836},{"town":"中台南一丁目","koaza":"","lat":35.885287,"lng":139.465619},{"town":"中台南二丁目","koaza":"","lat":35.881832,"lng":139.465145},{"town":"中台南三丁目","koaza":"","lat":35.876234,"lng":139.459032},{"town":"中台元町一丁目","koaza":"","lat":35.891939,"lng":139.479296},{"town":"中台元町二丁目","koaza":"","lat":35.890521,"lng":139.483601},{"town":"仲町","koaza":"","lat":35.920911,"lng":139.481886},{"town":"中原町一丁目","koaza":"","lat":35.916839,"lng":139.481178},{"town":"中原町二丁目","koaza":"","lat":35.913414,"lng":139.479475},{"town":"中福東","koaza":"","lat":35.868184,"lng":139.474143},{"town":"並木新町","koaza":"","lat":35.901397,"lng":139.517608},{"town":"並木西町","koaza":"","lat":35.900667,"lng":139.514316},{"town":"西小仙波町一丁目","koaza":"","lat":35.91737,"lng":139.48699},{"town":"西小仙波町二丁目","koaza":"","lat":35.91414,"lng":139.487811},{"town":"日東町","koaza":"","lat":35.894482,"lng":139.438014},{"town":"野田町一丁目","koaza":"","lat":35.911767,"lng":139.474016},{"town":"野田町二丁目","koaza":"","lat":35.908036,"lng":139.470905},{"town":"氷川町","koaza":"","lat":35.930024,"lng":139.490842},{"town":"東田町","koaza":"","lat":35.909461,"lng":139.477043},{"town":"広谷新町","koaza":"","lat":35.946863,"lng":139.42891},{"town":"藤木町","koaza":"","lat":35.896726,"lng":139.512168},{"town":"藤倉一丁目","koaza":"","lat":35.889859,"lng":139.437021},{"town":"藤倉二丁目","koaza":"","lat":35.885983,"lng":139.436015},{"town":"富士見町","koaza":"","lat":35.903453,"lng":139.488421},{"town":"藤原町","koaza":"","lat":35.883064,"lng":139.499508},{"town":"松江町一丁目","koaza":"","lat":35.918089,"lng":139.485504},{"town":"松江町二丁目","koaza":"","lat":35.920828,"lng":139.484912},{"town":"的場一丁目","koaza":"","lat":35.913124,"lng":139.428404},{"town":"的場二丁目","koaza":"","lat":35.915753,"lng":139.42701},{"town":"的場北一丁目","koaza":"","lat":35.926199,"lng":139.43921},{"town":"的場北二丁目","koaza":"","lat":35.924366,"lng":139.439023},{"town":"的場新町","koaza":"","lat":35.918391,"lng":139.426977},{"town":"南大塚一丁目","koaza":"","lat":35.897732,"lng":139.453606},{"town":"南大塚二丁目","koaza":"","lat":35.893572,"lng":139.456251},{"town":"南大塚三丁目","koaza":"","lat":35.890554,"lng":139.460013},{"town":"南大塚四丁目","koaza":"","lat":35.889078,"lng":139.457597},{"town":"南大塚五丁目","koaza":"","lat":35.88702,"lng":139.463055},{"town":"南大塚六丁目","koaza":"","lat":35.880322,"lng":139.45926},{"town":"南台一丁目","koaza":"","lat":35.884812,"lng":139.44796},{"town":"南台二丁目","koaza":"","lat":35.890658,"lng":139.452115},{"town":"南台三丁目","koaza":"","lat":35.887905,"lng":139.454368},{"town":"南通町","koaza":"","lat":35.910642,"lng":139.485988},{"town":"宮下町一丁目","koaza":"","lat":35.926275,"lng":139.488463},{"town":"宮下町二丁目","koaza":"","lat":35.928611,"lng":139.486348},{"town":"宮元町","koaza":"","lat":35.932692,"lng":139.484581},{"town":"むさし野","koaza":"","lat":35.891895,"lng":139.466824},{"town":"むさし野南","koaza":"","lat":35.888072,"lng":139.466887},{"town":"元町一丁目","koaza":"","lat":35.924857,"lng":139.484576},{"town":"元町二丁目","koaza":"","lat":35.92496,"lng":139.481499},{"town":"吉田新町一丁目","koaza":"","lat":35.926638,"lng":139.422609},{"town":"吉田新町二丁目","koaza":"","lat":35.925261,"lng":139.421045},{"town":"吉田新町三丁目","koaza":"","lat":35.928174,"lng":139.42027},{"town":"芳野台一丁目","koaza":"","lat":35.948508,"lng":139.520485},{"town":"芳野台二丁目","koaza":"","lat":35.95106,"lng":139.509185},{"town":"芳野台三丁目","koaza":"","lat":35.942526,"lng":139.522922},{"town":"四都野台","koaza":"","lat":35.894733,"lng":139.4661},{"town":"連雀町","koaza":"","lat":35.918918,"lng":139.482637},{"town":"六軒町一丁目","koaza":"","lat":35.915683,"lng":139.478442},{"town":"六軒町二丁目","koaza":"","lat":35.919376,"lng":139.479392},{"town":"脇田新町","koaza":"","lat":35.905511,"lng":139.472619},{"town":"脇田本町","koaza":"","lat":35.907469,"lng":139.480144},{"town":"脇田町","koaza":"","lat":35.908277,"lng":139.483291}]