[{"town":"大字上吉羽","koaza":"","lat":36.07781,"lng":139.738254},{"town":"大字上宇和田","koaza":"","lat":36.075835,"lng":139.764238},{"town":"大字上高野","koaza":"","lat":36.06042,"lng":139.713703},{"town":"大字下吉羽","koaza":"","lat":36.069376,"lng":139.759766},{"town":"大字下宇和田","koaza":"","lat":36.070045,"lng":139.767365},{"town":"大字下川崎","koaza":"","lat":36.082599,"lng":139.706038},{"town":"大字中島","koaza":"","lat":36.079416,"lng":139.778172},{"town":"大字中川崎","koaza":"","lat":36.080917,"lng":139.697997},{"town":"大字中野","koaza":"","lat":36.054267,"lng":139.758387},{"town":"大字内国府間","koaza":"","lat":36.090528,"lng":139.721829},{"town":"大字円藤内","koaza":"","lat":36.091634,"lng":139.712586},{"town":"大字千塚","koaza":"","lat":36.090704,"lng":139.702001},{"town":"大字吉野","koaza":"","lat":36.053374,"lng":139.726778},{"town":"大字外国府間","koaza":"","lat":36.103519,"lng":139.723924},{"town":"大字天神島","koaza":"","lat":36.066827,"lng":139.731862},{"town":"大字平野","koaza":"","lat":36.061327,"lng":139.758007},{"town":"大字平須賀","koaza":"","lat":36.06539,"lng":139.739984},{"town":"大字幸手","koaza":"","lat":36.074382,"lng":139.729623},{"town":"大字惣新田","koaza":"","lat":36.060365,"lng":139.771209},{"town":"大字戸島","koaza":"","lat":36.04725,"lng":139.735717},{"town":"大字木立","koaza":"","lat":36.078516,"lng":139.755005},{"town":"大字松石","koaza":"","lat":36.09826,"lng":139.710824},{"town":"大字槙野地","koaza":"","lat":36.061035,"lng":139.783922},{"town":"大字権現堂","koaza":"","lat":36.088747,"lng":139.728122},{"town":"大字神扇","koaza":"","lat":36.061138,"lng":139.745516},{"town":"大字神明内","koaza":"","lat":36.07429,"lng":139.744704},{"town":"大字細野","koaza":"","lat":36.055307,"lng":139.77901},{"town":"大字花島","koaza":"","lat":36.068243,"lng":139.782327},{"town":"大字西関宿","koaza":"","lat":36.08599,"lng":139.775174},{"town":"大字長間","koaza":"","lat":36.048859,"lng":139.766663},{"town":"大字高須賀","koaza":"","lat":36.094929,"lng":139.717625},{"town":"香日向一丁目","koaza":"","lat":36.085505,"lng":139.699651},{"town":"香日向二丁目","koaza":"","lat":36.08568,"lng":139.695266},{"town":"香日向三丁目","koaza":"","lat":36.087965,"lng":139.696392},{"town":"香日向四丁目","koaza":"","lat":36.08792,"lng":139.700832},{"town":"上高野一丁目","koaza":"","lat":36.06723,"lng":139.718439},{"town":"北一丁目","koaza":"","lat":36.084497,"lng":139.718703},{"town":"北二丁目","koaza":"","lat":36.084053,"lng":139.723081},{"town":"北三丁目","koaza":"","lat":36.086606,"lng":139.72735},{"town":"栄","koaza":"","lat":36.057007,"lng":139.720884},{"town":"天神島一丁目","koaza":"","lat":36.061065,"lng":139.726003},{"town":"戸島一丁目","koaza":"","lat":36.049633,"lng":139.732972},{"town":"戸島二丁目","koaza":"","lat":36.049394,"lng":139.741393},{"town":"中一丁目","koaza":"","lat":36.074539,"lng":139.716709},{"town":"中二丁目","koaza":"","lat":36.073739,"lng":139.719884},{"town":"中三丁目","koaza":"","lat":36.077298,"lng":139.7218},{"town":"中四丁目","koaza":"","lat":36.079704,"lng":139.717791},{"town":"中五丁目","koaza":"","lat":36.077939,"lng":139.711362},{"town":"西一丁目","koaza":"","lat":36.08244,"lng":139.714586},{"town":"西二丁目","koaza":"","lat":36.085538,"lng":139.715231},{"town":"東一丁目","koaza":"","lat":36.068676,"lng":139.722058},{"town":"東二丁目","koaza":"","lat":36.071723,"lng":139.723769},{"town":"東三丁目","koaza":"","lat":36.074612,"lng":139.725826},{"town":"東四丁目","koaza":"","lat":36.07742,"lng":139.727006},{"town":"東五丁目","koaza":"","lat":36.079839,"lng":139.727342},{"town":"平須賀一丁目","koaza":"","lat":36.057831,"lng":139.735205},{"town":"平須賀二丁目","koaza":"","lat":36.055907,"lng":139.72987},{"town":"緑台一丁目","koaza":"","lat":36.065394,"lng":139.723919},{"town":"緑台二丁目","koaza":"","lat":36.068774,"lng":139.727459},{"town":"南一丁目","koaza":"","lat":36.070241,"lng":139.716587},{"town":"南二丁目","koaza":"","lat":36.068751,"lng":139.711788},{"town":"南三丁目","koaza":"","lat":36.073291,"lng":139.711768},{"town":"吉野一丁目","koaza":"","lat":36.059288,"lng":139.725347}]