[{"town":"大字女影新田","koaza":"","lat":35.905391,"lng":139.361517},{"town":"大字新堀新田","koaza":"","lat":35.905002,"lng":139.347853},{"town":"大字久保","koaza":"","lat":35.882301,"lng":139.301491},{"town":"大字野々宮","koaza":"","lat":35.893606,"lng":139.329388},{"town":"大字下高萩新田","koaza":"","lat":35.91615,"lng":139.380885},{"town":"大字高富","koaza":"","lat":35.876983,"lng":139.385601},{"town":"大字猿田","koaza":"","lat":35.888504,"lng":139.33388},{"town":"大字馬引沢","koaza":"","lat":35.873651,"lng":139.369368},{"town":"大字楡木","koaza":"","lat":35.886242,"lng":139.328124},{"town":"大字田木","koaza":"","lat":35.874171,"lng":139.377635},{"town":"大字山根","koaza":"","lat":35.918953,"lng":139.32394},{"town":"大字中鹿山","koaza":"","lat":35.890566,"lng":139.345756},{"town":"大字森戸新田","koaza":"","lat":35.916155,"lng":139.374107},{"town":"大字梅原","koaza":"","lat":35.881198,"lng":139.317455},{"town":"大字台","koaza":"","lat":35.879212,"lng":139.306957},{"town":"大字下鹿山","koaza":"","lat":35.894594,"lng":139.354061},{"town":"大字清流","koaza":"","lat":35.894666,"lng":139.307059},{"town":"大字鹿山","koaza":"","lat":35.899761,"lng":139.348341},{"town":"大字高岡","koaza":"","lat":35.896269,"lng":139.314825},{"town":"大字栗坪","koaza":"","lat":35.885843,"lng":139.322602},{"town":"大字大谷沢","koaza":"","lat":35.88509,"lng":139.380791},{"town":"大字駒寺野新田","koaza":"","lat":35.921842,"lng":139.362429},{"town":"大字上鹿山","koaza":"","lat":35.885917,"lng":139.340906},{"town":"大字中沢","koaza":"","lat":35.887052,"lng":139.371455},{"town":"大字田波目","koaza":"","lat":35.919478,"lng":139.347099},{"town":"大字原宿","koaza":"","lat":35.904058,"lng":139.344175},{"town":"大字南平沢","koaza":"","lat":35.910819,"lng":139.335865},{"town":"大字旭ケ丘","koaza":"","lat":35.911907,"lng":139.362086},{"town":"大字下大谷沢","koaza":"","lat":35.89102,"lng":139.38989},{"town":"大字新堀","koaza":"","lat":35.899218,"lng":139.324104},{"town":"大字女影","koaza":"","lat":35.889511,"lng":139.358829},{"town":"大字北平沢","koaza":"","lat":35.910718,"lng":139.319041},{"town":"大字高麗本郷","koaza":"","lat":35.892082,"lng":139.297823},{"town":"大字横手","koaza":"","lat":35.885743,"lng":139.285151},{"town":"大字高萩","koaza":"","lat":35.900997,"lng":139.376946},{"town":"高麗川一丁目","koaza":"","lat":35.898107,"lng":139.336249},{"town":"高麗川二丁目","koaza":"","lat":35.894191,"lng":139.336431},{"town":"高麗川三丁目","koaza":"","lat":35.89578,"lng":139.334251},{"town":"四本木一丁目","koaza":"","lat":35.897369,"lng":139.333888},{"town":"四本木二丁目","koaza":"","lat":35.898695,"lng":139.33306},{"town":"高萩東一丁目","koaza":"","lat":35.908356,"lng":139.379437},{"town":"高萩東二丁目","koaza":"","lat":35.910591,"lng":139.38157},{"town":"高萩東三丁目","koaza":"","lat":35.909923,"lng":139.383333},{"town":"武蔵台一丁目","koaza":"","lat":35.879605,"lng":139.301211},{"town":"武蔵台二丁目","koaza":"","lat":35.875511,"lng":139.303218},{"town":"武蔵台三丁目","koaza":"","lat":35.875772,"lng":139.300527},{"town":"武蔵台四丁目","koaza":"","lat":35.875559,"lng":139.298836},{"town":"武蔵台五丁目","koaza":"","lat":35.872685,"lng":139.30263},{"town":"武蔵台六丁目","koaza":"","lat":35.870392,"lng":139.296779},{"town":"武蔵台七丁目","koaza":"","lat":35.874821,"lng":139.29751},{"town":"猿田上ノ台","koaza":"","lat":35.892491,"lng":139.333933},{"town":"横手一丁目","koaza":"","lat":35.873967,"lng":139.29022},{"town":"横手二丁目","koaza":"","lat":35.874292,"lng":139.285845}]