[{"town":"池船町","koaza":"","lat":"32.951340","lng":"131.894765"},{"town":"臼坪","koaza":"","lat":"32.965152","lng":"131.895029"},{"town":"内町","koaza":"","lat":"32.957448","lng":"131.895361"},{"town":"宇目大字大平","koaza":"","lat":"32.824474","lng":"131.711628"},{"town":"宇目大字小野市","koaza":"","lat":"32.870735","lng":"131.627891"},{"town":"宇目大字河内","koaza":"","lat":"32.875489","lng":"131.689560"},{"town":"宇目大字木浦内","koaza":"","lat":"32.813818","lng":"131.543751"},{"town":"宇目大字木浦鉱山","koaza":"","lat":"32.824368","lng":"131.546824"},{"town":"宇目大字塩見園","koaza":"","lat":"32.858803","lng":"131.698239"},{"town":"宇目大字重岡","koaza":"","lat":"32.809992","lng":"131.661598"},{"town":"宇目大字千束","koaza":"","lat":"32.863583","lng":"131.673847"},{"town":"宇目大字南田原","koaza":"","lat":"32.827234","lng":"131.610422"},{"town":"駅前一丁目","koaza":"","lat":"32.970690","lng":"131.903977"},{"town":"駅前二丁目","koaza":"","lat":"32.971876","lng":"131.904899"},{"town":"大字青山","koaza":"","lat":"32.860501","lng":"131.876159"},{"town":"大字荒網代浦","koaza":"","lat":"32.992690","lng":"131.933060"},{"town":"大字池田","koaza":"","lat":"32.946339","lng":"131.894591"},{"town":"大字石間浦","koaza":"","lat":"32.985445","lng":"131.921077"},{"town":"大字稲垣","koaza":"","lat":"32.950885","lng":"131.869874"},{"town":"大字海崎","koaza":"","lat":"32.998077","lng":"131.882313"},{"town":"大字霞ケ浦","koaza":"","lat":"33.001288","lng":"131.896399"},{"town":"大字片神浦","koaza":"","lat":"33.001757","lng":"131.928015"},{"town":"大字堅田","koaza":"","lat":"32.908410","lng":"131.888314"},{"town":"大字上岡","koaza":"","lat":"32.960909","lng":"131.855915"},{"town":"大字狩生","koaza":"","lat":"33.016023","lng":"131.900036"},{"town":"大字木立","koaza":"","lat":"32.911631","lng":"131.932931"},{"town":"大字久保浦","koaza":"","lat":"32.994120","lng":"131.920688"},{"town":"大字塩内浦","koaza":"","lat":"32.996724","lng":"131.935494"},{"town":"大字高松浦","koaza":"","lat":"33.011728","lng":"131.929616"},{"town":"大字鶴望","koaza":"","lat":"32.973101","lng":"131.886993"},{"town":"大字長良","koaza":"","lat":"32.929494","lng":"131.891943"},{"town":"大字長谷","koaza":"","lat":"32.900304","lng":"131.847340"},{"town":"大字戸穴","koaza":"","lat":"33.011976","lng":"131.884571"},{"town":"大字日向泊浦","koaza":"","lat":"33.010843","lng":"131.934327"},{"town":"大字二栄","koaza":"","lat":"33.025173","lng":"131.912894"},{"town":"大字護江","koaza":"","lat":"33.005900","lng":"131.903232"},{"town":"大字守後浦","koaza":"","lat":"32.988539","lng":"131.915891"},{"town":"大手町一丁目","koaza":"","lat":"32.957225","lng":"131.892634"},{"town":"大手町二丁目","koaza":"","lat":"32.956213","lng":"131.894546"},{"town":"大手町三丁目","koaza":"","lat":"32.955894","lng":"131.892349"},{"town":"春日町","koaza":"","lat":"32.975492","lng":"131.902582"},{"town":"葛港","koaza":"","lat":"32.978416","lng":"131.902070"},{"town":"蒲江大字猪串浦","koaza":"","lat":"32.802283","lng":"131.905007"},{"town":"蒲江大字葛原浦","koaza":"","lat":"32.768454","lng":"131.863980"},{"town":"蒲江大字蒲江浦","koaza":"","lat":"32.807940","lng":"131.928506"},{"town":"蒲江大字楠本浦","koaza":"","lat":"32.835605","lng":"131.931514"},{"town":"蒲江大字竹野浦河内","koaza":"","lat":"32.815379","lng":"131.966878"},{"town":"蒲江大字西野浦","koaza":"","lat":"32.828678","lng":"131.997294"},{"town":"蒲江大字野々河内浦","koaza":"","lat":"32.818721","lng":"131.894852"},{"town":"蒲江大字畑野浦","koaza":"","lat":"32.866507","lng":"131.948696"},{"town":"蒲江大字波当津浦","koaza":"","lat":"32.750012","lng":"131.859345"},{"town":"蒲江大字丸市尾浦","koaza":"","lat":"32.792015","lng":"131.866218"},{"town":"蒲江大字森崎浦","koaza":"","lat":"32.797719","lng":"131.884039"},{"town":"上浦大字浅海井浦","koaza":"","lat":"33.042542","lng":"131.906058"},{"town":"上浦大字津井浦","koaza":"","lat":"33.054804","lng":"131.929383"},{"town":"上浦大字最勝海浦","koaza":"","lat":"33.058297","lng":"131.999078"},{"town":"蟹田","koaza":"","lat":"32.967437","lng":"131.902958"},{"town":"来島町","koaza":"","lat":"32.959849","lng":"131.902870"},{"town":"城下西町","koaza":"","lat":"32.958760","lng":"131.893729"},{"town":"城下東町","koaza":"","lat":"32.960834","lng":"131.894478"},{"town":"城東町","koaza":"","lat":"32.958247","lng":"131.896885"},{"town":"城南町","koaza":"","lat":"32.952693","lng":"131.888007"},{"town":"船頭町","koaza":"","lat":"32.954360","lng":"131.893181"},{"town":"田の浦町","koaza":"","lat":"32.975977","lng":"131.900133"},{"town":"鶴岡西町一丁目","koaza":"","lat":"32.961889","lng":"131.867962"},{"town":"鶴岡西町二丁目","koaza":"","lat":"32.959627","lng":"131.865073"},{"town":"鶴岡町一丁目","koaza":"","lat":"32.959445","lng":"131.882176"},{"town":"鶴岡町二丁目","koaza":"","lat":"32.956798","lng":"131.881134"},{"town":"鶴岡町三丁目","koaza":"","lat":"32.959926","lng":"131.876915"},{"town":"鶴見大字有明浦","koaza":"","lat":"32.937532","lng":"131.981773"},{"town":"鶴見大字大島","koaza":"","lat":"32.965413","lng":"132.073707"},{"town":"鶴見大字沖松浦","koaza":"","lat":"32.945539","lng":"131.965050"},{"town":"鶴見大字梶寄浦","koaza":"","lat":"32.942870","lng":"132.070863"},{"town":"鶴見大字地松浦","koaza":"","lat":"32.945419","lng":"131.956196"},{"town":"鶴見大字丹賀浦","koaza":"","lat":"32.948021","lng":"132.051660"},{"town":"鶴見大字中越浦","koaza":"","lat":"32.941001","lng":"132.036723"},{"town":"鶴見大字羽出浦","koaza":"","lat":"32.944941","lng":"131.997650"},{"town":"鶴見大字吹浦","koaza":"","lat":"32.948299","lng":"131.941046"},{"town":"鶴谷町一丁目","koaza":"","lat":"32.974226","lng":"131.906974"},{"town":"鶴谷町三丁目","koaza":"","lat":"32.968849","lng":"131.913177"},{"town":"常盤西町","koaza":"","lat":"32.964734","lng":"131.899212"},{"town":"常盤東町","koaza":"","lat":"32.965378","lng":"131.902411"},{"town":"常盤南町","koaza":"","lat":"32.963107","lng":"131.901592"},{"town":"直川大字赤木","koaza":"","lat":"32.865386","lng":"131.790906"},{"town":"直川大字上直見","koaza":"","lat":"32.895978","lng":"131.800226"},{"town":"直川大字下直見","koaza":"","lat":"32.922467","lng":"131.800391"},{"town":"直川大字仁田原","koaza":"","lat":"32.865119","lng":"131.754526"},{"town":"直川大字横川","koaza":"","lat":"32.887485","lng":"131.736715"},{"town":"中江町","koaza":"","lat":"32.965120","lng":"131.912295"},{"town":"長島町一丁目","koaza":"","lat":"32.961855","lng":"131.905475"},{"town":"長島町二丁目","koaza":"","lat":"32.960557","lng":"131.909680"},{"town":"長島町三丁目","koaza":"","lat":"32.957578","lng":"131.907644"},{"town":"長島町四丁目","koaza":"","lat":"32.955135","lng":"131.906078"},{"town":"中の島一丁目","koaza":"","lat":"32.956620","lng":"131.901681"},{"town":"中の島二丁目","koaza":"","lat":"32.953762","lng":"131.899384"},{"town":"中の島三丁目","koaza":"","lat":"32.952454","lng":"131.903485"},{"town":"中ノ島東町","koaza":"","lat":"32.954195","lng":"131.904111"},{"town":"中村北町","koaza":"","lat":"32.962439","lng":"131.897946"},{"town":"中村西町","koaza":"","lat":"32.961201","lng":"131.896564"},{"town":"中村東町","koaza":"","lat":"32.961090","lng":"131.900794"},{"town":"中村南町","koaza":"","lat":"32.959446","lng":"131.899174"},{"town":"西谷町","koaza":"","lat":"32.956560","lng":"131.886560"},{"town":"西浜","koaza":"","lat":"32.963869","lng":"131.920090"},{"town":"野岡町一丁目","koaza":"","lat":"32.969669","lng":"131.906128"},{"town":"野岡町二丁目","koaza":"","lat":"32.969045","lng":"131.909185"},{"town":"東町","koaza":"","lat":"32.965785","lng":"131.907505"},{"town":"日の出町","koaza":"","lat":"32.974780","lng":"131.904640"},{"town":"平野町","koaza":"","lat":"32.971911","lng":"131.901388"},{"town":"向島一丁目","koaza":"","lat":"32.956722","lng":"131.898248"},{"town":"向島二丁目","koaza":"","lat":"32.954833","lng":"131.896521"},{"town":"本匠大字井ノ上","koaza":"","lat":"32.948642","lng":"131.736512"},{"town":"本匠大字因尾","koaza":"","lat":"32.945809","lng":"131.703294"},{"town":"本匠大字宇津々","koaza":"","lat":"32.964548","lng":"131.773912"},{"town":"本匠大字小川","koaza":"","lat":"32.920849","lng":"131.757060"},{"town":"本匠大字小半","koaza":"","lat":"32.953395","lng":"131.755808"},{"town":"本匠大字笠掛","koaza":"","lat":"32.953515","lng":"131.805486"},{"town":"本匠大字風戸","koaza":"","lat":"32.971630","lng":"131.804369"},{"town":"本匠大字上津川","koaza":"","lat":"32.894789","lng":"131.689051"},{"town":"本匠大字堂ノ間","koaza":"","lat":"32.918602","lng":"131.710420"},{"town":"本匠大字波寄","koaza":"","lat":"32.945125","lng":"131.779046"},{"town":"本匠大字三股","koaza":"","lat":"32.941679","lng":"131.800080"},{"town":"本匠大字山部","koaza":"","lat":"32.927099","lng":"131.664295"},{"town":"弥生大字井崎","koaza":"","lat":"32.973132","lng":"131.848007"},{"town":"弥生大字江良","koaza":"","lat":"32.937371","lng":"131.828150"},{"town":"弥生大字大坂本","koaza":"","lat":"32.991711","lng":"131.846216"},{"town":"弥生大字上小倉","koaza":"","lat":"32.970751","lng":"131.834042"},{"town":"弥生大字門田","koaza":"","lat":"32.944749","lng":"131.844369"},{"town":"弥生大字小田","koaza":"","lat":"32.959838","lng":"131.844831"},{"town":"弥生大字細田","koaza":"","lat":"32.957676","lng":"131.819459"},{"town":"弥生大字尺間","koaza":"","lat":"33.009841","lng":"131.811795"},{"town":"弥生大字提内","koaza":"","lat":"32.916427","lng":"131.831280"},{"town":"弥生大字平井","koaza":"","lat":"32.960551","lng":"131.834111"},{"town":"弥生大字山梨子","koaza":"","lat":"32.968345","lng":"131.825667"},{"town":"弥生大字床木","koaza":"","lat":"33.010505","lng":"131.855648"},{"town":"米水津大字色利浦","koaza":"","lat":"32.892092","lng":"131.970238"},{"town":"米水津大字浦代浦","koaza":"","lat":"32.918956","lng":"131.965945"},{"town":"米水津大字宮野浦","koaza":"","lat":"32.891327","lng":"131.998932"},{"town":"若宮町","koaza":"","lat":"32.960326","lng":"131.884846"},{"town":"東浜","koaza":"","lat":"32.969590","lng":"131.920439"},{"town":"鶴谷町二丁目","koaza":"","lat":"32.973175","lng":"131.910128"},{"town":"米水津大字小浦","koaza":"","lat":"32.919277","lng":"132.002042"},{"town":"米水津大字竹野浦","koaza":"","lat":"32.927741","lng":"131.989417"},{"town":"（大字なし）","koaza":"王子丸","lat":"32.972368","lng":"131.885364"},{"town":"（大字なし）","koaza":"","lat":"32.958937","lng":"131.912855"},{"town":"（大字なし）","koaza":"坂の浦","lat":"32.981203","lng":"131.894962"},{"town":"（大字なし）","koaza":"新女島","lat":"32.951485","lng":"131.906698"},{"town":"（大字なし）","koaza":"女島団地","lat":"32.956237","lng":"131.910232"},{"town":"（大字なし）","koaza":"女島","lat":"32.957631","lng":"131.915459"}]