[{"town":"井無田町","koaza":"","lat":"33.074980","lng":"131.852412"},{"town":"入船西町","koaza":"","lat":"33.080672","lng":"131.853344"},{"town":"入船東町","koaza":"","lat":"33.080631","lng":"131.857954"},{"town":"大字網代","koaza":"","lat":"33.068152","lng":"131.931181"},{"town":"大字堅浦","koaza":"","lat":"33.098507","lng":"131.864117"},{"town":"大字上青江","koaza":"","lat":"33.079387","lng":"131.814930"},{"town":"大字下青江","koaza":"","lat":"33.071265","lng":"131.849621"},{"town":"大字千怒","koaza":"","lat":"33.063590","lng":"131.890315"},{"town":"大字津久見","koaza":"","lat":"33.054517","lng":"131.854306"},{"town":"大字徳浦","koaza":"","lat":"33.091943","lng":"131.846886"},{"town":"大字長目","koaza":"","lat":"33.111838","lng":"131.889629"},{"town":"大字日見","koaza":"","lat":"33.068322","lng":"131.904674"},{"town":"大字保戸島","koaza":"","lat":"33.104335","lng":"132.010983"},{"town":"大字八戸","koaza":"","lat":"33.044878","lng":"131.813628"},{"town":"大字四浦","koaza":"","lat":"33.075226","lng":"131.994074"},{"town":"大友町","koaza":"","lat":"33.070632","lng":"131.864695"},{"town":"岡町","koaza":"","lat":"33.079882","lng":"131.843632"},{"town":"上宮本町","koaza":"","lat":"33.070230","lng":"131.859981"},{"town":"合ノ元町","koaza":"","lat":"33.086488","lng":"131.854523"},{"town":"小園町","koaza":"","lat":"33.075515","lng":"131.843141"},{"town":"地蔵町","koaza":"","lat":"33.078133","lng":"131.848922"},{"town":"志手町","koaza":"","lat":"33.080151","lng":"131.848417"},{"town":"新町","koaza":"","lat":"33.077396","lng":"131.852328"},{"town":"セメント町","koaza":"","lat":"33.078006","lng":"131.855391"},{"town":"高洲町","koaza":"","lat":"33.075369","lng":"131.866656"},{"town":"立花町","koaza":"","lat":"33.064313","lng":"131.857765"},{"town":"中央町","koaza":"","lat":"33.074507","lng":"131.862823"},{"town":"徳浦本町","koaza":"","lat":"33.092292","lng":"131.849352"},{"town":"徳浦宮町","koaza":"","lat":"33.091316","lng":"131.853376"},{"town":"中田町","koaza":"","lat":"33.068292","lng":"131.861680"},{"town":"中町","koaza":"","lat":"33.079236","lng":"131.841313"},{"town":"文京町","koaza":"","lat":"33.067919","lng":"131.864253"},{"town":"港町","koaza":"","lat":"33.076879","lng":"131.861533"},{"town":"宮本町","koaza":"","lat":"33.072475","lng":"131.862690"},{"town":"元町","koaza":"","lat":"33.075278","lng":"131.855181"},{"town":"門前町","koaza":"","lat":"33.076468","lng":"131.848969"},{"town":"大字津久見浦","koaza":"","lat":"33.073282","lng":"131.872887"},{"town":"岩屋町","koaza":"","lat":"33.072047","lng":"131.867786"},{"town":"大字千怒","koaza":"新地","lat":"33.074486","lng":"131.889189"}]