[{"town":"大字大神","koaza":"","lat":"33.371114","lng":"131.580851"},{"town":"大字川崎","koaza":"","lat":"33.363982","lng":"131.551599"},{"town":"大字豊岡","koaza":"","lat":"33.372598","lng":"131.495596"},{"town":"大字平道","koaza":"","lat":"33.352292","lng":"131.492317"},{"town":"大字広瀬","koaza":"","lat":"33.406214","lng":"131.531078"},{"town":"大字藤原","koaza":"","lat":"33.400783","lng":"131.545349"},{"town":"大字真那井","koaza":"","lat":"33.380370","lng":"131.602474"},{"town":"大字南畑","koaza":"","lat":"33.368494","lng":"131.459234"},{"town":"（大字なし）","koaza":"","lat":"33.374804","lng":"131.524079"},{"town":"（大字なし）","koaza":"小路","lat":"33.371298","lng":"131.528665"},{"town":"大字藤原","koaza":"友田","lat":"33.38109","lng":"131.54148"}]