[{"town":"大字朝日一丁目","lat":"33.628251","lng":"135.938009"},{"town":"大字朝日二丁目","lat":"33.628368","lng":"135.939500"},{"town":"大字朝日三丁目","lat":"33.629628","lng":"135.940085"},{"town":"大字朝日四丁目","lat":"33.629509","lng":"135.941806"},{"town":"大字井鹿","lat":"33.613735","lng":"135.893662"},{"town":"大字井関","lat":"33.665674","lng":"135.925386"},{"town":"大字市野々","lat":"33.668718","lng":"135.907354"},{"town":"大字市屋","lat":"33.599749","lng":"135.916746"},{"town":"大字宇久井","lat":"33.660746","lng":"135.966058"},{"town":"大字浦神","lat":"33.560477","lng":"135.914693"},{"town":"大字大野","lat":"33.677058","lng":"135.840718"},{"town":"大字樫原","lat":"33.691501","lng":"135.801904"},{"town":"大字勝浦","lat":"33.625635","lng":"135.951518"},{"town":"大字川関","lat":"33.656004","lng":"135.932376"},{"town":"大字北浜一丁目","lat":"33.630805","lng":"135.943048"},{"town":"大字北浜二丁目","lat":"33.631888","lng":"135.943154"},{"town":"大字北浜三丁目","lat":"33.632741","lng":"135.943607"},{"town":"大字狗子ノ川","lat":"33.655671","lng":"135.953452"},{"town":"大字口色川","lat":"33.695647","lng":"135.849445"},{"town":"大字熊瀬川","lat":"33.648623","lng":"135.853783"},{"town":"大字高津気","lat":"33.675553","lng":"135.942326"},{"town":"大字高遠井","lat":"33.587918","lng":"135.865785"},{"town":"大字小阪","lat":"33.662608","lng":"135.871812"},{"town":"大字小匠","lat":"33.597134","lng":"135.841218"},{"town":"大字粉白","lat":"33.573614","lng":"135.911194"},{"town":"大字坂足","lat":"33.667951","lng":"135.814227"},{"town":"大字下里","lat":"33.581380","lng":"135.927540"},{"town":"大字下和田","lat":"33.588627","lng":"135.905508"},{"town":"大字庄","lat":"33.580848","lng":"135.900417"},{"town":"大字田垣内","lat":"33.662609","lng":"135.840401"},{"town":"大字高野","lat":"33.626999","lng":"135.824030"},{"town":"大字築地一丁目","lat":"33.628552","lng":"135.943966"},{"town":"大字築地二丁目","lat":"33.628385","lng":"135.943569"},{"town":"大字築地三丁目","lat":"33.628504","lng":"135.942783"},{"town":"大字築地四丁目","lat":"33.628115","lng":"135.942692"},{"town":"大字築地五丁目","lat":"33.627436","lng":"135.943020"},{"town":"大字築地六丁目","lat":"33.627544","lng":"135.942095"},{"town":"大字築地七丁目","lat":"33.626414","lng":"135.943384"},{"town":"大字築地八丁目","lat":"33.625010","lng":"135.941180"},{"town":"大字天満","lat":"33.637781","lng":"135.931462"},{"town":"大字天満一丁目","lat":"33.631888","lng":"135.936862"},{"town":"大字長井","lat":"33.600296","lng":"135.867381"},{"town":"大字中里","lat":"33.584614","lng":"135.885205"},{"town":"大字中ノ川","lat":"33.616993","lng":"135.873026"},{"town":"大字那智山","lat":"33.687085","lng":"135.889026"},{"town":"大字二河","lat":"33.629004","lng":"135.903021"},{"town":"大字西中野川","lat":"33.635098","lng":"135.848591"},{"town":"大字橋ノ川","lat":"33.622054","lng":"135.915206"},{"town":"大字浜ノ宮","lat":"33.648398","lng":"135.940305"},{"town":"大字直柱","lat":"33.653359","lng":"135.811182"},{"town":"大字南大居","lat":"33.602072","lng":"135.896069"},{"town":"大字南平野","lat":"33.642109","lng":"135.877659"},{"town":"大字八尺鏡野","lat":"33.581925","lng":"135.912300"},{"town":"大字湯川","lat":"33.627679","lng":"135.925357"}]