[{"town":"字大湾","lat":"26.374691","lng":"127.747119"},{"town":"字大木","lat":"26.382266","lng":"127.745938"},{"town":"字伊良皆","lat":"26.387268","lng":"127.754446"},{"town":"字長浜","lat":"26.416287","lng":"127.738345"},{"town":"字座喜味","lat":"26.403250","lng":"127.747468"},{"town":"字喜名","lat":"26.401009","lng":"127.766890"},{"town":"字古堅","lat":"26.367463","lng":"127.748301"},{"town":"字親志","lat":"26.415406","lng":"127.773434"},{"town":"字儀間","lat":"26.417427","lng":"127.718498"},{"town":"字渡慶次","lat":"26.419687","lng":"127.725952"},{"town":"字瀬名波","lat":"26.425771","lng":"127.729176"},{"town":"字長田","lat":"26.388039","lng":"127.767931"},{"town":"字比謝","lat":"26.378771","lng":"127.753774"},{"town":"字牧原","lat":"26.373904","lng":"127.763978"},{"town":"字比謝矼","lat":"26.370118","lng":"127.755689"},{"town":"字渡具知","lat":"26.368240","lng":"127.738749"},{"town":"字高志保","lat":"26.409608","lng":"127.726656"},{"town":"字上地","lat":"26.404628","lng":"127.737429"},{"town":"字波平","lat":"26.401140","lng":"127.725475"},{"town":"字都屋","lat":"26.391126","lng":"127.725961"},{"town":"字楚辺","lat":"26.382116","lng":"127.735998"},{"town":"字宇座","lat":"26.432859","lng":"127.721754"}]