[{"town":"字黒島","lat":"24.237087","lng":"124.011919"},{"town":"字小浜","lat":"24.339076","lng":"123.980159"},{"town":"字南風見","lat":"24.282777","lng":"123.845756"},{"town":"字南風見仲","lat":"24.288198","lng":"123.887955"},{"town":"字古見","lat":"24.322048","lng":"123.878137"},{"town":"字西表","lat":"24.344406","lng":"123.782476"},{"town":"字高那","lat":"24.372131","lng":"123.889560"},{"town":"字上原","lat":"24.375079","lng":"123.825219"},{"town":"字波照間","lat":"24.058586","lng":"123.782432"},{"town":"字新城","lat":"24.234027","lng":"123.944947"},{"town":"字崎山","lat":"24.305231","lng":"123.685666"},{"town":"字鳩間","lat":"24.472254","lng":"123.820428"},{"town":"字竹富","lat":"24.326125","lng":"124.089079"}]