[{"town":"西洲三丁目","lat":"26.260212","lng":"127.695944"},{"town":"西原三丁目","lat":"26.254216","lng":"127.746972"},{"town":"西原四丁目","lat":"26.249041","lng":"127.747439"},{"town":"西原二丁目","lat":"26.254173","lng":"127.744567"},{"town":"西洲二丁目","lat":"26.252410","lng":"127.687366"},{"town":"当山二丁目","lat":"26.251305","lng":"127.735033"},{"town":"当山一丁目","lat":"26.252494","lng":"127.729871"},{"town":"仲間二丁目","lat":"26.249871","lng":"127.728313"},{"town":"城間二丁目","lat":"26.253370","lng":"127.712384"},{"town":"仲間一丁目","lat":"26.250949","lng":"127.722562"},{"town":"伊祖四丁目","lat":"26.254867","lng":"127.722500"},{"town":"伊祖一丁目","lat":"26.251832","lng":"127.717848"},{"town":"伊祖二丁目","lat":"26.253716","lng":"127.716324"},{"town":"城間一丁目","lat":"26.255545","lng":"127.708864"},{"town":"屋富祖四丁目","lat":"26.254045","lng":"127.707631"},{"town":"屋富祖三丁目","lat":"26.252596","lng":"127.706570"},{"town":"字屋富祖","lat":"26.256405","lng":"127.700167"},{"town":"字宮城","lat":"26.253529","lng":"127.698943"},{"town":"字仲西","lat":"26.251113","lng":"127.695914"},{"town":"西原一丁目","lat":"26.253107","lng":"127.741797"},{"town":"沢岻一丁目","lat":"26.236192","lng":"127.712397"},{"town":"経塚一丁目","lat":"26.241877","lng":"127.723106"},{"town":"西原五丁目","lat":"26.248242","lng":"127.743246"},{"town":"当山三丁目","lat":"26.247699","lng":"127.735272"},{"town":"前田四丁目","lat":"26.236685","lng":"127.735398"},{"town":"前田二丁目","lat":"26.242975","lng":"127.738447"},{"town":"前田一丁目","lat":"26.241160","lng":"127.736435"},{"town":"西洲一丁目","lat":"26.246219","lng":"127.686432"},{"town":"西原六丁目","lat":"26.246194","lng":"127.746522"},{"town":"前田三丁目","lat":"26.243834","lng":"127.740996"},{"town":"字仲間","lat":"26.243754","lng":"127.729287"},{"town":"字前田","lat":"26.239714","lng":"127.730903"},{"town":"字経塚","lat":"26.237598","lng":"127.722674"},{"town":"安波茶三丁目","lat":"26.244151","lng":"127.721722"},{"town":"仲間三丁目","lat":"26.244136","lng":"127.727651"},{"town":"安波茶二丁目","lat":"26.247564","lng":"127.723073"},{"town":"安波茶一丁目","lat":"26.246360","lng":"127.718873"},{"town":"屋富祖一丁目","lat":"26.250859","lng":"127.712640"},{"town":"屋富祖二丁目","lat":"26.250636","lng":"127.709029"},{"town":"宮城一丁目","lat":"26.250652","lng":"127.704346"},{"town":"宮城三丁目","lat":"26.246453","lng":"127.704470"},{"town":"大平三丁目","lat":"26.244912","lng":"127.715060"},{"town":"字大平","lat":"26.243551","lng":"127.712779"},{"town":"大平一丁目","lat":"26.248639","lng":"127.713305"},{"town":"宮城二丁目","lat":"26.248294","lng":"127.705886"},{"town":"宮城四丁目","lat":"26.244664","lng":"127.704187"},{"town":"仲西二丁目","lat":"26.246514","lng":"127.699985"},{"town":"仲西一丁目","lat":"26.247790","lng":"127.699034"},{"town":"字小湾","lat":"26.248901","lng":"127.692552"},{"town":"伊奈武瀬一丁目","lat":"26.248315","lng":"127.671968"},{"town":"仲西三丁目","lat":"26.244600","lng":"127.699059"},{"town":"沢岻二丁目","lat":"26.235556","lng":"127.708609"},{"town":"大平二丁目","lat":"26.243693","lng":"127.709900"},{"town":"字沢岻","lat":"26.239050","lng":"127.714197"},{"town":"宮城六丁目","lat":"26.243850","lng":"127.707850"},{"town":"内間二丁目","lat":"26.235822","lng":"127.705764"},{"town":"内間一丁目","lat":"26.239623","lng":"127.707329"},{"town":"内間三丁目","lat":"26.237442","lng":"127.700826"},{"town":"宮城五丁目","lat":"26.243215","lng":"127.703282"},{"town":"内間四丁目","lat":"26.240135","lng":"127.703665"},{"town":"勢理客一丁目","lat":"26.241592","lng":"127.697881"},{"town":"勢理客四丁目","lat":"26.244344","lng":"127.689794"},{"town":"勢理客二丁目","lat":"26.243276","lng":"127.695499"},{"town":"内間五丁目","lat":"26.239902","lng":"127.699131"},{"town":"勢理客三丁目","lat":"26.241259","lng":"127.692398"},{"town":"港川一丁目","lat":"26.260924","lng":"127.719297"},{"town":"字牧港","lat":"26.267441","lng":"127.715947"},{"town":"牧港一丁目","lat":"26.263792","lng":"127.721392"},{"town":"牧港五丁目","lat":"26.270612","lng":"127.717664"},{"town":"牧港四丁目","lat":"26.264264","lng":"127.728573"},{"town":"牧港二丁目","lat":"26.262282","lng":"127.725418"},{"town":"牧港三丁目","lat":"26.258285","lng":"127.729917"},{"town":"城間三丁目","lat":"26.257097","lng":"127.711764"},{"town":"伊祖五丁目","lat":"26.257425","lng":"127.726200"},{"town":"伊祖三丁目","lat":"26.257468","lng":"127.720941"},{"town":"港川二丁目","lat":"26.264191","lng":"127.716188"},{"town":"字港川","lat":"26.269027","lng":"127.711922"},{"town":"城間四丁目","lat":"26.258972","lng":"127.714397"},{"town":"字城間","lat":"26.262120","lng":"127.706165"}]