[{"town":"（大字なし）","koaza":"","lat":35.159267,"lng":138.964839},{"town":"青木","koaza":"","lat":35.10508,"lng":138.920886},{"town":"旭ヶ丘","koaza":"","lat":35.130301,"lng":138.931426},{"town":"新谷","koaza":"","lat":35.10227,"lng":138.919392},{"town":"泉町","koaza":"","lat":35.1213,"lng":138.910678},{"town":"市山新田","koaza":"","lat":35.137126,"lng":138.958849},{"town":"一番町","koaza":"","lat":35.12477,"lng":138.912574},{"town":"壱町田","koaza":"","lat":35.132559,"lng":138.920203},{"town":"梅名","koaza":"","lat":35.093838,"lng":138.925637},{"town":"大宮町一丁目","koaza":"","lat":35.122178,"lng":138.916955},{"town":"大宮町二丁目","koaza":"","lat":35.122573,"lng":138.920344},{"town":"大宮町三丁目","koaza":"","lat":35.126238,"lng":138.917274},{"town":"加茂","koaza":"","lat":35.134875,"lng":138.93184},{"town":"加茂川町","koaza":"","lat":35.125116,"lng":138.92265},{"town":"加屋町","koaza":"","lat":35.116087,"lng":138.906412},{"town":"川原ケ谷","koaza":"","lat":35.141769,"lng":138.945144},{"town":"北沢","koaza":"","lat":35.103499,"lng":138.93953},{"town":"北田町","koaza":"","lat":35.117183,"lng":138.917826},{"town":"清住町","koaza":"","lat":35.113633,"lng":138.907109},{"town":"幸原町一丁目","koaza":"","lat":35.137234,"lng":138.913807},{"town":"幸原町二丁目","koaza":"","lat":35.139213,"lng":138.910562},{"town":"寿町","koaza":"","lat":35.123981,"lng":138.907957},{"town":"栄町","koaza":"","lat":35.119158,"lng":138.908079},{"town":"笹原新田","koaza":"","lat":35.145849,"lng":138.979233},{"town":"佐野","koaza":"","lat":35.168298,"lng":138.939221},{"town":"佐野見晴台一丁目","koaza":"","lat":35.163753,"lng":138.94364},{"town":"佐野見晴台二丁目","koaza":"","lat":35.164249,"lng":138.948919},{"town":"沢地","koaza":"","lat":35.148822,"lng":138.938357},{"town":"三恵台","koaza":"","lat":35.130656,"lng":138.939982},{"town":"芝本町","koaza":"","lat":35.121751,"lng":138.913843},{"town":"末広町","koaza":"","lat":35.13536,"lng":138.911183},{"town":"千枚原","koaza":"","lat":35.137728,"lng":138.921204},{"town":"大社町","koaza":"","lat":35.119812,"lng":138.920766},{"town":"竹倉","koaza":"","lat":35.1182,"lng":138.946179},{"town":"玉川","koaza":"","lat":35.106695,"lng":138.913092},{"town":"玉沢","koaza":"","lat":35.12539,"lng":138.965148},{"town":"多呂","koaza":"","lat":35.098339,"lng":138.938394},{"town":"大場","koaza":"","lat":35.099046,"lng":138.946257},{"town":"中央町","koaza":"","lat":35.120255,"lng":138.91719},{"town":"中","koaza":"","lat":35.106679,"lng":138.930867},{"town":"塚原新田","koaza":"","lat":35.136195,"lng":138.950737},{"town":"鶴喰","koaza":"","lat":35.103791,"lng":138.926917},{"town":"徳倉","koaza":"","lat":35.151136,"lng":138.923879},{"town":"徳倉一丁目","koaza":"","lat":35.140189,"lng":138.913326},{"town":"徳倉二丁目","koaza":"","lat":35.137892,"lng":138.91773},{"town":"徳倉三丁目","koaza":"","lat":35.143136,"lng":138.917887},{"town":"徳倉四丁目","koaza":"","lat":35.144065,"lng":138.912072},{"town":"徳倉五丁目","koaza":"","lat":35.148124,"lng":138.914958},{"town":"富田町","koaza":"","lat":35.108887,"lng":138.917774},{"town":"中島","koaza":"","lat":35.097139,"lng":138.932625},{"town":"中田町","koaza":"","lat":35.114833,"lng":138.917577},{"town":"長伏","koaza":"","lat":35.086785,"lng":138.913834},{"town":"西旭ケ丘町","koaza":"","lat":35.129149,"lng":138.928094},{"town":"錦が丘","koaza":"","lat":35.111195,"lng":138.94662},{"town":"西本町","koaza":"","lat":35.117625,"lng":138.908765},{"town":"西若町","koaza":"","lat":35.121665,"lng":138.906773},{"town":"萩","koaza":"","lat":35.151845,"lng":138.908931},{"town":"八反畑","koaza":"","lat":35.100715,"lng":138.925803},{"town":"初音台","koaza":"","lat":35.125677,"lng":138.934321},{"town":"光ケ丘","koaza":"","lat":35.136142,"lng":138.925925},{"town":"東壱町田","koaza":"","lat":35.132574,"lng":138.923206},{"town":"東大場一丁目","koaza":"","lat":35.109122,"lng":138.950514},{"town":"東大場二丁目","koaza":"","lat":35.108699,"lng":138.952946},{"town":"東町","koaza":"","lat":35.117274,"lng":138.92474},{"town":"東本町一丁目","koaza":"","lat":35.116249,"lng":138.921283},{"town":"東本町二丁目","koaza":"","lat":35.113624,"lng":138.922921},{"town":"日の出町","koaza":"","lat":35.120659,"lng":138.92441},{"town":"平田","koaza":"","lat":35.100771,"lng":138.915378},{"town":"広小路町","koaza":"","lat":35.118845,"lng":138.910885},{"town":"藤代町","koaza":"","lat":35.10687,"lng":138.923796},{"town":"富士ビレッジ","koaza":"","lat":35.141282,"lng":138.921112},{"town":"富士見台","koaza":"","lat":35.142348,"lng":138.932427},{"town":"芙蓉台一丁目","koaza":"","lat":35.152988,"lng":138.913327},{"town":"芙蓉台二丁目","koaza":"","lat":35.154715,"lng":138.917569},{"town":"芙蓉台三丁目","koaza":"","lat":35.15685,"lng":138.91866},{"town":"文教町一丁目","koaza":"","lat":35.130489,"lng":138.912811},{"town":"文教町二丁目","koaza":"","lat":35.132686,"lng":138.915811},{"town":"平成台","koaza":"","lat":35.153002,"lng":138.942271},{"town":"本町","koaza":"","lat":35.119093,"lng":138.91402},{"town":"松が丘","koaza":"","lat":35.122747,"lng":138.935367},{"town":"松本","koaza":"","lat":35.090853,"lng":138.918694},{"town":"御園","koaza":"","lat":35.080175,"lng":138.921695},{"town":"三ツ谷新田","koaza":"","lat":35.14277,"lng":138.971897},{"town":"緑町","koaza":"","lat":35.11517,"lng":138.91097},{"town":"南田町","koaza":"","lat":35.112135,"lng":138.916956},{"town":"南町","koaza":"","lat":35.111561,"lng":138.912506},{"town":"南二日町","koaza":"","lat":35.110383,"lng":138.924416},{"town":"南本町","koaza":"","lat":35.115517,"lng":138.914596},{"town":"三好町","koaza":"","lat":35.110312,"lng":138.908888},{"town":"安久","koaza":"","lat":35.084913,"lng":138.92777},{"town":"谷田","koaza":"","lat":35.127453,"lng":138.949664},{"town":"谷田","koaza":"東富士見","lat":35.115541,"lng":138.931684},{"town":"谷田","koaza":"藤久保","lat":35.122176,"lng":138.951781},{"town":"谷田","koaza":"雪沢","lat":35.115781,"lng":138.928775},{"town":"柳郷地","koaza":"","lat":35.117475,"lng":138.940308},{"town":"山中新田","koaza":"","lat":35.151996,"lng":138.991666},{"town":"若松町","koaza":"","lat":35.131221,"lng":138.925928}]