[{"town":"相生町","koaza":"","lat":"35.016462","lng":"138.48823"},{"town":"愛染町","koaza":"","lat":"35.028588","lng":"138.489998"},{"town":"青葉町","koaza":"","lat":"35.008414","lng":"138.476207"},{"town":"秋吉町","koaza":"","lat":"35.030202","lng":"138.480661"},{"town":"旭町","koaza":"","lat":"35.016292","lng":"138.489362"},{"town":"淡島町","koaza":"","lat":"35.014183","lng":"138.478883"},{"town":"飯田町","koaza":"","lat":"35.032119","lng":"138.470988"},{"town":"石川","koaza":"","lat":"35.038247","lng":"138.456741"},{"town":"石川新町","koaza":"","lat":"35.032389","lng":"138.457514"},{"town":"石川本町","koaza":"","lat":"35.033108","lng":"138.460655"},{"town":"庵原町","koaza":"","lat":"35.051474","lng":"138.471547"},{"town":"今泉","koaza":"","lat":"35.003442","lng":"138.464551"},{"town":"入江一丁目","koaza":"","lat":"35.018339","lng":"138.481788"},{"town":"入江二丁目","koaza":"","lat":"35.017651","lng":"138.479308"},{"town":"入江三丁目","koaza":"","lat":"35.017345","lng":"138.476816"},{"town":"入江岡町","koaza":"","lat":"35.013015","lng":"138.479871"},{"town":"入江南町","koaza":"","lat":"35.016264","lng":"138.478821"},{"town":"入船町","koaza":"","lat":"35.010133","lng":"138.492172"},{"town":"有東坂","koaza":"","lat":"35.007069","lng":"138.463167"},{"town":"有東坂一丁目","koaza":"","lat":"35.009001","lng":"138.466879"},{"town":"有東坂二丁目","koaza":"","lat":"35.007261","lng":"138.465979"},{"town":"有度本町","koaza":"","lat":"35.007273","lng":"138.453855"},{"town":"梅が岡","koaza":"","lat":"35.004764","lng":"138.483089"},{"town":"梅ヶ谷","koaza":"","lat":"35.048147","lng":"138.443899"},{"town":"梅田町","koaza":"","lat":"35.006911","lng":"138.4874"},{"town":"上原","koaza":"","lat":"35.011615","lng":"138.458074"},{"town":"上原一丁目","koaza":"","lat":"35.00976","lng":"138.458848"},{"town":"上原二丁目","koaza":"","lat":"35.008968","lng":"138.45592"},{"town":"永楽町","koaza":"","lat":"35.025551","lng":"138.475185"},{"town":"江尻台町","koaza":"","lat":"35.022957","lng":"138.476428"},{"town":"江尻町","koaza":"","lat":"35.020294","lng":"138.481454"},{"town":"江尻東一丁目","koaza":"","lat":"35.022951","lng":"138.485719"},{"town":"江尻東二丁目","koaza":"","lat":"35.021628","lng":"138.485666"},{"town":"江尻東三丁目","koaza":"","lat":"35.020204","lng":"138.48579"},{"town":"恵比寿町","koaza":"","lat":"35.015468","lng":"138.468481"},{"town":"追分一丁目","koaza":"","lat":"35.015909","lng":"138.474051"},{"town":"追分二丁目","koaza":"","lat":"35.013828","lng":"138.472805"},{"town":"追分三丁目","koaza":"","lat":"35.014812","lng":"138.470509"},{"town":"追分四丁目","koaza":"","lat":"35.013682","lng":"138.467049"},{"town":"大内","koaza":"","lat":"35.025719","lng":"138.442206"},{"town":"大内新田","koaza":"","lat":"35.025112","lng":"138.452913"},{"town":"大沢町","koaza":"","lat":"35.003528","lng":"138.475378"},{"town":"大坪一丁目","koaza":"","lat":"35.01149","lng":"138.468341"},{"town":"大坪二丁目","koaza":"","lat":"35.009692","lng":"138.469184"},{"town":"大手一丁目","koaza":"","lat":"35.024828","lng":"138.481906"},{"town":"大手二丁目","koaza":"","lat":"35.02698","lng":"138.481939"},{"town":"大手三丁目","koaza":"","lat":"35.028806","lng":"138.482178"},{"town":"大平","koaza":"","lat":"35.173764","lng":"138.421782"},{"town":"岡町","koaza":"","lat":"35.008222","lng":"138.484541"},{"town":"興津東町","koaza":"","lat":"35.062259","lng":"138.533696"},{"town":"興津井上町","koaza":"","lat":"35.073281","lng":"138.531956"},{"town":"興津清見寺町","koaza":"","lat":"35.05125","lng":"138.507866"},{"town":"興津中町","koaza":"","lat":"35.056433","lng":"138.524759"},{"town":"興津本町","koaza":"","lat":"35.055033","lng":"138.514312"},{"town":"押切","koaza":"","lat":"35.031202","lng":"138.45221"},{"town":"小芝町","koaza":"","lat":"35.023052","lng":"138.482539"},{"town":"小島町","koaza":"","lat":"35.085031","lng":"138.50507"},{"town":"小島本町","koaza":"","lat":"35.088718","lng":"138.517125"},{"town":"尾羽","koaza":"","lat":"35.049184","lng":"138.491888"},{"town":"折戸","koaza":"","lat":"34.996624","lng":"138.513129"},{"town":"折戸一丁目","koaza":"","lat":"34.983386","lng":"138.507758"},{"town":"折戸二丁目","koaza":"","lat":"34.988001","lng":"138.510842"},{"town":"折戸三丁目","koaza":"","lat":"34.986483","lng":"138.514224"},{"town":"折戸四丁目","koaza":"","lat":"34.992313","lng":"138.513328"},{"town":"折戸五丁目","koaza":"","lat":"34.991247","lng":"138.517616"},{"town":"柏尾","koaza":"","lat":"35.037368","lng":"138.440747"},{"town":"春日一丁目","koaza":"","lat":"35.012213","lng":"138.473656"},{"town":"春日二丁目","koaza":"","lat":"35.010325","lng":"138.472743"},{"town":"上一丁目","koaza":"","lat":"35.011433","lng":"138.485522"},{"town":"上二丁目","koaza":"","lat":"35.009759","lng":"138.486529"},{"town":"上清水町","koaza":"","lat":"35.01089","lng":"138.482029"},{"town":"川原町","koaza":"","lat":"35.000782","lng":"138.476715"},{"town":"神田町","koaza":"","lat":"35.006069","lng":"138.480404"},{"town":"蒲原","koaza":"","lat":"35.13126","lng":"138.600444"},{"town":"蒲原一丁目","koaza":"","lat":"35.125774","lng":"138.614295"},{"town":"蒲原二丁目","koaza":"","lat":"35.120309","lng":"138.60816"},{"town":"蒲原三丁目","koaza":"","lat":"35.118975","lng":"138.603845"},{"town":"蒲原四丁目","koaza":"","lat":"35.117141","lng":"138.606763"},{"town":"蒲原神沢","koaza":"","lat":"35.123044","lng":"138.575097"},{"town":"蒲原小金","koaza":"","lat":"35.127004","lng":"138.58973"},{"town":"蒲原新栄","koaza":"","lat":"35.125858","lng":"138.622533"},{"town":"蒲原新田一丁目","koaza":"","lat":"35.115675","lng":"138.598579"},{"town":"蒲原新田二丁目","koaza":"","lat":"35.118432","lng":"138.59739"},{"town":"蒲原堰沢","koaza":"","lat":"35.12769","lng":"138.582151"},{"town":"蒲原中","koaza":"","lat":"35.127968","lng":"138.585835"},{"town":"蒲原東","koaza":"","lat":"35.127624","lng":"138.62456"},{"town":"北矢部","koaza":"","lat":"34.990979","lng":"138.468735"},{"town":"北矢部町一丁目","koaza":"","lat":"35.002425","lng":"138.484049"},{"town":"北矢部町二丁目","koaza":"","lat":"35.000786","lng":"138.484606"},{"town":"北脇","koaza":"","lat":"35.017503","lng":"138.462183"},{"town":"北脇新田","koaza":"","lat":"35.024406","lng":"138.463965"},{"town":"吉川","koaza":"","lat":"35.016656","lng":"138.457696"},{"town":"木の下町","koaza":"","lat":"35.004371","lng":"138.469086"},{"town":"清地","koaza":"","lat":"35.110109","lng":"138.493154"},{"town":"銀座","koaza":"","lat":"35.018429","lng":"138.485314"},{"town":"草ヶ谷","koaza":"","lat":"35.052316","lng":"138.48718"},{"town":"草薙","koaza":"","lat":"34.987157","lng":"138.456522"},{"town":"草薙一丁目","koaza":"","lat":"35.001364","lng":"138.444057"},{"town":"草薙二丁目","koaza":"","lat":"35.005601","lng":"138.447467"},{"town":"草薙三丁目","koaza":"","lat":"35.002075","lng":"138.447403"},{"town":"草薙一里山","koaza":"","lat":"35.005498","lng":"138.450779"},{"town":"草薙北","koaza":"","lat":"35.00426","lng":"138.44141"},{"town":"草薙杉道一丁目","koaza":"","lat":"35.004112","lng":"138.45392"},{"town":"草薙杉道二丁目","koaza":"","lat":"35.002573","lng":"138.453368"},{"town":"草薙杉道三丁目","koaza":"","lat":"35.002154","lng":"138.450872"},{"town":"楠","koaza":"","lat":"35.009093","lng":"138.438758"},{"town":"楠新田","koaza":"","lat":"35.008572","lng":"138.443246"},{"town":"河内","koaza":"","lat":"35.143224","lng":"138.422697"},{"town":"港南町","koaza":"","lat":"34.975893","lng":"138.492012"},{"town":"小河内","koaza":"","lat":"35.124029","lng":"138.512235"},{"town":"駒越","koaza":"","lat":"34.974975","lng":"138.48103"},{"town":"駒越北町","koaza":"","lat":"34.983645","lng":"138.497787"},{"town":"駒越中一丁目","koaza":"","lat":"34.978375","lng":"138.501147"},{"town":"駒越中二丁目","koaza":"","lat":"34.97909","lng":"138.496275"},{"town":"駒越西一丁目","koaza":"","lat":"34.975603","lng":"138.498501"},{"town":"駒越西二丁目","koaza":"","lat":"34.973461","lng":"138.494013"},{"town":"駒越東町","koaza":"","lat":"34.981921","lng":"138.502592"},{"town":"駒越南町","koaza":"","lat":"34.98029","lng":"138.505788"},{"town":"幸町","koaza":"","lat":"35.000922","lng":"138.492284"},{"town":"桜が丘町","koaza":"","lat":"35.010656","lng":"138.477224"},{"town":"桜橋町","koaza":"","lat":"35.014162","lng":"138.476773"},{"town":"三光町","koaza":"","lat":"35.002602","lng":"138.48707"},{"town":"茂野島","koaza":"","lat":"35.111547","lng":"138.464527"},{"town":"宍原","koaza":"","lat":"35.170553","lng":"138.509808"},{"town":"渋川","koaza":"","lat":"35.016616","lng":"138.467981"},{"town":"渋川一丁目","koaza":"","lat":"35.022522","lng":"138.470113"},{"town":"渋川二丁目","koaza":"","lat":"35.019832","lng":"138.46969"},{"town":"渋川三丁目","koaza":"","lat":"35.019233","lng":"138.467249"},{"town":"島崎町","koaza":"","lat":"35.019232","lng":"138.490441"},{"town":"清水町","koaza":"","lat":"35.006413","lng":"138.489972"},{"town":"清水村松地先新田","koaza":"","lat":"34.993073","lng":"138.494662"},{"town":"下清水町","koaza":"","lat":"35.007771","lng":"138.482245"},{"town":"下野","koaza":"","lat":"35.039828","lng":"138.468808"},{"town":"下野北","koaza":"","lat":"35.038091","lng":"138.470799"},{"town":"下野町","koaza":"","lat":"35.034083","lng":"138.464132"},{"town":"下野中","koaza":"","lat":"35.036634","lng":"138.468574"},{"town":"下野西","koaza":"","lat":"35.035869","lng":"138.466077"},{"town":"下野東","koaza":"","lat":"35.034453","lng":"138.471197"},{"town":"下野緑町","koaza":"","lat":"35.032211","lng":"138.467598"},{"town":"承元寺町","koaza":"","lat":"35.084084","lng":"138.526269"},{"town":"庄福町","koaza":"","lat":"34.999086","lng":"138.480061"},{"town":"上力町","koaza":"","lat":"34.997441","lng":"138.48039"},{"town":"新富町","koaza":"","lat":"35.016004","lng":"138.481816"},{"town":"新緑町","koaza":"","lat":"34.994265","lng":"138.489031"},{"town":"新港町","koaza":"","lat":"35.013228","lng":"138.493886"},{"town":"清開一丁目","koaza":"","lat":"34.9991","lng":"138.496238"},{"town":"清開二丁目","koaza":"","lat":"34.996824","lng":"138.493419"},{"town":"清開三丁目","koaza":"","lat":"34.992803","lng":"138.499397"},{"town":"増","koaza":"","lat":"34.968743","lng":"138.484344"},{"town":"袖師町","koaza":"","lat":"35.031417","lng":"138.492583"},{"town":"高橋一丁目","koaza":"","lat":"35.032151","lng":"138.474038"},{"town":"高橋二丁目","koaza":"","lat":"35.030378","lng":"138.472363"},{"town":"高橋三丁目","koaza":"","lat":"35.030173","lng":"138.468502"},{"town":"高橋四丁目","koaza":"","lat":"35.02771","lng":"138.472467"},{"town":"高橋五丁目","koaza":"","lat":"35.026744","lng":"138.468377"},{"town":"高橋六丁目","koaza":"","lat":"35.025529","lng":"138.46787"},{"town":"高橋町","koaza":"","lat":"35.042303","lng":"138.469915"},{"town":"高橋南町","koaza":"","lat":"35.027326","lng":"138.476189"},{"town":"高山","koaza":"","lat":"35.103591","lng":"138.467543"},{"town":"宝町","koaza":"","lat":"35.021651","lng":"138.482545"},{"town":"但沼町","koaza":"","lat":"35.102696","lng":"138.504959"},{"town":"立花","koaza":"","lat":"35.096576","lng":"138.527592"},{"town":"田町","koaza":"","lat":"35.03335","lng":"138.48746"},{"town":"千歳町","koaza":"","lat":"35.014812","lng":"138.485024"},{"town":"築地町","koaza":"","lat":"35.00428","lng":"138.493819"},{"town":"月見町","koaza":"","lat":"35.003086","lng":"138.479791"},{"town":"辻一丁目","koaza":"","lat":"35.027583","lng":"138.488847"},{"town":"辻二丁目","koaza":"","lat":"35.027288","lng":"138.487136"},{"town":"辻三丁目","koaza":"","lat":"35.030489","lng":"138.488017"},{"town":"辻四丁目","koaza":"","lat":"35.027914","lng":"138.485322"},{"town":"辻五丁目","koaza":"","lat":"35.029891","lng":"138.483563"},{"town":"鶴舞町","koaza":"","lat":"35.016944","lng":"138.473121"},{"town":"天神一丁目","koaza":"","lat":"35.025958","lng":"138.48053"},{"town":"天神二丁目","koaza":"","lat":"35.026095","lng":"138.478985"},{"town":"天王町","koaza":"","lat":"35.027519","lng":"138.460515"},{"town":"天王西","koaza":"","lat":"35.029277","lng":"138.460442"},{"town":"天王東","koaza":"","lat":"35.030131","lng":"138.462648"},{"town":"天王南","koaza":"","lat":"35.027557","lng":"138.463613"},{"town":"土","koaza":"","lat":"35.115043","lng":"138.450184"},{"town":"堂林一丁目","koaza":"","lat":"35.0075","lng":"138.477211"},{"town":"堂林二丁目","koaza":"","lat":"35.005974","lng":"138.477132"},{"town":"葛沢","koaza":"","lat":"35.129103","lng":"138.45672"},{"town":"殿沢一丁目","koaza":"","lat":"34.980266","lng":"138.490465"},{"town":"殿沢二丁目","koaza":"","lat":"34.979238","lng":"138.490208"},{"town":"巴町","koaza":"","lat":"35.016111","lng":"138.487065"},{"town":"鳥坂","koaza":"","lat":"35.016746","lng":"138.434637"},{"town":"中河内","koaza":"","lat":"35.146156","lng":"138.473928"},{"town":"長崎","koaza":"","lat":"35.015145","lng":"138.444452"},{"town":"長崎新田","koaza":"","lat":"35.018003","lng":"138.448657"},{"town":"長崎南町","koaza":"","lat":"35.008282","lng":"138.447849"},{"town":"中之郷","koaza":"","lat":"35.004861","lng":"138.438841"},{"town":"中之郷一丁目","koaza":"","lat":"34.998062","lng":"138.440046"},{"town":"中之郷二丁目","koaza":"","lat":"34.999904","lng":"138.439217"},{"town":"中之郷三丁目","koaza":"","lat":"35.001447","lng":"138.438734"},{"town":"中矢部町","koaza":"","lat":"34.999969","lng":"138.479012"},{"town":"七ツ新屋","koaza":"","lat":"35.013017","lng":"138.451202"},{"town":"七ツ新屋一丁目","koaza":"","lat":"35.008889","lng":"138.452546"},{"town":"七ツ新屋二丁目","koaza":"","lat":"35.010223","lng":"138.451379"},{"town":"西大曲町","koaza":"","lat":"35.020237","lng":"138.472207"},{"town":"西久保","koaza":"","lat":"35.035927","lng":"138.48494"},{"town":"西久保一丁目","koaza":"","lat":"35.032875","lng":"138.482729"},{"town":"西里","koaza":"","lat":"35.112681","lng":"138.421235"},{"town":"西高町","koaza":"","lat":"35.007623","lng":"138.473"},{"town":"二の丸町","koaza":"","lat":"35.022171","lng":"138.479151"},{"town":"布沢","koaza":"","lat":"35.104892","lng":"138.444332"},{"town":"沼田町","koaza":"","lat":"34.996966","lng":"138.483758"},{"town":"能島","koaza":"","lat":"35.024861","lng":"138.458093"},{"town":"蜂ヶ谷","koaza":"","lat":"35.04184","lng":"138.457007"},{"town":"蜂ヶ谷南町","koaza":"","lat":"35.035763","lng":"138.461375"},{"town":"浜田町","koaza":"","lat":"35.014234","lng":"138.48227"},{"town":"原","koaza":"","lat":"35.055151","lng":"138.477526"},{"town":"半左衛門新田","koaza":"","lat":"35.015582","lng":"138.452946"},{"town":"東大曲町","koaza":"","lat":"35.02059","lng":"138.475095"},{"town":"日立町","koaza":"","lat":"34.994932","lng":"138.484797"},{"town":"日の出町","koaza":"","lat":"35.006316","lng":"138.496154"},{"town":"平川地","koaza":"","lat":"35.010212","lng":"138.462334"},{"town":"広瀬","koaza":"","lat":"35.061865","lng":"138.497417"},{"town":"富士見町","koaza":"","lat":"35.009714","lng":"138.489373"},{"town":"船越","koaza":"","lat":"34.998956","lng":"138.467219"},{"town":"船越一丁目","koaza":"","lat":"35.002159","lng":"138.46695"},{"town":"船越二丁目","koaza":"","lat":"35.000607","lng":"138.468469"},{"town":"船越三丁目","koaza":"","lat":"34.999071","lng":"138.470483"},{"town":"船越町","koaza":"","lat":"35.00012","lng":"138.466774"},{"town":"船越東町","koaza":"","lat":"35.003078","lng":"138.472818"},{"town":"船越南町","koaza":"","lat":"35.001262","lng":"138.471615"},{"town":"船原一丁目","koaza":"","lat":"35.007533","lng":"138.469233"},{"town":"船原二丁目","koaza":"","lat":"35.005947","lng":"138.471585"},{"town":"蛇塚","koaza":"","lat":"34.967029","lng":"138.47663"},{"town":"堀込","koaza":"","lat":"35.019869","lng":"138.451969"},{"town":"本郷町","koaza":"","lat":"35.024544","lng":"138.485623"},{"town":"本町","koaza":"","lat":"35.008527","lng":"138.48832"},{"town":"真砂町","koaza":"","lat":"35.021458","lng":"138.48801"},{"town":"松井町","koaza":"","lat":"35.003089","lng":"138.491445"},{"town":"松原町","koaza":"","lat":"35.012653","lng":"138.491176"},{"town":"馬走","koaza":"","lat":"34.99127","lng":"138.461675"},{"town":"馬走北","koaza":"","lat":"35.006855","lng":"138.459877"},{"town":"馬走坂の上","koaza":"","lat":"35.002688","lng":"138.457086"},{"town":"万世町一丁目","koaza":"","lat":"35.012416","lng":"138.487022"},{"town":"万世町二丁目","koaza":"","lat":"35.01254","lng":"138.489195"},{"town":"御門台","koaza":"","lat":"35.004338","lng":"138.45677"},{"town":"緑が丘町","koaza":"","lat":"34.992578","lng":"138.486333"},{"town":"港町一丁目","koaza":"","lat":"35.009159","lng":"138.493615"},{"town":"港町二丁目","koaza":"","lat":"35.0077","lng":"138.492373"},{"town":"南岡町","koaza":"","lat":"35.005396","lng":"138.485382"},{"town":"南矢部","koaza":"","lat":"34.993395","lng":"138.475695"},{"town":"美濃輪町","koaza":"","lat":"35.00517","lng":"138.49086"},{"town":"三保","koaza":"","lat":"35.006563","lng":"138.517796"},{"town":"宮加三","koaza":"","lat":"34.983592","lng":"138.485277"},{"town":"宮下町","koaza":"","lat":"35.03244","lng":"138.486681"},{"town":"宮代町","koaza":"","lat":"35.0263","lng":"138.483471"},{"town":"向田町","koaza":"","lat":"34.998611","lng":"138.483632"},{"town":"迎山町","koaza":"","lat":"34.976898","lng":"138.490991"},{"town":"村松","koaza":"","lat":"34.98424","lng":"138.476284"},{"town":"村松一丁目","koaza":"","lat":"34.996316","lng":"138.491007"},{"town":"村松原一丁目","koaza":"","lat":"34.99964","lng":"138.488972"},{"town":"村松原二丁目","koaza":"","lat":"34.99889","lng":"138.486592"},{"town":"村松原三丁目","koaza":"","lat":"34.996854","lng":"138.488088"},{"town":"元城町","koaza":"","lat":"35.019715","lng":"138.477151"},{"town":"茂畑","koaza":"","lat":"35.081057","lng":"138.494425"},{"town":"八木間町","koaza":"","lat":"35.065386","lng":"138.517703"},{"town":"矢倉町","koaza":"","lat":"35.030999","lng":"138.485148"},{"town":"八坂北一丁目","koaza":"","lat":"35.036155","lng":"138.474641"},{"town":"八坂北二丁目","koaza":"","lat":"35.038617","lng":"138.474381"},{"town":"八坂町","koaza":"","lat":"35.038357","lng":"138.478708"},{"town":"八坂西町","koaza":"","lat":"35.032762","lng":"138.476593"},{"town":"八坂東一丁目","koaza":"","lat":"35.035304","lng":"138.480672"},{"town":"八坂東二丁目","koaza":"","lat":"35.033879","lng":"138.47791"},{"town":"八坂南町","koaza":"","lat":"35.0293","lng":"138.477762"},{"town":"谷田","koaza":"","lat":"34.99716","lng":"138.441416"},{"town":"八千代町","koaza":"","lat":"35.003111","lng":"138.488803"},{"town":"谷津町一丁目","koaza":"","lat":"35.073325","lng":"138.516943"},{"town":"谷津町二丁目","koaza":"","lat":"35.077346","lng":"138.515919"},{"town":"弥生町","koaza":"","lat":"35.031108","lng":"138.464813"},{"town":"山原","koaza":"","lat":"35.05103","lng":"138.458457"},{"town":"由比","koaza":"","lat":"35.114494","lng":"138.568479"},{"town":"由比阿僧","koaza":"","lat":"35.117635","lng":"138.547297"},{"town":"由比今宿","koaza":"","lat":"35.099146","lng":"138.546271"},{"town":"由比入山","koaza":"","lat":"35.143537","lng":"138.560998"},{"town":"由比北田","koaza":"","lat":"35.107421","lng":"138.561475"},{"town":"由比寺尾","koaza":"","lat":"35.093553","lng":"138.5444"},{"town":"由比西倉澤","koaza":"","lat":"35.077472","lng":"138.543358"},{"town":"由比西山寺","koaza":"","lat":"35.111482","lng":"138.539764"},{"town":"由比東倉澤","koaza":"","lat":"35.087863","lng":"138.543224"},{"town":"由比東山寺","koaza":"","lat":"35.122722","lng":"138.561117"},{"town":"由比町屋原","koaza":"","lat":"35.105405","lng":"138.554482"},{"town":"由比八千代","koaza":"","lat":"35.111877","lng":"138.552591"},{"town":"横砂","koaza":"","lat":"35.037626","lng":"138.50378"},{"town":"横砂中町","koaza":"","lat":"35.041679","lng":"138.497604"},{"town":"横砂西町","koaza":"","lat":"35.039644","lng":"138.495748"},{"town":"横砂東町","koaza":"","lat":"35.046965","lng":"138.503017"},{"town":"横砂本町","koaza":"","lat":"35.044139","lng":"138.500096"},{"town":"横砂南町","koaza":"","lat":"35.039442","lng":"138.49972"},{"town":"和田島","koaza":"","lat":"35.104812","lng":"138.476621"},{"town":"伊佐布","koaza":"","lat":"35.070964","lng":"138.451879"},{"town":"山切","koaza":"","lat":"35.062255","lng":"138.483412"},{"town":"吉原","koaza":"","lat":"35.08539","lng":"138.447318"},{"town":"杉山","koaza":"","lat":"35.080995","lng":"138.486722"},{"town":"新丹谷","koaza":"","lat":"35.072403","lng":"138.474199"}]