[{"town":"明田町","koaza":"","lat":34.913058,"lng":136.905717},{"town":"神前町","koaza":"","lat":34.91722,"lng":136.97146},{"town":"青山一丁目","koaza":"","lat":34.878092,"lng":136.916129},{"town":"青山二丁目","koaza":"","lat":34.879627,"lng":136.913789},{"town":"青山三丁目","koaza":"","lat":34.87735,"lng":136.912092},{"town":"青山四丁目","koaza":"","lat":34.881388,"lng":136.908653},{"town":"青山五丁目","koaza":"","lat":34.87924,"lng":136.908216},{"town":"青山六丁目","koaza":"","lat":34.876733,"lng":136.907644},{"town":"青山七丁目","koaza":"","lat":34.876741,"lng":136.904407},{"town":"旭町一丁目","koaza":"","lat":34.879,"lng":136.924858},{"town":"旭町二丁目","koaza":"","lat":34.877162,"lng":136.923681},{"town":"旭町三丁目","koaza":"","lat":34.875021,"lng":136.922405},{"town":"旭町四丁目","koaza":"","lat":34.872756,"lng":136.921055},{"town":"旭町五丁目","koaza":"","lat":34.87031,"lng":136.920035},{"town":"新居町一丁目","koaza":"","lat":34.911531,"lng":136.957918},{"town":"新居町二丁目","koaza":"","lat":34.910215,"lng":136.95598},{"town":"新居町三丁目","koaza":"","lat":34.908438,"lng":136.955967},{"town":"新居町四丁目","koaza":"","lat":34.90984,"lng":136.958421},{"town":"新居町五丁目","koaza":"","lat":34.908548,"lng":136.959063},{"town":"新居町六丁目","koaza":"","lat":34.907041,"lng":136.956788},{"town":"新居町七丁目","koaza":"","lat":34.906443,"lng":136.958924},{"town":"荒古町一丁目","koaza":"","lat":34.891994,"lng":136.934168},{"town":"荒古町二丁目","koaza":"","lat":34.89108,"lng":136.934053},{"town":"有脇町一丁目","koaza":"","lat":34.929326,"lng":136.957699},{"town":"有脇町十丁目","koaza":"","lat":34.935639,"lng":136.955407},{"town":"有脇町十一丁目","koaza":"","lat":34.936724,"lng":136.955997},{"town":"有脇町十二丁目","koaza":"","lat":34.935822,"lng":136.958386},{"town":"有脇町十三丁目","koaza":"","lat":34.937311,"lng":136.959878},{"town":"有脇町十四丁目","koaza":"","lat":34.937725,"lng":136.957812},{"town":"有脇町十五丁目","koaza":"","lat":34.937542,"lng":136.956027},{"town":"有脇町二丁目","koaza":"","lat":34.92962,"lng":136.955745},{"town":"有脇町三丁目","koaza":"","lat":34.931718,"lng":136.954593},{"town":"有脇町四丁目","koaza":"","lat":34.931597,"lng":136.95639},{"town":"有脇町五丁目","koaza":"","lat":34.933037,"lng":136.955327},{"town":"有脇町六丁目","koaza":"","lat":34.933998,"lng":136.955897},{"town":"有脇町七丁目","koaza":"","lat":34.933979,"lng":136.957319},{"town":"有脇町八丁目","koaza":"","lat":34.934187,"lng":136.958528},{"town":"有脇町九丁目","koaza":"","lat":34.935144,"lng":136.956826},{"town":"阿原町","koaza":"","lat":34.913335,"lng":136.959463},{"town":"飯森町","koaza":"","lat":34.914431,"lng":136.946022},{"town":"池田町一丁目","koaza":"","lat":34.897444,"lng":136.884048},{"town":"池田町二丁目","koaza":"","lat":34.897256,"lng":136.88065},{"town":"池田町三丁目","koaza":"","lat":34.901486,"lng":136.882571},{"town":"石塚町一丁目","koaza":"","lat":34.939523,"lng":136.947897},{"town":"石塚町二丁目","koaza":"","lat":34.940753,"lng":136.945806},{"town":"石塚町三丁目","koaza":"","lat":34.939316,"lng":136.943087},{"town":"石塚町四丁目","koaza":"","lat":34.938136,"lng":136.945733},{"town":"石塚町五丁目","koaza":"","lat":34.936894,"lng":136.947321},{"town":"泉町","koaza":"","lat":34.895399,"lng":136.926669},{"town":"板山町一丁目","koaza":"","lat":34.890343,"lng":136.892125},{"town":"板山町十丁目","koaza":"","lat":34.89087,"lng":136.888564},{"town":"板山町十一丁目","koaza":"","lat":34.891607,"lng":136.886127},{"town":"板山町十二丁目","koaza":"","lat":34.892872,"lng":136.884466},{"town":"板山町十三丁目","koaza":"","lat":34.890009,"lng":136.884234},{"town":"板山町十四丁目","koaza":"","lat":34.892502,"lng":136.878819},{"town":"板山町十五丁目","koaza":"","lat":34.893663,"lng":136.880104},{"town":"板山町二丁目","koaza":"","lat":34.888128,"lng":136.891472},{"town":"板山町三丁目","koaza":"","lat":34.887162,"lng":136.89427},{"town":"板山町四丁目","koaza":"","lat":34.885486,"lng":136.895827},{"town":"板山町五丁目","koaza":"","lat":34.885751,"lng":136.893478},{"town":"板山町六丁目","koaza":"","lat":34.886404,"lng":136.890648},{"town":"板山町七丁目","koaza":"","lat":34.885799,"lng":136.885728},{"town":"板山町八丁目","koaza":"","lat":34.887483,"lng":136.88682},{"town":"板山町九丁目","koaza":"","lat":34.888663,"lng":136.888143},{"town":"一ノ草町","koaza":"","lat":34.916111,"lng":136.943296},{"town":"一本木町一丁目","koaza":"","lat":34.92554,"lng":136.953535},{"town":"一本木町二丁目","koaza":"","lat":34.923747,"lng":136.953231},{"town":"一本木町三丁目","koaza":"","lat":34.922046,"lng":136.953173},{"town":"稲穂町一丁目","koaza":"","lat":34.932192,"lng":136.958483},{"town":"稲穂町十丁目","koaza":"","lat":34.936949,"lng":136.962772},{"town":"稲穂町十一丁目","koaza":"","lat":34.936162,"lng":136.96562},{"town":"稲穂町十二丁目","koaza":"","lat":34.938064,"lng":136.963037},{"town":"稲穂町十三丁目","koaza":"","lat":34.938596,"lng":136.961443},{"town":"稲穂町十四丁目","koaza":"","lat":34.939114,"lng":136.959941},{"town":"稲穂町二丁目","koaza":"","lat":34.930638,"lng":136.958758},{"town":"稲穂町三丁目","koaza":"","lat":34.931237,"lng":136.961888},{"town":"稲穂町四丁目","koaza":"","lat":34.932601,"lng":136.961704},{"town":"稲穂町五丁目","koaza":"","lat":34.933834,"lng":136.961611},{"town":"稲穂町六丁目","koaza":"","lat":34.931867,"lng":136.964132},{"town":"稲穂町七丁目","koaza":"","lat":34.934211,"lng":136.964968},{"town":"稲穂町八丁目","koaza":"","lat":34.935035,"lng":136.961782},{"town":"稲穂町九丁目","koaza":"","lat":34.935984,"lng":136.962083},{"town":"稲荷町一丁目","koaza":"","lat":34.877636,"lng":136.902664},{"town":"稲荷町二丁目","koaza":"","lat":34.876902,"lng":136.900554},{"town":"稲荷町三丁目","koaza":"","lat":34.874921,"lng":136.898714},{"town":"鵜ノ池町","koaza":"","lat":34.905655,"lng":136.882491},{"town":"馬捨町","koaza":"","lat":34.903881,"lng":136.891034},{"town":"枝山町","koaza":"","lat":34.901524,"lng":136.906641},{"town":"榎下町","koaza":"","lat":34.901084,"lng":136.928432},{"town":"大池町一丁目","koaza":"","lat":34.918366,"lng":136.952788},{"town":"大池町二丁目","koaza":"","lat":34.918192,"lng":136.949777},{"town":"大池町三丁目","koaza":"","lat":34.916462,"lng":136.949954},{"town":"大池町四丁目","koaza":"","lat":34.91455,"lng":136.949326},{"town":"大高町一丁目","koaza":"","lat":34.924557,"lng":136.946677},{"town":"大高町二丁目","koaza":"","lat":34.922891,"lng":136.948846},{"town":"大高町三丁目","koaza":"","lat":34.923079,"lng":136.94733},{"town":"大坪町","koaza":"","lat":34.902922,"lng":136.928036},{"town":"大伝根町一丁目","koaza":"","lat":34.920528,"lng":136.941601},{"town":"大伝根町二丁目","koaza":"","lat":34.92287,"lng":136.941691},{"town":"大松町一丁目","koaza":"","lat":34.910173,"lng":136.954368},{"town":"大松町二丁目","koaza":"","lat":34.910261,"lng":136.952513},{"town":"大湯町一丁目","koaza":"","lat":34.888528,"lng":136.883329},{"town":"大湯町二丁目","koaza":"","lat":34.887111,"lng":136.880806},{"town":"大湯町三丁目","koaza":"","lat":34.884733,"lng":136.876748},{"town":"大湯町四丁目","koaza":"","lat":34.888852,"lng":136.879334},{"town":"大湯町五丁目","koaza":"","lat":34.889716,"lng":136.878262},{"town":"奥町一丁目","koaza":"","lat":34.909377,"lng":136.879084},{"town":"奥町二丁目","koaza":"","lat":34.910924,"lng":136.876796},{"town":"奥町三丁目","koaza":"","lat":34.912957,"lng":136.876447},{"town":"奥町四丁目","koaza":"","lat":34.915962,"lng":136.879687},{"town":"乙川一色町","koaza":"","lat":34.908272,"lng":136.937972},{"town":"乙川市場町一丁目","koaza":"","lat":34.90841,"lng":136.944279},{"town":"乙川市場町二丁目","koaza":"","lat":34.907784,"lng":136.943986},{"town":"乙川内山町","koaza":"","lat":34.90511,"lng":136.940802},{"town":"乙川太田町一丁目","koaza":"","lat":34.911385,"lng":136.947394},{"town":"乙川太田町二丁目","koaza":"","lat":34.908437,"lng":136.946932},{"town":"乙川北側町一丁目","koaza":"","lat":34.910512,"lng":136.945314},{"town":"乙川北側町二丁目","koaza":"","lat":34.909806,"lng":136.943747},{"town":"乙川源内林町一丁目","koaza":"","lat":34.912121,"lng":136.93915},{"town":"乙川源内林町二丁目","koaza":"","lat":34.913666,"lng":136.939017},{"town":"乙川源内林町三丁目","koaza":"","lat":34.915131,"lng":136.938584},{"town":"乙川栄町","koaza":"","lat":34.908174,"lng":136.942181},{"town":"乙川新町一丁目","koaza":"","lat":34.906183,"lng":136.938606},{"town":"乙川新町二丁目","koaza":"","lat":34.907016,"lng":136.939889},{"town":"乙川新町三丁目","koaza":"","lat":34.908397,"lng":136.940715},{"town":"乙川末広町","koaza":"","lat":34.890674,"lng":136.950827},{"town":"乙川高良町","koaza":"","lat":34.906525,"lng":136.941486},{"town":"乙川町","koaza":"","lat":34.903563,"lng":136.940005},{"town":"乙川殿町","koaza":"","lat":34.906997,"lng":136.943757},{"town":"乙川西ノ宮町一丁目","koaza":"","lat":34.911578,"lng":136.943315},{"town":"乙川西ノ宮町二丁目","koaza":"","lat":34.911376,"lng":136.941987},{"town":"乙川西ノ宮町三丁目","koaza":"","lat":34.91179,"lng":136.940689},{"town":"乙川畑田町一丁目","koaza":"","lat":34.912909,"lng":136.942636},{"town":"乙川畑田町二丁目","koaza":"","lat":34.914037,"lng":136.942578},{"town":"乙川畑田町三丁目","koaza":"","lat":34.914971,"lng":136.942652},{"town":"乙川八幡町一丁目","koaza":"","lat":34.905703,"lng":136.943601},{"town":"乙川八幡町二丁目","koaza":"","lat":34.905394,"lng":136.942407},{"town":"乙川八幡町三丁目","koaza":"","lat":34.904457,"lng":136.943302},{"town":"乙川浜側町一丁目","koaza":"","lat":34.904804,"lng":136.944999},{"town":"乙川浜側町二丁目","koaza":"","lat":34.904894,"lng":136.94751},{"town":"乙川稗田町","koaza":"","lat":34.906506,"lng":136.946293},{"town":"乙川深田町一丁目","koaza":"","lat":34.909685,"lng":136.939794},{"town":"乙川深田町二丁目","koaza":"","lat":34.91023,"lng":136.938071},{"town":"乙川向田町一丁目","koaza":"","lat":34.90682,"lng":136.948614},{"town":"乙川向田町二丁目","koaza":"","lat":34.906386,"lng":136.950642},{"town":"乙川薬師町一丁目","koaza":"","lat":34.909518,"lng":136.94144},{"town":"乙川薬師町二丁目","koaza":"","lat":34.909491,"lng":136.942638},{"town":"乙川吉野町","koaza":"","lat":34.905213,"lng":136.93738},{"town":"乙川若宮町","koaza":"","lat":34.911864,"lng":136.944325},{"town":"欠ケ下町","koaza":"","lat":34.910823,"lng":136.912098},{"town":"春日町一丁目","koaza":"","lat":34.883314,"lng":136.919079},{"town":"春日町二丁目","koaza":"","lat":34.884285,"lng":136.917654},{"town":"春日町三丁目","koaza":"","lat":34.885045,"lng":136.916442},{"town":"金山町一丁目","koaza":"","lat":34.899372,"lng":136.878342},{"town":"金山町二丁目","koaza":"","lat":34.903299,"lng":136.87932},{"town":"上池町一丁目","koaza":"","lat":34.928827,"lng":136.949155},{"town":"上池町二丁目","koaza":"","lat":34.92891,"lng":136.946058},{"town":"上池町三丁目","koaza":"","lat":34.926922,"lng":136.946116},{"town":"上池町四丁目","koaza":"","lat":34.92707,"lng":136.948764},{"town":"上池町五丁目","koaza":"","lat":34.925656,"lng":136.94764},{"town":"神代町一丁目","koaza":"","lat":34.894075,"lng":136.883043},{"town":"神代町二丁目","koaza":"","lat":34.896062,"lng":136.886247},{"town":"上定光町一丁目","koaza":"","lat":34.936766,"lng":136.942593},{"town":"上定光町二丁目","koaza":"","lat":34.935341,"lng":136.944548},{"town":"上浜町","koaza":"","lat":34.898351,"lng":136.941072},{"town":"亀崎相生町一丁目","koaza":"","lat":34.918829,"lng":136.963803},{"town":"亀崎相生町二丁目","koaza":"","lat":34.917358,"lng":136.964389},{"town":"亀崎相生町三丁目","koaza":"","lat":34.916455,"lng":136.963589},{"town":"亀崎大洞町一丁目","koaza":"","lat":34.929413,"lng":136.962058},{"town":"亀崎大洞町二丁目","koaza":"","lat":34.926665,"lng":136.96225},{"town":"亀崎大洞町三丁目","koaza":"","lat":34.929756,"lng":136.959826},{"town":"亀崎大洞町四丁目","koaza":"","lat":34.927358,"lng":136.961253},{"town":"亀崎大洞町五丁目","koaza":"","lat":34.928522,"lng":136.959062},{"town":"亀崎大洞町六丁目","koaza":"","lat":34.924808,"lng":136.96158},{"town":"亀崎大洞町七丁目","koaza":"","lat":34.925388,"lng":136.961697},{"town":"亀崎北浦町一丁目","koaza":"","lat":34.923007,"lng":136.963927},{"town":"亀崎北浦町二丁目","koaza":"","lat":34.921143,"lng":136.96803},{"town":"亀崎北浦町三丁目","koaza":"","lat":34.92001,"lng":136.969062},{"town":"亀崎新田町一丁目","koaza":"","lat":34.929439,"lng":136.963893},{"town":"亀崎新田町二丁目","koaza":"","lat":34.92703,"lng":136.96529},{"town":"亀崎新田町三丁目","koaza":"","lat":34.926827,"lng":136.963684},{"town":"亀崎新田町四丁目","koaza":"","lat":34.924555,"lng":136.964094},{"town":"亀崎新田町五丁目","koaza":"","lat":34.924734,"lng":136.966064},{"town":"亀崎高根町一丁目","koaza":"","lat":34.924832,"lng":136.958044},{"town":"亀崎高根町二丁目","koaza":"","lat":34.921825,"lng":136.959701},{"town":"亀崎高根町三丁目","koaza":"","lat":34.922618,"lng":136.956143},{"town":"亀崎高根町四丁目","koaza":"","lat":34.921139,"lng":136.955875},{"town":"亀崎高根町五丁目","koaza":"","lat":34.920826,"lng":136.957957},{"town":"亀崎高根町六丁目","koaza":"","lat":34.918628,"lng":136.959259},{"town":"亀崎高根町七丁目","koaza":"","lat":34.91815,"lng":136.956039},{"town":"亀崎高根町八丁目","koaza":"","lat":34.916434,"lng":136.95886},{"town":"亀崎町一丁目","koaza":"","lat":34.919156,"lng":136.971182},{"town":"亀崎町十丁目","koaza":"","lat":34.91098,"lng":136.961068},{"town":"亀崎町二丁目","koaza":"","lat":34.918088,"lng":136.970403},{"town":"亀崎町三丁目","koaza":"","lat":34.916864,"lng":136.968515},{"town":"亀崎町四丁目","koaza":"","lat":34.916024,"lng":136.966661},{"town":"亀崎町五丁目","koaza":"","lat":34.914702,"lng":136.965665},{"town":"亀崎町六丁目","koaza":"","lat":34.913747,"lng":136.964041},{"town":"亀崎町七丁目","koaza":"","lat":34.914757,"lng":136.96252},{"town":"亀崎町八丁目","koaza":"","lat":34.913985,"lng":136.961414},{"town":"亀崎町九丁目","koaza":"","lat":34.912265,"lng":136.963188},{"town":"亀崎月見町一丁目","koaza":"","lat":34.921016,"lng":136.963669},{"town":"亀崎月見町二丁目","koaza":"","lat":34.920524,"lng":136.965865},{"town":"亀崎月見町三丁目","koaza":"","lat":34.918852,"lng":136.965435},{"town":"亀崎月見町四丁目","koaza":"","lat":34.918919,"lng":136.967342},{"town":"亀崎常盤町一丁目","koaza":"","lat":34.921413,"lng":136.962117},{"town":"亀崎常盤町二丁目","koaza":"","lat":34.918776,"lng":136.962107},{"town":"亀崎常盤町三丁目","koaza":"","lat":34.91754,"lng":136.961857},{"town":"亀崎常盤町四丁目","koaza":"","lat":34.915762,"lng":136.961462},{"town":"鴉根町一丁目","koaza":"","lat":34.877794,"lng":136.898564},{"town":"鴉根町二丁目","koaza":"","lat":34.8763,"lng":136.895043},{"town":"鴉根町三丁目","koaza":"","lat":34.876309,"lng":136.889551},{"town":"鴉根町四丁目","koaza":"","lat":34.876053,"lng":136.884393},{"town":"雁宿町一丁目","koaza":"","lat":34.896125,"lng":136.923703},{"town":"雁宿町二丁目","koaza":"","lat":34.895053,"lng":136.918591},{"town":"雁宿町三丁目","koaza":"","lat":34.896983,"lng":136.917694},{"town":"川崎町一丁目","koaza":"","lat":34.874452,"lng":136.927801},{"town":"川崎町二丁目","koaza":"","lat":34.870134,"lng":136.926606},{"town":"川崎町三丁目","koaza":"","lat":34.868268,"lng":136.936862},{"town":"川崎町四丁目","koaza":"","lat":34.872847,"lng":136.940504},{"town":"川田町","koaza":"","lat":34.894039,"lng":136.947732},{"town":"神田町一丁目","koaza":"","lat":34.884897,"lng":136.899578},{"town":"神田町二丁目","koaza":"","lat":34.883909,"lng":136.898174},{"town":"神田町三丁目","koaza":"","lat":34.883017,"lng":136.894238},{"town":"勘内町","koaza":"","lat":34.899534,"lng":136.932729},{"town":"北大矢知町一丁目","koaza":"","lat":34.932973,"lng":136.939322},{"town":"北大矢知町二丁目","koaza":"","lat":34.935874,"lng":136.940433},{"town":"北大矢知町三丁目","koaza":"","lat":34.934393,"lng":136.94159},{"town":"北末広町","koaza":"","lat":34.894956,"lng":136.929573},{"town":"北滑草町","koaza":"","lat":34.898014,"lng":136.900574},{"town":"北浜田町一丁目","koaza":"","lat":34.905465,"lng":136.935196},{"town":"北浜田町二丁目","koaza":"","lat":34.90307,"lng":136.935401},{"town":"北二ツ坂町一丁目","koaza":"","lat":34.893926,"lng":136.913007},{"town":"北二ツ坂町二丁目","koaza":"","lat":34.894063,"lng":136.909959},{"town":"北二ツ坂町三丁目","koaza":"","lat":34.896504,"lng":136.910361},{"town":"吉田町一丁目","koaza":"","lat":34.887026,"lng":136.899033},{"town":"吉田町二丁目","koaza":"","lat":34.888066,"lng":136.895725},{"town":"吉田町三丁目","koaza":"","lat":34.889774,"lng":136.898557},{"town":"吉田町四丁目","koaza":"","lat":34.891495,"lng":136.897153},{"town":"吉田町五丁目","koaza":"","lat":34.890353,"lng":136.894124},{"town":"吉田町六丁目","koaza":"","lat":34.892463,"lng":136.894342},{"town":"吉田町七丁目","koaza":"","lat":34.892985,"lng":136.895478},{"town":"吉田町八丁目","koaza":"","lat":34.895314,"lng":136.897638},{"town":"君ケ橋町一丁目","koaza":"","lat":34.883842,"lng":136.892319},{"town":"君ケ橋町二丁目","koaza":"","lat":34.881738,"lng":136.891672},{"town":"君ケ橋町三丁目","koaza":"","lat":34.8793,"lng":136.892418},{"town":"協和町一丁目","koaza":"","lat":34.890675,"lng":136.929883},{"town":"協和町二丁目","koaza":"","lat":34.889471,"lng":136.929088},{"town":"桐ケ丘一丁目","koaza":"","lat":34.887946,"lng":136.915982},{"town":"桐ケ丘二丁目","koaza":"","lat":34.889292,"lng":136.917411},{"town":"桐ケ丘三丁目","koaza":"","lat":34.891385,"lng":136.916782},{"town":"桐ケ丘四丁目","koaza":"","lat":34.890788,"lng":136.913772},{"town":"桐ケ丘五丁目","koaza":"","lat":34.888901,"lng":136.913523},{"town":"行人町","koaza":"","lat":34.901632,"lng":136.869929},{"town":"銀座本町一丁目","koaza":"","lat":34.895743,"lng":136.93275},{"town":"銀座本町二丁目","koaza":"","lat":34.894657,"lng":136.932561},{"town":"銀座本町三丁目","koaza":"","lat":34.893676,"lng":136.932501},{"town":"銀座本町四丁目","koaza":"","lat":34.892967,"lng":136.932975},{"town":"銀座本町五丁目","koaza":"","lat":34.892337,"lng":136.932945},{"town":"黒石町","koaza":"","lat":34.894168,"lng":136.89168},{"town":"源平町","koaza":"","lat":34.893224,"lng":136.936063},{"town":"庚申町一丁目","koaza":"","lat":34.917714,"lng":136.948075},{"town":"庚申町二丁目","koaza":"","lat":34.915909,"lng":136.946927},{"town":"更生町一丁目","koaza":"","lat":34.892419,"lng":136.926347},{"town":"更生町二丁目","koaza":"","lat":34.891785,"lng":136.927443},{"town":"小神町","koaza":"","lat":34.911035,"lng":136.948845},{"town":"古浜町","koaza":"","lat":34.900884,"lng":136.945877},{"town":"郷中町一丁目","koaza":"","lat":34.888496,"lng":136.928764},{"town":"郷中町二丁目","koaza":"","lat":34.887927,"lng":136.927157},{"town":"郷中町三丁目","koaza":"","lat":34.887024,"lng":136.92852},{"town":"幸町一丁目","koaza":"","lat":34.890731,"lng":136.936284},{"town":"幸町二丁目","koaza":"","lat":34.889824,"lng":136.938458},{"town":"栄町一丁目","koaza":"","lat":34.887454,"lng":136.924475},{"town":"栄町二丁目","koaza":"","lat":34.886527,"lng":136.923814},{"town":"栄町三丁目","koaza":"","lat":34.884993,"lng":136.923256},{"town":"栄町四丁目","koaza":"","lat":34.883399,"lng":136.92199},{"town":"椎ノ木町一丁目","koaza":"","lat":34.884965,"lng":136.880859},{"town":"椎ノ木町二丁目","koaza":"","lat":34.882235,"lng":136.879886},{"town":"椎ノ木町三丁目","koaza":"","lat":34.880259,"lng":136.879361},{"town":"椎ノ木町四丁目","koaza":"","lat":34.882908,"lng":136.88538},{"town":"潮干町","koaza":"","lat":34.90846,"lng":136.966545},{"town":"七本木町一丁目","koaza":"","lat":34.920148,"lng":136.949471},{"town":"七本木町二丁目","koaza":"","lat":34.92164,"lng":136.949802},{"town":"東雲町","koaza":"","lat":34.895226,"lng":136.936181},{"town":"清水北町","koaza":"","lat":34.900578,"lng":136.926422},{"town":"清水西町","koaza":"","lat":34.899379,"lng":136.926178},{"town":"清水東町","koaza":"","lat":34.899487,"lng":136.927778},{"town":"昭和町一丁目","koaza":"","lat":34.893576,"lng":136.92551},{"town":"昭和町二丁目","koaza":"","lat":34.890135,"lng":136.923459},{"town":"昭和町三丁目","koaza":"","lat":34.887047,"lng":136.920736},{"town":"昭和町四丁目","koaza":"","lat":34.884975,"lng":136.919933},{"town":"新池町一丁目","koaza":"","lat":34.919487,"lng":136.940716},{"town":"新池町二丁目","koaza":"","lat":34.920768,"lng":136.93836},{"town":"新川町","koaza":"","lat":34.892889,"lng":136.931312},{"town":"新宮町二丁目","koaza":"","lat":34.879635,"lng":136.904197},{"town":"新宮町三丁目","koaza":"","lat":34.882493,"lng":136.904463},{"town":"新宮町四丁目","koaza":"","lat":34.881517,"lng":136.901354},{"town":"新宮町五丁目","koaza":"","lat":34.880868,"lng":136.897544},{"town":"新栄町","koaza":"","lat":34.891756,"lng":136.936109},{"town":"新生町一丁目","koaza":"","lat":34.909845,"lng":136.89314},{"town":"新生町二丁目","koaza":"","lat":34.908346,"lng":136.892889},{"town":"新生町三丁目","koaza":"","lat":34.909883,"lng":136.891394},{"town":"新生町四丁目","koaza":"","lat":34.909887,"lng":136.889484},{"town":"新生町五丁目","koaza":"","lat":34.907907,"lng":136.890011},{"town":"新生町六丁目","koaza":"","lat":34.906481,"lng":136.890797},{"town":"新生町七丁目","koaza":"","lat":34.906022,"lng":136.893111},{"town":"新浜町","koaza":"","lat":34.877347,"lng":136.933539},{"town":"神明町一丁目","koaza":"","lat":34.882968,"lng":136.931891},{"town":"神明町二丁目","koaza":"","lat":34.881383,"lng":136.934677},{"town":"神明町三丁目","koaza":"","lat":34.881684,"lng":136.93043},{"town":"神明町四丁目","koaza":"","lat":34.88009,"lng":136.933386},{"town":"十一号地","koaza":"","lat":34.879696,"lng":136.953703},{"town":"十三塚町","koaza":"","lat":34.897621,"lng":136.874125},{"town":"砂谷町","koaza":"","lat":34.902242,"lng":136.894033},{"town":"州の崎町","koaza":"","lat":34.926228,"lng":136.970343},{"town":"住吉町一丁目","koaza":"","lat":34.908134,"lng":136.931235},{"town":"住吉町二丁目","koaza":"","lat":34.906757,"lng":136.9315},{"town":"住吉町三丁目","koaza":"","lat":34.904667,"lng":136.931237},{"town":"住吉町四丁目","koaza":"","lat":34.903369,"lng":136.931425},{"town":"住吉町五丁目","koaza":"","lat":34.901909,"lng":136.931829},{"town":"住吉町六丁目","koaza":"","lat":34.900155,"lng":136.930606},{"town":"住吉町七丁目","koaza":"","lat":34.898524,"lng":136.93081},{"town":"住吉町八丁目","koaza":"","lat":34.897253,"lng":136.930531},{"town":"清城町一丁目","koaza":"","lat":34.898713,"lng":136.916544},{"town":"清城町二丁目","koaza":"","lat":34.898275,"lng":136.911466},{"town":"清城町三丁目","koaza":"","lat":34.896451,"lng":136.913046},{"town":"相賀町","koaza":"","lat":34.901694,"lng":136.949108},{"town":"高砂町","koaza":"","lat":34.901829,"lng":136.95497},{"town":"高峯町","koaza":"","lat":34.893863,"lng":136.888231},{"town":"田代町","koaza":"","lat":34.897933,"lng":136.891319},{"town":"丁田町","koaza":"","lat":34.911388,"lng":136.912408},{"town":"寺町","koaza":"","lat":34.882737,"lng":136.927836},{"town":"天神町","koaza":"","lat":34.889582,"lng":136.920562},{"town":"天王町一丁目","koaza":"","lat":34.896503,"lng":136.927023},{"town":"天王町二丁目","koaza":"","lat":34.895949,"lng":136.928087},{"town":"出口町一丁目","koaza":"","lat":34.902014,"lng":136.922531},{"town":"出口町二丁目","koaza":"","lat":34.905109,"lng":136.919786},{"town":"東郷町一丁目","koaza":"","lat":34.882364,"lng":136.91855},{"town":"東郷町二丁目","koaza":"","lat":34.88288,"lng":136.91659},{"town":"東郷町三丁目","koaza":"","lat":34.881068,"lng":136.917518},{"town":"東郷町四丁目","koaza":"","lat":34.881745,"lng":136.915563},{"town":"東洋町一丁目","koaza":"","lat":34.894484,"lng":136.939325},{"town":"東洋町二丁目","koaza":"","lat":34.891943,"lng":136.939833},{"town":"東洋町三丁目","koaza":"","lat":34.890425,"lng":136.939162},{"town":"土井山町一丁目","koaza":"","lat":34.897522,"lng":136.908008},{"town":"土井山町二丁目","koaza":"","lat":34.898755,"lng":136.905155},{"town":"土井山町三丁目","koaza":"","lat":34.896272,"lng":136.905021},{"town":"苗代町一丁目","koaza":"","lat":34.916337,"lng":136.939919},{"town":"苗代町二丁目","koaza":"","lat":34.916778,"lng":136.937184},{"town":"中午町","koaza":"","lat":34.903978,"lng":136.953821},{"town":"中億田町","koaza":"","lat":34.899605,"lng":136.955335},{"town":"中島町","koaza":"","lat":34.884505,"lng":136.929446},{"town":"仲田町一丁目","koaza":"","lat":34.887623,"lng":136.918491},{"town":"仲田町二丁目","koaza":"","lat":34.886108,"lng":136.918723},{"town":"中生見町","koaza":"","lat":34.928538,"lng":136.953929},{"town":"中町一丁目","koaza":"","lat":34.891814,"lng":136.929078},{"town":"中町二丁目","koaza":"","lat":34.890339,"lng":136.927969},{"town":"中町三丁目","koaza":"","lat":34.889402,"lng":136.927054},{"town":"中町四丁目","koaza":"","lat":34.888222,"lng":136.925855},{"town":"中村町一丁目","koaza":"","lat":34.894347,"lng":136.934224},{"town":"中村町二丁目","koaza":"","lat":34.893084,"lng":136.934137},{"town":"長根町一丁目","koaza":"","lat":34.917826,"lng":136.943584},{"town":"長根町二丁目","koaza":"","lat":34.917922,"lng":136.940525},{"town":"長根町三丁目","koaza":"","lat":34.918975,"lng":136.937754},{"town":"滑楚町","koaza":"","lat":34.902339,"lng":136.897868},{"town":"成岩東町","koaza":"","lat":34.880602,"lng":136.925735},{"town":"成岩本町一丁目","koaza":"","lat":34.885576,"lng":136.928093},{"town":"成岩本町二丁目","koaza":"","lat":34.884463,"lng":136.926434},{"town":"成岩本町三丁目","koaza":"","lat":34.882942,"lng":136.92567},{"town":"成岩本町四丁目","koaza":"","lat":34.882388,"lng":136.924259},{"town":"新野町一丁目","koaza":"","lat":34.879739,"lng":136.887018},{"town":"新野町二丁目","koaza":"","lat":34.876952,"lng":136.881334},{"town":"西大矢知町一丁目","koaza":"","lat":34.928245,"lng":136.936991},{"town":"西大矢知町二丁目","koaza":"","lat":34.92789,"lng":136.93863},{"town":"西大矢知町三丁目","koaza":"","lat":34.924244,"lng":136.936451},{"town":"西大矢知町四丁目","koaza":"","lat":34.921207,"lng":136.935875},{"town":"西億田町","koaza":"","lat":34.894332,"lng":136.953701},{"town":"西新町","koaza":"","lat":34.900188,"lng":136.929563},{"town":"西生見町","koaza":"","lat":34.927425,"lng":136.952574},{"town":"西端町","koaza":"","lat":34.891201,"lng":136.931778},{"town":"日東町","koaza":"","lat":34.895774,"lng":136.962017},{"town":"祢宜町","koaza":"","lat":34.907024,"lng":136.953036},{"town":"のぞみが丘一丁目","koaza":"","lat":34.927215,"lng":136.960396},{"town":"のぞみが丘二丁目","koaza":"","lat":34.926388,"lng":136.958547},{"town":"のぞみが丘三丁目","koaza":"","lat":34.923789,"lng":136.961043},{"town":"白山町一丁目","koaza":"","lat":34.893832,"lng":136.923946},{"town":"白山町二丁目","koaza":"","lat":34.891548,"lng":136.922901},{"town":"白山町三丁目","koaza":"","lat":34.891537,"lng":136.919845},{"town":"白山町四丁目","koaza":"","lat":34.894078,"lng":136.921178},{"town":"白山町五丁目","koaza":"","lat":34.89418,"lng":136.916205},{"town":"兀山町","koaza":"","lat":34.919361,"lng":136.935443},{"town":"畑合町","koaza":"","lat":34.887052,"lng":136.926583},{"town":"八軒町","koaza":"","lat":34.897006,"lng":136.945714},{"town":"花園町一丁目","koaza":"","lat":34.873729,"lng":136.914406},{"town":"花園町二丁目","koaza":"","lat":34.870117,"lng":136.913871},{"town":"花園町三丁目","koaza":"","lat":34.873727,"lng":136.910911},{"town":"花園町四丁目","koaza":"","lat":34.873906,"lng":136.907088},{"town":"花園町五丁目","koaza":"","lat":34.870999,"lng":136.908425},{"town":"花園町六丁目","koaza":"","lat":34.873219,"lng":136.902935},{"town":"花田町一丁目","koaza":"","lat":34.91215,"lng":136.955979},{"town":"花田町二丁目","koaza":"","lat":34.912239,"lng":136.953151},{"town":"花田町三丁目","koaza":"","lat":34.912214,"lng":136.950967},{"town":"浜田町一丁目","koaza":"","lat":34.904219,"lng":136.949441},{"town":"浜田町二丁目","koaza":"","lat":34.9032,"lng":136.945885},{"town":"浜田町三丁目","koaza":"","lat":34.902294,"lng":136.939883},{"town":"浜町","koaza":"","lat":34.888963,"lng":136.934519},{"town":"柊町一丁目","koaza":"","lat":34.901963,"lng":136.919082},{"town":"柊町二丁目","koaza":"","lat":34.903032,"lng":136.91661},{"town":"柊町三丁目","koaza":"","lat":34.901063,"lng":136.914654},{"town":"柊町四丁目","koaza":"","lat":34.903137,"lng":136.911934},{"town":"柊町五丁目","koaza":"","lat":34.900686,"lng":136.910066},{"town":"東大矢知町一丁目","koaza":"","lat":34.932145,"lng":136.942422},{"town":"東大矢知町二丁目","koaza":"","lat":34.93165,"lng":136.945254},{"town":"東大矢知町三丁目","koaza":"","lat":34.930838,"lng":136.948621},{"town":"東億田町","koaza":"","lat":34.897563,"lng":136.956978},{"town":"東新町","koaza":"","lat":34.900158,"lng":136.931504},{"town":"東天王町一丁目","koaza":"","lat":34.897044,"lng":136.931794},{"town":"東天王町二丁目","koaza":"","lat":34.895678,"lng":136.931495},{"town":"東生見町","koaza":"","lat":34.927509,"lng":136.955298},{"town":"東浜町一丁目","koaza":"","lat":34.889257,"lng":136.93637},{"town":"東浜町二丁目","koaza":"","lat":34.88652,"lng":136.936148},{"town":"東本町一丁目","koaza":"","lat":34.897643,"lng":136.93484},{"town":"東本町二丁目","koaza":"","lat":34.895876,"lng":136.934396},{"town":"彦洲町一丁目","koaza":"","lat":34.888122,"lng":136.903978},{"town":"彦洲町二丁目","koaza":"","lat":34.88549,"lng":136.904052},{"town":"彦洲町三丁目","koaza":"","lat":34.887514,"lng":136.901281},{"town":"彦洲町四丁目","koaza":"","lat":34.891659,"lng":136.900492},{"town":"日ノ出町","koaza":"","lat":34.888767,"lng":136.937763},{"town":"平井町一丁目","koaza":"","lat":34.910372,"lng":136.897403},{"town":"平井町二丁目","koaza":"","lat":34.908144,"lng":136.897554},{"town":"平井町三丁目","koaza":"","lat":34.906753,"lng":136.897201},{"town":"平井町四丁目","koaza":"","lat":34.904489,"lng":136.897232},{"town":"平井町五丁目","koaza":"","lat":34.907045,"lng":136.895282},{"town":"平井町六丁目","koaza":"","lat":34.910084,"lng":136.895125},{"town":"平井町七丁目","koaza":"","lat":34.911562,"lng":136.895843},{"town":"平井町八丁目","koaza":"","lat":34.91237,"lng":136.897386},{"town":"平地町一丁目","koaza":"","lat":34.915756,"lng":136.956949},{"town":"平地町二丁目","koaza":"","lat":34.916524,"lng":136.954672},{"town":"平地町三丁目","koaza":"","lat":34.914498,"lng":136.954702},{"town":"平地町四丁目","koaza":"","lat":34.915247,"lng":136.952467},{"town":"平地町五丁目","koaza":"","lat":34.919387,"lng":136.954204},{"town":"平地馬場町一丁目","koaza":"","lat":34.925901,"lng":136.956602},{"town":"平地馬場町二丁目","koaza":"","lat":34.924551,"lng":136.956068},{"town":"広小路町","koaza":"","lat":34.893944,"lng":136.926981},{"town":"深谷町","koaza":"","lat":34.900683,"lng":136.900493},{"town":"福地町","koaza":"","lat":34.895102,"lng":136.900065},{"town":"冨士ケ丘五丁目","koaza":"","lat":34.873044,"lng":136.90045},{"town":"冨士ケ丘六丁目","koaza":"","lat":34.874311,"lng":136.900109},{"town":"船入町","koaza":"","lat":34.889941,"lng":136.934139},{"town":"平和町一丁目","koaza":"","lat":34.910294,"lng":136.903492},{"town":"平和町二丁目","koaza":"","lat":34.910241,"lng":136.901559},{"town":"平和町三丁目","koaza":"","lat":34.906884,"lng":136.902135},{"town":"平和町四丁目","koaza":"","lat":34.904167,"lng":136.899761},{"town":"平和町五丁目","koaza":"","lat":34.9072,"lng":136.89921},{"town":"平和町六丁目","koaza":"","lat":34.909617,"lng":136.899416},{"town":"平和町七丁目","koaza":"","lat":34.911867,"lng":136.899814},{"town":"平和町八丁目","koaza":"","lat":34.91317,"lng":136.901581},{"town":"宝来町一丁目","koaza":"","lat":34.90987,"lng":136.887308},{"town":"宝来町二丁目","koaza":"","lat":34.907144,"lng":136.888237},{"town":"宝来町三丁目","koaza":"","lat":34.907602,"lng":136.886389},{"town":"宝来町四丁目","koaza":"","lat":34.907716,"lng":136.883052},{"town":"宝来町五丁目","koaza":"","lat":34.909463,"lng":136.883851},{"town":"宝来町六丁目","koaza":"","lat":34.911609,"lng":136.885145},{"town":"宝来町七丁目","koaza":"","lat":34.911347,"lng":136.882817},{"town":"星崎町一丁目","koaza":"","lat":34.897486,"lng":136.922945},{"town":"星崎町二丁目","koaza":"","lat":34.89861,"lng":136.920996},{"town":"星崎町三丁目","koaza":"","lat":34.898592,"lng":136.924188},{"town":"堀崎町一丁目","koaza":"","lat":34.898503,"lng":136.929369},{"town":"堀崎町二丁目","koaza":"","lat":34.89728,"lng":136.928983},{"town":"本町一丁目","koaza":"","lat":34.901673,"lng":136.934769},{"town":"本町二丁目","koaza":"","lat":34.899287,"lng":136.935742},{"town":"本町三丁目","koaza":"","lat":34.899075,"lng":136.934536},{"town":"本町四丁目","koaza":"","lat":34.898641,"lng":136.933941},{"town":"本町五丁目","koaza":"","lat":34.898025,"lng":136.933686},{"town":"本町六丁目","koaza":"","lat":34.897648,"lng":136.933049},{"town":"本町七丁目","koaza":"","lat":34.896719,"lng":136.933167},{"town":"前潟町","koaza":"","lat":34.878755,"lng":136.929194},{"town":"前崎西町","koaza":"","lat":34.897853,"lng":136.926481},{"town":"前崎東町","koaza":"","lat":34.897841,"lng":136.92783},{"town":"前田町","koaza":"","lat":34.913636,"lng":136.956709},{"town":"松堀町","koaza":"","lat":34.898633,"lng":136.89577},{"town":"瑞穂町一丁目","koaza":"","lat":34.892604,"lng":136.945807},{"town":"瑞穂町十丁目","koaza":"","lat":34.891618,"lng":136.943813},{"town":"瑞穂町二丁目","koaza":"","lat":34.888538,"lng":136.948698},{"town":"瑞穂町三丁目","koaza":"","lat":34.889378,"lng":136.945584},{"town":"瑞穂町四丁目","koaza":"","lat":34.885812,"lng":136.946166},{"town":"瑞穂町五丁目","koaza":"","lat":34.888108,"lng":136.94362},{"town":"瑞穂町六丁目","koaza":"","lat":34.885815,"lng":136.942434},{"town":"瑞穂町七丁目","koaza":"","lat":34.885528,"lng":136.938866},{"town":"瑞穂町八丁目","koaza":"","lat":34.887499,"lng":136.940377},{"town":"瑞穂町九丁目","koaza":"","lat":34.889468,"lng":136.941272},{"town":"三ツ池町","koaza":"","lat":34.908101,"lng":136.872165},{"town":"緑ケ丘一丁目","koaza":"","lat":34.930155,"lng":136.951379},{"town":"緑ケ丘十丁目","koaza":"","lat":34.935771,"lng":136.953314},{"town":"緑ケ丘十一丁目","koaza":"","lat":34.937411,"lng":136.953854},{"town":"緑ケ丘十二丁目","koaza":"","lat":34.937161,"lng":136.952092},{"town":"緑ケ丘十三丁目","koaza":"","lat":34.938759,"lng":136.950912},{"town":"緑ケ丘二丁目","koaza":"","lat":34.931251,"lng":136.951866},{"town":"緑ケ丘三丁目","koaza":"","lat":34.933032,"lng":136.95267},{"town":"緑ケ丘四丁目","koaza":"","lat":34.933939,"lng":136.953247},{"town":"緑ケ丘五丁目","koaza":"","lat":34.9335,"lng":136.950805},{"town":"緑ケ丘六丁目","koaza":"","lat":34.93374,"lng":136.948849},{"town":"緑ケ丘七丁目","koaza":"","lat":34.934611,"lng":136.946737},{"town":"緑ケ丘八丁目","koaza":"","lat":34.936,"lng":136.94855},{"town":"緑ケ丘九丁目","koaza":"","lat":34.936158,"lng":136.950581},{"town":"港本町一丁目","koaza":"","lat":34.888861,"lng":136.932448},{"town":"港本町二丁目","koaza":"","lat":34.888099,"lng":136.931383},{"town":"港本町三丁目","koaza":"","lat":34.886998,"lng":136.93044},{"town":"港本町四丁目","koaza":"","lat":34.886347,"lng":136.929473},{"town":"港町一丁目","koaza":"","lat":34.887473,"lng":136.934295},{"town":"港町二丁目","koaza":"","lat":34.885559,"lng":136.934694},{"town":"港町三丁目","koaza":"","lat":34.88417,"lng":136.933989},{"town":"港町四丁目","koaza":"","lat":34.880613,"lng":136.93854},{"town":"南大矢知町一丁目","koaza":"","lat":34.929087,"lng":136.940976},{"town":"南大矢知町二丁目","koaza":"","lat":34.926085,"lng":136.941482},{"town":"南大矢知町三丁目","koaza":"","lat":34.924836,"lng":136.940508},{"town":"南大矢知町四丁目","koaza":"","lat":34.923552,"lng":136.938909},{"town":"南末広町","koaza":"","lat":34.893177,"lng":136.929067},{"town":"南二ツ坂町一丁目","koaza":"","lat":34.89035,"lng":136.909733},{"town":"南二ツ坂町二丁目","koaza":"","lat":34.8915,"lng":136.910276},{"town":"南本町一丁目","koaza":"","lat":34.89125,"lng":136.932676},{"town":"南本町二丁目","koaza":"","lat":34.88992,"lng":136.932566},{"town":"美原町一丁目","koaza":"","lat":34.917896,"lng":136.946482},{"town":"美原町二丁目","koaza":"","lat":34.92045,"lng":136.947719},{"town":"宮路町","koaza":"","lat":34.903171,"lng":136.92613},{"town":"宮本町一丁目","koaza":"","lat":34.886189,"lng":136.914702},{"town":"宮本町二丁目","koaza":"","lat":34.884138,"lng":136.914477},{"town":"宮本町三丁目","koaza":"","lat":34.883327,"lng":136.9126},{"town":"宮本町四丁目","koaza":"","lat":34.88681,"lng":136.91182},{"town":"宮本町五丁目","koaza":"","lat":34.886937,"lng":136.908034},{"town":"宮本町六丁目","koaza":"","lat":34.883962,"lng":136.908521},{"town":"御幸町","koaza":"","lat":34.89407,"lng":136.931234},{"town":"妙見町","koaza":"","lat":34.89045,"lng":136.931357},{"town":"向山町一丁目","koaza":"","lat":34.910953,"lng":136.950509},{"town":"向山町二丁目","koaza":"","lat":34.908014,"lng":136.950572},{"town":"向山町三丁目","koaza":"","lat":34.908246,"lng":136.95266},{"town":"桃山町","koaza":"","lat":34.904346,"lng":136.874},{"town":"岩滑北浜町","koaza":"","lat":34.911277,"lng":136.932189},{"town":"岩滑高山町一丁目","koaza":"","lat":34.911609,"lng":136.918179},{"town":"岩滑高山町二丁目","koaza":"","lat":34.90904,"lng":136.919136},{"town":"岩滑高山町三丁目","koaza":"","lat":34.907285,"lng":136.919804},{"town":"岩滑高山町四丁目","koaza":"","lat":34.906475,"lng":136.917266},{"town":"岩滑高山町五丁目","koaza":"","lat":34.908681,"lng":136.916385},{"town":"岩滑高山町六丁目","koaza":"","lat":34.909388,"lng":136.914164},{"town":"岩滑高山町七丁目","koaza":"","lat":34.908336,"lng":136.912982},{"town":"岩滑高山町八丁目","koaza":"","lat":34.905726,"lng":136.914193},{"town":"岩滑中町一丁目","koaza":"","lat":34.911593,"lng":136.924206},{"town":"岩滑中町二丁目","koaza":"","lat":34.909326,"lng":136.923876},{"town":"岩滑中町三丁目","koaza":"","lat":34.907562,"lng":136.924113},{"town":"岩滑中町四丁目","koaza":"","lat":34.905764,"lng":136.923536},{"town":"岩滑中町五丁目","koaza":"","lat":34.90758,"lng":136.921681},{"town":"岩滑中町六丁目","koaza":"","lat":34.909689,"lng":136.921245},{"town":"岩滑中町七丁目","koaza":"","lat":34.911348,"lng":136.921711},{"town":"岩滑西町一丁目","koaza":"","lat":34.908455,"lng":136.911351},{"town":"岩滑西町二丁目","koaza":"","lat":34.905763,"lng":136.910066},{"town":"岩滑西町三丁目","koaza":"","lat":34.907216,"lng":136.907783},{"town":"岩滑西町四丁目","koaza":"","lat":34.909676,"lng":136.908432},{"town":"岩滑西町五丁目","koaza":"","lat":34.910339,"lng":136.911775},{"town":"岩滑西町六丁目","koaza":"","lat":34.911495,"lng":136.908701},{"town":"岩滑西町七丁目","koaza":"","lat":34.912192,"lng":136.905188},{"town":"岩滑西町八丁目","koaza":"","lat":34.910208,"lng":136.905255},{"town":"岩滑西町九丁目","koaza":"","lat":34.904137,"lng":136.904571},{"town":"岩滑東町一丁目","koaza":"","lat":34.909898,"lng":136.930132},{"town":"岩滑東町二丁目","koaza":"","lat":34.912248,"lng":136.925876},{"town":"岩滑東町三丁目","koaza":"","lat":34.910619,"lng":136.927043},{"town":"岩滑東町四丁目","koaza":"","lat":34.908885,"lng":136.927181},{"town":"岩滑東町五丁目","koaza":"","lat":34.906188,"lng":136.926776},{"town":"岩滑南浜町","koaza":"","lat":34.90899,"lng":136.934848},{"town":"山崎町","koaza":"","lat":34.894937,"lng":136.931341},{"town":"山代町一丁目","koaza":"","lat":34.890675,"lng":136.906998},{"town":"山代町二丁目","koaza":"","lat":34.894411,"lng":136.907537},{"town":"山代町三丁目","koaza":"","lat":34.892475,"lng":136.905539},{"town":"山代町四丁目","koaza":"","lat":34.891903,"lng":136.903551},{"town":"大和町一丁目","koaza":"","lat":34.890211,"lng":136.92497},{"town":"大和町二丁目","koaza":"","lat":34.889571,"lng":136.925691},{"town":"山ノ神町","koaza":"","lat":34.891832,"lng":136.931456},{"town":"有楽町一丁目","koaza":"","lat":34.88179,"lng":136.920604},{"town":"有楽町二丁目","koaza":"","lat":34.880174,"lng":136.92121},{"town":"有楽町三丁目","koaza":"","lat":34.878741,"lng":136.92094},{"town":"有楽町四丁目","koaza":"","lat":34.878508,"lng":136.917751},{"town":"有楽町五丁目","koaza":"","lat":34.877349,"lng":136.919128},{"town":"有楽町六丁目","koaza":"","lat":34.875166,"lng":136.918516},{"town":"有楽町七丁目","koaza":"","lat":34.873016,"lng":136.917935},{"town":"有楽町八丁目","koaza":"","lat":34.870155,"lng":136.917275},{"town":"横川町一丁目","koaza":"","lat":34.928783,"lng":136.943325},{"town":"横川町二丁目","koaza":"","lat":34.926007,"lng":136.944258},{"town":"横川町三丁目","koaza":"","lat":34.921857,"lng":136.945367},{"town":"横松上町","koaza":"","lat":34.915592,"lng":136.934783},{"town":"横山町","koaza":"","lat":34.899957,"lng":136.887365},{"town":"葭谷町一丁目","koaza":"","lat":34.894262,"lng":136.90372},{"town":"葭谷町二丁目","koaza":"","lat":34.89499,"lng":136.902187},{"town":"四方木町","koaza":"","lat":34.883519,"lng":136.888942}]