[{"town":"下里四丁目","lat":"35.753699","lng":"139.496259"},{"town":"柳窪一丁目","lat":"35.749106","lng":"139.495943"},{"town":"柳窪二丁目","lat":"35.745484","lng":"139.494244"},{"town":"中央町六丁目","lat":"35.754427","lng":"139.517589"},{"town":"南沢三丁目","lat":"35.751618","lng":"139.527602"},{"town":"八幡町二丁目","lat":"35.754174","lng":"139.513206"},{"town":"下里二丁目","lat":"35.753192","lng":"139.505876"},{"town":"下里三丁目","lat":"35.751362","lng":"139.500066"},{"town":"浅間町三丁目","lat":"35.755741","lng":"139.543144"},{"town":"南沢一丁目","lat":"35.754559","lng":"139.533331"},{"town":"南沢二丁目","lat":"35.750794","lng":"139.533000"},{"town":"中央町三丁目","lat":"35.751192","lng":"139.522259"},{"town":"学園町一丁目","lat":"35.753826","lng":"139.538142"},{"town":"下里一丁目","lat":"35.756402","lng":"139.508156"},{"town":"中央町二丁目","lat":"35.755136","lng":"139.521502"},{"town":"下里六丁目","lat":"35.758005","lng":"139.497571"},{"town":"弥生二丁目","lat":"35.734179","lng":"139.505189"},{"town":"南町二丁目","lat":"35.736373","lng":"139.522678"},{"town":"ひばりが丘団地","lat":"35.746828","lng":"139.533533"},{"town":"学園町二丁目","lat":"35.749543","lng":"139.536201"},{"town":"南沢四丁目","lat":"35.747885","lng":"139.528101"},{"town":"南町三丁目","lat":"35.740575","lng":"139.521896"},{"town":"南町一丁目","lat":"35.740500","lng":"139.527983"},{"town":"南沢五丁目","lat":"35.744650","lng":"139.526031"},{"town":"前沢五丁目","lat":"35.740651","lng":"139.510453"},{"town":"前沢三丁目","lat":"35.741177","lng":"139.516755"},{"town":"前沢二丁目","lat":"35.744218","lng":"139.516936"},{"town":"南町四丁目","lat":"35.744789","lng":"139.521748"},{"town":"中央町四丁目","lat":"35.747440","lng":"139.522147"},{"town":"前沢一丁目","lat":"35.746595","lng":"139.517294"},{"town":"中央町五丁目","lat":"35.750374","lng":"139.517501"},{"town":"前沢四丁目","lat":"35.744745","lng":"139.512264"},{"town":"滝山二丁目","lat":"35.745491","lng":"139.509039"},{"town":"滝山一丁目","lat":"35.748103","lng":"139.510278"},{"town":"八幡町三丁目","lat":"35.749970","lng":"139.511781"},{"town":"滝山七丁目","lat":"35.749948","lng":"139.505144"},{"town":"滝山六丁目","lat":"35.747731","lng":"139.503683"},{"town":"滝山五丁目","lat":"35.745938","lng":"139.500997"},{"town":"弥生一丁目","lat":"35.738211","lng":"139.505380"},{"town":"滝山三丁目","lat":"35.742461","lng":"139.507275"},{"town":"滝山四丁目","lat":"35.743474","lng":"139.504299"},{"town":"柳窪四丁目","lat":"35.748104","lng":"139.488676"},{"town":"柳窪五丁目","lat":"35.749798","lng":"139.492197"},{"town":"柳窪三丁目","lat":"35.744096","lng":"139.490602"},{"town":"上の原二丁目","lat":"35.771809","lng":"139.545799"},{"town":"神宝町二丁目","lat":"35.767364","lng":"139.546263"},{"town":"幸町一丁目","lat":"35.760505","lng":"139.524723"},{"town":"本町三丁目","lat":"35.759374","lng":"139.529346"},{"town":"本町四丁目","lat":"35.756091","lng":"139.530358"},{"town":"本町二丁目","lat":"35.761625","lng":"139.529104"},{"town":"氷川台一丁目","lat":"35.765714","lng":"139.532000"},{"town":"新川町一丁目","lat":"35.760140","lng":"139.537230"},{"town":"本町一丁目","lat":"35.759085","lng":"139.533352"},{"town":"浅間町一丁目","lat":"35.757081","lng":"139.539048"},{"town":"上の原一丁目","lat":"35.770782","lng":"139.542373"},{"town":"小山一丁目","lat":"35.764888","lng":"139.528188"},{"town":"小山二丁目","lat":"35.762996","lng":"139.525629"},{"town":"小山四丁目","lat":"35.764816","lng":"139.521433"},{"town":"幸町二丁目","lat":"35.760817","lng":"139.521096"},{"town":"幸町五丁目","lat":"35.760754","lng":"139.517798"},{"town":"野火止一丁目","lat":"35.760555","lng":"139.513544"},{"town":"八幡町一丁目","lat":"35.757794","lng":"139.512078"},{"town":"幸町四丁目","lat":"35.757441","lng":"139.516541"},{"town":"下里五丁目","lat":"35.756464","lng":"139.501408"},{"town":"下里七丁目","lat":"35.758742","lng":"139.504462"},{"town":"野火止三丁目","lat":"35.760855","lng":"139.507576"},{"town":"野火止二丁目","lat":"35.762862","lng":"139.513529"},{"town":"中央町一丁目","lat":"35.756555","lng":"139.525884"},{"town":"幸町三丁目","lat":"35.757975","lng":"139.520938"},{"town":"小山五丁目","lat":"35.765004","lng":"139.518285"},{"town":"小山三丁目","lat":"35.766170","lng":"139.524284"},{"town":"氷川台二丁目","lat":"35.767973","lng":"139.531724"},{"town":"神宝町一丁目","lat":"35.765342","lng":"139.543878"},{"town":"金山町二丁目","lat":"35.767186","lng":"139.540591"},{"town":"金山町一丁目","lat":"35.767767","lng":"139.537328"},{"town":"東本町","lat":"35.762263","lng":"139.534126"},{"town":"大門町一丁目","lat":"35.763632","lng":"139.537567"},{"town":"新川町二丁目","lat":"35.760941","lng":"139.541204"},{"town":"大門町二丁目","lat":"35.763921","lng":"139.541236"},{"town":"浅間町二丁目","lat":"35.759358","lng":"139.542706"}]