[{"town":"虎ノ門二丁目","lat":"35.668490","lng":"139.746192"},{"town":"虎ノ門三丁目","lat":"35.664316","lng":"139.747076"},{"town":"芝公園四丁目","lat":"35.656459","lng":"139.747640"},{"town":"芝三丁目","lat":"35.652330","lng":"139.747302"},{"town":"港南一丁目","lat":"35.634002","lng":"139.745217"},{"town":"芝五丁目","lat":"35.647133","lng":"139.746672"},{"town":"港南三丁目","lat":"35.633695","lng":"139.750679"},{"town":"港南四丁目","lat":"35.627402","lng":"139.749308"},{"town":"芝浦四丁目","lat":"35.639747","lng":"139.747114"},{"town":"芝公園三丁目","lat":"35.659943","lng":"139.747207"},{"town":"西新橋一丁目","lat":"35.668733","lng":"139.753194"},{"town":"虎ノ門一丁目","lat":"35.668358","lng":"139.749670"},{"town":"南青山一丁目","lat":"35.669694","lng":"139.725231"},{"town":"赤坂一丁目","lat":"35.668589","lng":"139.742334"},{"town":"赤坂二丁目","lat":"35.671044","lng":"139.740230"},{"town":"赤坂六丁目","lat":"35.669375","lng":"139.735460"},{"town":"赤坂七丁目","lat":"35.671874","lng":"139.730820"},{"town":"赤坂八丁目","lat":"35.670737","lng":"139.728190"},{"town":"北青山二丁目","lat":"35.671934","lng":"139.717754"},{"town":"南青山二丁目","lat":"35.667311","lng":"139.721885"},{"town":"台場一丁目","lat":"35.630728","lng":"139.777935"},{"town":"港南五丁目","lat":"35.629030","lng":"139.756164"},{"town":"台場二丁目","lat":"35.627220","lng":"139.775903"},{"town":"芝大門二丁目","lat":"35.655059","lng":"139.753450"},{"town":"浜松町二丁目","lat":"35.654862","lng":"139.755988"},{"town":"海岸三丁目","lat":"35.640807","lng":"139.756877"},{"town":"芝二丁目","lat":"35.651338","lng":"139.751694"},{"town":"芝大門一丁目","lat":"35.658587","lng":"139.753717"},{"town":"芝浦二丁目","lat":"35.644311","lng":"139.753836"},{"town":"浜松町一丁目","lat":"35.658570","lng":"139.756545"},{"town":"芝四丁目","lat":"35.648289","lng":"139.750856"},{"town":"芝一丁目","lat":"35.650981","lng":"139.754769"},{"town":"海岸二丁目","lat":"35.649120","lng":"139.758877"},{"town":"芝公園一丁目","lat":"35.658930","lng":"139.751417"},{"town":"芝公園二丁目","lat":"35.655131","lng":"139.751235"},{"town":"海岸一丁目","lat":"35.655382","lng":"139.761674"},{"town":"愛宕二丁目","lat":"35.662850","lng":"139.748214"},{"town":"愛宕一丁目","lat":"35.665137","lng":"139.748954"},{"town":"西新橋二丁目","lat":"35.666230","lng":"139.752068"},{"town":"新橋三丁目","lat":"35.665577","lng":"139.756020"},{"town":"新橋五丁目","lat":"35.663089","lng":"139.755002"},{"town":"新橋六丁目","lat":"35.661557","lng":"139.754002"},{"town":"西新橋三丁目","lat":"35.663308","lng":"139.751064"},{"town":"東新橋二丁目","lat":"35.661959","lng":"139.757566"},{"town":"新橋四丁目","lat":"35.664373","lng":"139.755933"},{"town":"東新橋一丁目","lat":"35.663118","lng":"139.760581"},{"town":"新橋一丁目","lat":"35.667928","lng":"139.758186"},{"town":"新橋二丁目","lat":"35.666859","lng":"139.757097"},{"town":"高輪四丁目","lat":"35.626603","lng":"139.734492"},{"town":"港南二丁目","lat":"35.630932","lng":"139.739703"},{"town":"高輪三丁目","lat":"35.631804","lng":"139.734338"},{"town":"白金台二丁目","lat":"35.633709","lng":"139.728821"},{"town":"三田五丁目","lat":"35.646225","lng":"139.737808"},{"town":"白金台一丁目","lat":"35.638635","lng":"139.729889"},{"town":"高輪二丁目","lat":"35.637421","lng":"139.736881"},{"town":"三田三丁目","lat":"35.644006","lng":"139.742887"},{"town":"白金台四丁目","lat":"35.639386","lng":"139.725425"},{"town":"白金二丁目","lat":"35.641430","lng":"139.731075"},{"town":"南麻布一丁目","lat":"35.650887","lng":"139.734381"},{"town":"白金三丁目","lat":"35.645460","lng":"139.729791"},{"town":"白金五丁目","lat":"35.645681","lng":"139.725504"},{"town":"白金六丁目","lat":"35.642922","lng":"139.723219"},{"town":"白金四丁目","lat":"35.642283","lng":"139.727212"},{"town":"白金台五丁目","lat":"35.639007","lng":"139.719776"},{"town":"白金台三丁目","lat":"35.636067","lng":"139.725289"},{"town":"高輪一丁目","lat":"35.640556","lng":"139.735173"},{"town":"三田四丁目","lat":"35.643982","lng":"139.739059"},{"town":"虎ノ門四丁目","lat":"35.664891","lng":"139.744312"},{"town":"虎ノ門五丁目","lat":"35.662526","lng":"139.743383"},{"town":"三田二丁目","lat":"35.649890","lng":"139.741212"},{"town":"三田一丁目","lat":"35.653812","lng":"139.741333"},{"town":"麻布永坂町","lat":"35.658675","lng":"139.737656"},{"town":"東麻布一丁目","lat":"35.656698","lng":"139.743777"},{"town":"麻布台三丁目","lat":"35.660300","lng":"139.738665"},{"town":"麻布十番三丁目","lat":"35.653226","lng":"139.735398"},{"town":"元麻布一丁目","lat":"35.654041","lng":"139.732684"},{"town":"麻布十番一丁目","lat":"35.656675","lng":"139.735092"},{"town":"東麻布二丁目","lat":"35.656770","lng":"139.740858"},{"town":"東麻布三丁目","lat":"35.656688","lng":"139.738027"},{"town":"麻布台二丁目","lat":"35.658810","lng":"139.741804"},{"town":"麻布狸穴町","lat":"35.658991","lng":"139.739569"},{"town":"麻布台一丁目","lat":"35.661402","lng":"139.740223"},{"town":"六本木五丁目","lat":"35.660125","lng":"139.734790"},{"town":"六本木一丁目","lat":"35.665061","lng":"139.740792"},{"town":"六本木二丁目","lat":"35.667062","lng":"139.737154"},{"town":"六本木三丁目","lat":"35.664291","lng":"139.736423"},{"town":"元麻布二丁目","lat":"35.653847","lng":"139.728961"},{"town":"南麻布二丁目","lat":"35.648408","lng":"139.735246"},{"town":"西麻布四丁目","lat":"35.657685","lng":"139.721105"},{"town":"白金一丁目","lat":"35.645080","lng":"139.733413"},{"town":"南麻布三丁目","lat":"35.649553","lng":"139.730211"},{"town":"麻布十番二丁目","lat":"35.655129","lng":"139.735594"},{"town":"麻布十番四丁目","lat":"35.654007","lng":"139.737236"},{"town":"西麻布三丁目","lat":"35.657912","lng":"139.725535"},{"town":"元麻布三丁目","lat":"35.656839","lng":"139.729908"},{"town":"南麻布五丁目","lat":"35.653403","lng":"139.724530"},{"town":"南麻布四丁目","lat":"35.648895","lng":"139.725718"},{"town":"六本木六丁目","lat":"35.660329","lng":"139.730276"},{"town":"西麻布一丁目","lat":"35.661226","lng":"139.725358"},{"town":"六本木四丁目","lat":"35.665258","lng":"139.734204"},{"town":"赤坂九丁目","lat":"35.666781","lng":"139.730545"},{"town":"六本木七丁目","lat":"35.664226","lng":"139.727698"},{"town":"南青山五丁目","lat":"35.662407","lng":"139.713257"},{"town":"西麻布二丁目","lat":"35.661899","lng":"139.720294"},{"town":"南青山七丁目","lat":"35.657935","lng":"139.716144"},{"town":"北青山三丁目","lat":"35.666180","lng":"139.712093"},{"town":"南青山三丁目","lat":"35.666489","lng":"139.715334"},{"town":"南青山六丁目","lat":"35.660852","lng":"139.716026"},{"town":"南青山四丁目","lat":"35.664851","lng":"139.718008"},{"town":"北青山一丁目","lat":"35.675375","lng":"139.720943"},{"town":"赤坂五丁目","lat":"35.672213","lng":"139.734274"},{"town":"赤坂三丁目","lat":"35.675639","lng":"139.737141"},{"town":"元赤坂一丁目","lat":"35.677407","lng":"139.733863"},{"town":"赤坂四丁目","lat":"35.674826","lng":"139.733574"},{"town":"元赤坂二丁目","lat":"35.676738","lng":"139.726932"},{"town":"芝浦三丁目","lat":"35.643973","lng":"139.747836"},{"town":"芝浦一丁目","lat":"35.648744","lng":"139.755448"}]