[{"town":"西砂町一丁目","lat":"35.727354","lng":"139.369860"},{"town":"一番町六丁目","lat":"35.734397","lng":"139.375039"},{"town":"西砂町六丁目","lat":"35.732466","lng":"139.369131"},{"town":"高松町二丁目","lat":"35.705826","lng":"139.420836"},{"town":"柴崎町五丁目","lat":"35.688978","lng":"139.401311"},{"town":"錦町六丁目","lat":"35.686670","lng":"139.417545"},{"town":"錦町二丁目","lat":"35.693605","lng":"139.415406"},{"town":"柴崎町六丁目","lat":"35.687296","lng":"139.407931"},{"town":"富士見町五丁目","lat":"35.694797","lng":"139.401000"},{"town":"錦町三丁目","lat":"35.692585","lng":"139.418446"},{"town":"錦町四丁目","lat":"35.691350","lng":"139.421259"},{"town":"羽衣町三丁目","lat":"35.689780","lng":"139.424786"},{"town":"錦町一丁目","lat":"35.695592","lng":"139.420093"},{"town":"柴崎町三丁目","lat":"35.694558","lng":"139.412302"},{"town":"曙町二丁目","lat":"35.700542","lng":"139.415657"},{"town":"柴崎町二丁目","lat":"35.694938","lng":"139.408690"},{"town":"柴崎町一丁目","lat":"35.694067","lng":"139.404590"},{"town":"錦町五丁目","lat":"35.687619","lng":"139.413092"},{"town":"柴崎町四丁目","lat":"35.690369","lng":"139.406224"},{"town":"富士見町七丁目","lat":"35.691665","lng":"139.398096"},{"town":"富士見町六丁目","lat":"35.692270","lng":"139.391489"},{"town":"富士見町三丁目","lat":"35.697389","lng":"139.392793"},{"town":"富士見町四丁目","lat":"35.696305","lng":"139.398293"},{"town":"富士見町一丁目","lat":"35.700787","lng":"139.396754"},{"town":"泉町","lat":"35.715894","lng":"139.404342"},{"town":"羽衣町一丁目","lat":"35.695772","lng":"139.424837"},{"town":"羽衣町二丁目","lat":"35.694115","lng":"139.427515"},{"town":"栄町二丁目","lat":"35.711271","lng":"139.429642"},{"town":"高松町一丁目","lat":"35.708478","lng":"139.417087"},{"town":"栄町三丁目","lat":"35.709421","lng":"139.425799"},{"town":"栄町一丁目","lat":"35.705792","lng":"139.429781"},{"town":"曙町三丁目","lat":"35.702905","lng":"139.424174"},{"town":"栄町四丁目","lat":"35.711684","lng":"139.424557"},{"town":"栄町五丁目","lat":"35.715814","lng":"139.428250"},{"town":"高松町三丁目","lat":"35.703226","lng":"139.416996"},{"town":"若葉町二丁目","lat":"35.715625","lng":"139.443230"},{"town":"若葉町四丁目","lat":"35.723833","lng":"139.436885"},{"town":"栄町六丁目","lat":"35.715859","lng":"139.422898"},{"town":"幸町一丁目","lat":"35.720257","lng":"139.420826"},{"town":"幸町三丁目","lat":"35.720230","lng":"139.430465"},{"town":"若葉町一丁目","lat":"35.718201","lng":"139.436346"},{"town":"幸町二丁目","lat":"35.720623","lng":"139.425676"},{"town":"柏町一丁目","lat":"35.719672","lng":"139.413810"},{"town":"砂川町五丁目","lat":"35.725257","lng":"139.407189"},{"town":"緑町","lat":"35.707447","lng":"139.404410"},{"town":"上砂町一丁目","lat":"35.719746","lng":"139.391744"},{"town":"上砂町五丁目","lat":"35.730959","lng":"139.391077"},{"town":"富士見町二丁目","lat":"35.699804","lng":"139.402692"},{"town":"曙町一丁目","lat":"35.699440","lng":"139.409026"},{"town":"幸町四丁目","lat":"35.725207","lng":"139.429650"},{"town":"若葉町三丁目","lat":"35.720505","lng":"139.441049"},{"town":"幸町六丁目","lat":"35.729601","lng":"139.422007"},{"town":"幸町五丁目","lat":"35.726485","lng":"139.422299"},{"town":"柏町三丁目","lat":"35.724180","lng":"139.414080"},{"town":"柏町五丁目","lat":"35.731973","lng":"139.413719"},{"town":"柏町四丁目","lat":"35.728415","lng":"139.414158"},{"town":"砂川町四丁目","lat":"35.726906","lng":"139.402478"},{"town":"上砂町二丁目","lat":"35.723342","lng":"139.393419"},{"town":"砂川町六丁目","lat":"35.728509","lng":"139.407592"},{"town":"砂川町二丁目","lat":"35.722839","lng":"139.398093"},{"town":"砂川町一丁目","lat":"35.721960","lng":"139.406158"},{"town":"柏町二丁目","lat":"35.721954","lng":"139.414113"},{"town":"上砂町六丁目","lat":"35.739337","lng":"139.386069"},{"town":"一番町二丁目","lat":"35.726493","lng":"139.378388"},{"town":"一番町一丁目","lat":"35.723420","lng":"139.383550"},{"town":"砂川町三丁目","lat":"35.727318","lng":"139.397638"},{"town":"上砂町四丁目","lat":"35.727175","lng":"139.391443"},{"town":"上砂町三丁目","lat":"35.723058","lng":"139.387978"},{"town":"一番町三丁目","lat":"35.728772","lng":"139.378327"},{"town":"砂川町七丁目","lat":"35.732073","lng":"139.406096"},{"town":"砂川町八丁目","lat":"35.732058","lng":"139.398278"},{"town":"上砂町七丁目","lat":"35.732782","lng":"139.385135"},{"town":"一番町五丁目","lat":"35.732010","lng":"139.374533"},{"town":"一番町四丁目","lat":"35.730529","lng":"139.382258"},{"town":"西砂町四丁目","lat":"35.734433","lng":"139.356986"},{"town":"西砂町三丁目","lat":"35.728642","lng":"139.356196"},{"town":"西砂町二丁目","lat":"35.727635","lng":"139.362234"},{"town":"西砂町五丁目","lat":"35.734221","lng":"139.363847"},{"town":"西砂町七丁目","lat":"35.737443","lng":"139.365145"}]