[{"town":"朝日一丁目","koaza":"","lat":40.767701,"lng":141.372083},{"town":"朝日二丁目","koaza":"","lat":40.764482,"lng":141.367116},{"town":"字古間木山","koaza":"","lat":40.668553,"lng":141.356499},{"town":"泉町一丁目","koaza":"","lat":40.665503,"lng":141.381903},{"town":"泉町二丁目","koaza":"","lat":40.666013,"lng":141.380103},{"town":"五川目一丁目","koaza":"","lat":40.711316,"lng":141.420233},{"town":"五川目二丁目","koaza":"","lat":40.710392,"lng":141.417634},{"town":"五川目三丁目","koaza":"","lat":40.718813,"lng":141.417892},{"town":"五川目四丁目","koaza":"","lat":40.719274,"lng":141.415628},{"town":"大字天ケ森","koaza":"","lat":40.849928,"lng":141.38498},{"town":"大字犬落瀬","koaza":"","lat":40.678735,"lng":141.343653},{"town":"大字大浦","koaza":"","lat":40.71769,"lng":141.322498},{"town":"大字三沢","koaza":"","lat":40.774847,"lng":141.382083},{"town":"大津一丁目","koaza":"","lat":40.680203,"lng":141.414927},{"town":"大津二丁目","koaza":"","lat":40.679585,"lng":141.420249},{"town":"大津三丁目","koaza":"","lat":40.68373,"lng":141.413412},{"town":"大津四丁目","koaza":"","lat":40.684273,"lng":141.420287},{"town":"大町一丁目","koaza":"","lat":40.679053,"lng":141.357472},{"town":"大町二丁目","koaza":"","lat":40.678107,"lng":141.361123},{"town":"大町三丁目","koaza":"","lat":40.675474,"lng":141.359765},{"town":"岡三沢一丁目","koaza":"","lat":40.690119,"lng":141.374605},{"town":"岡三沢二丁目","koaza":"","lat":40.689126,"lng":141.375518},{"town":"岡三沢三丁目","koaza":"","lat":40.687913,"lng":141.374635},{"town":"岡三沢四丁目","koaza":"","lat":40.692354,"lng":141.378827},{"town":"岡三沢五丁目","koaza":"","lat":40.695763,"lng":141.379705},{"town":"岡三沢六丁目","koaza":"","lat":40.696319,"lng":141.3764},{"town":"岡三沢七丁目","koaza":"","lat":40.693512,"lng":141.37501},{"town":"岡三沢八丁目","koaza":"","lat":40.694055,"lng":141.370681},{"town":"織笠一丁目","koaza":"","lat":40.788069,"lng":141.401924},{"town":"織笠二丁目","koaza":"","lat":40.787938,"lng":141.39926},{"town":"織笠三丁目","koaza":"","lat":40.792497,"lng":141.40025},{"town":"織笠四丁目","koaza":"","lat":40.792376,"lng":141.398973},{"town":"春日台一丁目","koaza":"","lat":40.666407,"lng":141.35022},{"town":"春日台二丁目","koaza":"","lat":40.667476,"lng":141.345266},{"town":"春日台三丁目","koaza":"","lat":40.667462,"lng":141.339992},{"town":"上久保一丁目","koaza":"","lat":40.67954,"lng":141.351073},{"town":"上久保二丁目","koaza":"","lat":40.679004,"lng":141.348677},{"town":"上久保三丁目","koaza":"","lat":40.68054,"lng":141.348651},{"town":"上久保四丁目","koaza":"","lat":40.681441,"lng":141.348389},{"town":"越下一丁目","koaza":"","lat":40.799319,"lng":141.355999},{"town":"幸町一丁目","koaza":"","lat":40.685647,"lng":141.36806},{"town":"幸町二丁目","koaza":"","lat":40.684069,"lng":141.372237},{"town":"幸町三丁目","koaza":"","lat":40.686845,"lng":141.370513},{"town":"栄町一丁目","koaza":"","lat":40.673089,"lng":141.360272},{"town":"栄町二丁目","koaza":"","lat":40.67312,"lng":141.36587},{"town":"栄町三丁目","koaza":"","lat":40.671839,"lng":141.362608},{"town":"桜町一丁目","koaza":"","lat":40.6829,"lng":141.369954},{"town":"桜町二丁目","koaza":"","lat":40.680865,"lng":141.368449},{"town":"桜町三丁目","koaza":"","lat":40.68109,"lng":141.372277},{"town":"淋代一丁目","koaza":"","lat":40.725713,"lng":141.415339},{"town":"淋代二丁目","koaza":"","lat":40.725397,"lng":141.413739},{"town":"淋代三丁目","koaza":"","lat":40.732105,"lng":141.414931},{"town":"淋代四丁目","koaza":"","lat":40.731815,"lng":141.411366},{"town":"淋代五丁目","koaza":"","lat":40.738189,"lng":141.41225},{"town":"淋代六丁目","koaza":"","lat":40.738021,"lng":141.409907},{"town":"塩釜一丁目","koaza":"","lat":40.799254,"lng":141.399005},{"town":"塩釜二丁目","koaza":"","lat":40.798476,"lng":141.39711},{"town":"塩釜三丁目","koaza":"","lat":40.804858,"lng":141.3995},{"town":"塩釜四丁目","koaza":"","lat":40.803891,"lng":141.396205},{"town":"鹿中一丁目","koaza":"","lat":40.684271,"lng":141.427756},{"town":"鹿中二丁目","koaza":"","lat":40.684096,"lng":141.425224},{"town":"鹿中三丁目","koaza":"","lat":40.689901,"lng":141.426618},{"town":"鹿中四丁目","koaza":"","lat":40.689163,"lng":141.424012},{"town":"下久保一丁目","koaza":"","lat":40.687868,"lng":141.378649},{"town":"下久保二丁目","koaza":"","lat":40.68808,"lng":141.381986},{"town":"下久保三丁目","koaza":"","lat":40.690304,"lng":141.380765},{"town":"新町二丁目","koaza":"","lat":40.67507,"lng":141.35433},{"town":"新町三丁目","koaza":"","lat":40.676768,"lng":141.35555},{"town":"新町四丁目","koaza":"","lat":40.677824,"lng":141.353226},{"town":"新森一丁目","koaza":"","lat":40.783324,"lng":141.390577},{"town":"新森二丁目","koaza":"","lat":40.785795,"lng":141.389473},{"town":"砂森一丁目","koaza":"","lat":40.826654,"lng":141.393062},{"town":"砂森二丁目","koaza":"","lat":40.830072,"lng":141.392991},{"town":"高野沢一丁目","koaza":"","lat":40.773503,"lng":141.371288},{"town":"高野沢二丁目","koaza":"","lat":40.773173,"lng":141.367119},{"town":"中央町一丁目","koaza":"","lat":40.682715,"lng":141.366707},{"town":"中央町二丁目","koaza":"","lat":40.684214,"lng":141.365708},{"town":"中央町三丁目","koaza":"","lat":40.680632,"lng":141.361452},{"town":"中央町四丁目","koaza":"","lat":40.679424,"lng":141.363886},{"town":"千代田町一丁目","koaza":"","lat":40.669228,"lng":141.363474},{"town":"千代田町二丁目","koaza":"","lat":40.669064,"lng":141.361127},{"town":"千代田町三丁目","koaza":"","lat":40.668246,"lng":141.359953},{"town":"千代田町四丁目","koaza":"","lat":40.667247,"lng":141.359594},{"town":"千代田町五丁目","koaza":"","lat":40.66557,"lng":141.360025},{"town":"富崎一丁目","koaza":"","lat":40.797872,"lng":141.365787},{"town":"富崎二丁目","koaza":"","lat":40.799599,"lng":141.365273},{"town":"根井一丁目","koaza":"","lat":40.758525,"lng":141.375447},{"town":"根井二丁目","koaza":"","lat":40.757972,"lng":141.3738},{"town":"花園町一丁目","koaza":"","lat":40.682542,"lng":141.360336},{"town":"花園町二丁目","koaza":"","lat":40.681747,"lng":141.359023},{"town":"花園町三丁目","koaza":"","lat":40.682659,"lng":141.356522},{"town":"花園町四丁目","koaza":"","lat":40.680942,"lng":141.355964},{"town":"花園町五丁目","koaza":"","lat":40.682,"lng":141.352632},{"town":"東岡三沢一丁目","koaza":"","lat":40.692514,"lng":141.38413},{"town":"東岡三沢二丁目","koaza":"","lat":40.690601,"lng":141.38544},{"town":"東岡三沢三丁目","koaza":"","lat":40.690245,"lng":141.388575},{"town":"東町一丁目","koaza":"","lat":40.677815,"lng":141.374399},{"town":"東町二丁目","koaza":"","lat":40.675892,"lng":141.374396},{"town":"東町三丁目","koaza":"","lat":40.6758,"lng":141.377721},{"town":"東町四丁目","koaza":"","lat":40.677704,"lng":141.377911},{"town":"日の出一丁目","koaza":"","lat":40.67458,"lng":141.381156},{"town":"日の出二丁目","koaza":"","lat":40.672823,"lng":141.380479},{"town":"日の出三丁目","koaza":"","lat":40.673334,"lng":141.386477},{"town":"日の出四丁目","koaza":"","lat":40.67481,"lng":141.385415},{"town":"平畑一丁目","koaza":"","lat":40.688884,"lng":141.36912},{"town":"平畑二丁目","koaza":"","lat":40.69078,"lng":141.371265},{"town":"深谷一丁目","koaza":"","lat":40.675315,"lng":141.396226},{"town":"深谷二丁目","koaza":"","lat":40.674431,"lng":141.390921},{"town":"深谷三丁目","koaza":"","lat":40.677271,"lng":141.390993},{"town":"古間木一丁目","koaza":"","lat":40.67194,"lng":141.343865},{"town":"古間木二丁目","koaza":"","lat":40.672118,"lng":141.338832},{"town":"古間木三丁目","koaza":"","lat":40.675596,"lng":141.341397},{"town":"古間木四丁目","koaza":"","lat":40.679499,"lng":141.339379},{"town":"細谷一丁目","koaza":"","lat":40.75491,"lng":141.409036},{"town":"細谷二丁目","koaza":"","lat":40.754746,"lng":141.406842},{"town":"細谷三丁目","koaza":"","lat":40.758344,"lng":141.40816},{"town":"細谷四丁目","koaza":"","lat":40.758332,"lng":141.405605},{"town":"堀口一丁目","koaza":"","lat":40.685635,"lng":141.37985},{"town":"堀口二丁目","koaza":"","lat":40.683699,"lng":141.380275},{"town":"堀口三丁目","koaza":"","lat":40.685384,"lng":141.383151},{"town":"本町一丁目","koaza":"","lat":40.666559,"lng":141.352997},{"town":"本町二丁目","koaza":"","lat":40.671486,"lng":141.351585},{"town":"本町三丁目","koaza":"","lat":40.671151,"lng":141.353292},{"town":"本町四丁目","koaza":"","lat":40.673555,"lng":141.355913},{"town":"前平一丁目","koaza":"","lat":40.67261,"lng":141.407976},{"town":"前平二丁目","koaza":"","lat":40.673575,"lng":141.411925},{"town":"前平三丁目","koaza":"","lat":40.674688,"lng":141.407808},{"town":"松園町一丁目","koaza":"","lat":40.677222,"lng":141.370944},{"town":"松園町二丁目","koaza":"","lat":40.677547,"lng":141.367169},{"town":"松園町三丁目","koaza":"","lat":40.676003,"lng":141.364436},{"town":"松原町一丁目","koaza":"","lat":40.672883,"lng":141.376337},{"town":"松原町二丁目","koaza":"","lat":40.667999,"lng":141.376302},{"town":"三川目一丁目","koaza":"","lat":40.671428,"lng":141.432116},{"town":"三川目二丁目","koaza":"","lat":40.672096,"lng":141.426996},{"town":"三川目三丁目","koaza":"","lat":40.676806,"lng":141.430691},{"town":"三川目四丁目","koaza":"","lat":40.677307,"lng":141.427568},{"town":"緑町一丁目","koaza":"","lat":40.685981,"lng":141.373475},{"town":"緑町二丁目","koaza":"","lat":40.684306,"lng":141.37535},{"town":"緑町三丁目","koaza":"","lat":40.685897,"lng":141.376186},{"town":"港町一丁目","koaza":"","lat":40.67825,"lng":141.43433},{"town":"港町二丁目","koaza":"","lat":40.681493,"lng":141.433334},{"town":"南町一丁目","koaza":"","lat":40.67306,"lng":141.368251},{"town":"南町二丁目","koaza":"","lat":40.67339,"lng":141.371991},{"town":"南町三丁目","koaza":"","lat":40.670468,"lng":141.370229},{"town":"南町四丁目","koaza":"","lat":40.667651,"lng":141.370686},{"town":"南山一丁目","koaza":"","lat":40.680973,"lng":141.398105},{"town":"南山二丁目","koaza":"","lat":40.681185,"lng":141.394091},{"town":"南山三丁目","koaza":"","lat":40.678021,"lng":141.39859},{"town":"南山四丁目","koaza":"","lat":40.678552,"lng":141.393211},{"town":"美野原一丁目","koaza":"","lat":40.68309,"lng":141.376599},{"town":"美野原二丁目","koaza":"","lat":40.681213,"lng":141.376707},{"town":"美野原三丁目","koaza":"","lat":40.679458,"lng":141.376731},{"town":"六川目一丁目","koaza":"","lat":40.763701,"lng":141.40684},{"town":"六川目二丁目","koaza":"","lat":40.762934,"lng":141.404496},{"town":"六川目三丁目","koaza":"","lat":40.76873,"lng":141.406995},{"town":"六川目四丁目","koaza":"","lat":40.767947,"lng":141.404094},{"town":"六川目五丁目","koaza":"","lat":40.774026,"lng":141.404158},{"town":"六川目六丁目","koaza":"","lat":40.773917,"lng":141.402114},{"town":"六川目七丁目","koaza":"","lat":40.778191,"lng":141.403093},{"town":"六川目八丁目","koaza":"","lat":40.778098,"lng":141.399812},{"town":"谷地頭一丁目","koaza":"","lat":40.782015,"lng":141.369424},{"town":"谷地頭二丁目","koaza":"","lat":40.779907,"lng":141.361452},{"town":"谷地頭三丁目","koaza":"","lat":40.791255,"lng":141.367217},{"town":"谷地頭四丁目","koaza":"","lat":40.790273,"lng":141.361391},{"town":"八幡一丁目","koaza":"","lat":40.801432,"lng":141.356505},{"town":"八幡二丁目","koaza":"","lat":40.80357,"lng":141.35606},{"town":"四川目一丁目","koaza":"","lat":40.695425,"lng":141.42483},{"town":"四川目二丁目","koaza":"","lat":40.694113,"lng":141.422463},{"town":"四川目三丁目","koaza":"","lat":40.69998,"lng":141.424013},{"town":"四川目四丁目","koaza":"","lat":40.699548,"lng":141.420451},{"town":"四川目五丁目","koaza":"","lat":40.704771,"lng":141.42199},{"town":"四川目六丁目","koaza":"","lat":40.704507,"lng":141.419309},{"town":"春日台四丁目","koaza":"","lat":40.66384,"lng":141.344403},{"town":"大字三沢","koaza":"猫又","lat":40.688939,"lng":141.345862},{"town":"大字三沢","koaza":"平畑","lat":40.698466,"lng":141.338808},{"town":"大字犬落瀬","koaza":"古間木","lat":40.673574,"lng":141.343497},{"town":"大字三沢","koaza":"上久保","lat":40.677107,"lng":141.353605},{"town":"大字三沢","koaza":"淋代平","lat":40.739669,"lng":141.375744},{"town":"大字三沢","koaza":"早稲田","lat":40.758837,"lng":141.363729},{"town":"大字三沢","koaza":"後久保","lat":40.696511,"lng":141.373057},{"town":"大字三沢","koaza":"戸崎","lat":40.748309,"lng":141.384693},{"town":"大字三沢","koaza":"庭構","lat":40.805039,"lng":141.383271},{"town":"大字三沢","koaza":"堀口","lat":40.679781,"lng":141.39074},{"town":"大字天ケ森","koaza":"天ケ森","lat":40.850962,"lng":141.386764},{"town":"大字三沢","koaza":"下久保","lat":40.684553,"lng":141.386672},{"town":"大字三沢","koaza":"下沢","lat":40.70138,"lng":141.39607},{"town":"大字三沢","koaza":"南山","lat":40.687107,"lng":141.39027},{"town":"大字三沢","koaza":"上屋敷","lat":40.692903,"lng":141.402034},{"town":"大字三沢","koaza":"前平","lat":40.672143,"lng":141.403734},{"town":"大字三沢","koaza":"横沢","lat":40.69649,"lng":141.398365},{"town":"大字三沢","koaza":"園沢","lat":40.682679,"lng":141.402011},{"town":"さつきケ丘一丁目","koaza":"","lat":40.67331,"lng":141.400575},{"town":"大字三沢","koaza":"山ノ神","lat":40.691406,"lng":141.402254},{"town":"大字三沢","koaza":"上野","lat":40.708795,"lng":141.400794},{"town":"大字三沢","koaza":"下堀","lat":40.695421,"lng":141.411687},{"town":"大字三沢","koaza":"向平","lat":40.6994,"lng":141.412383},{"town":"大字三沢","koaza":"下野","lat":40.70486,"lng":141.416294},{"town":"大字三沢","koaza":"山下","lat":40.694687,"lng":141.412189},{"town":"大字三沢","koaza":"水筒","lat":40.691127,"lng":141.416245},{"town":"大字三沢","koaza":"大津","lat":40.687381,"lng":141.415664},{"town":"大字三沢","koaza":"流平","lat":40.672459,"lng":141.42078},{"town":"大字三沢","koaza":"小山田","lat":40.718095,"lng":141.344451},{"town":"大字三沢","koaza":"北山","lat":40.70953,"lng":141.388137},{"town":"大字三沢","koaza":"中平","lat":40.689728,"lng":141.406037},{"town":"大字三沢","koaza":"浜通","lat":40.669869,"lng":141.433997}]