[{"town":"字赤川向","koaza":"","lat":40.753548,"lng":141.248806},{"town":"字荒熊内","koaza":"","lat":40.723483,"lng":141.149824},{"town":"字荒屋","koaza":"","lat":40.669272,"lng":141.148048},{"town":"字有田沢","koaza":"","lat":40.679826,"lng":141.121441},{"town":"字家ノ裏","koaza":"","lat":40.745808,"lng":141.178015},{"town":"字家ノ上","koaza":"","lat":40.747531,"lng":141.174326},{"town":"字家ノ下","koaza":"","lat":40.747451,"lng":141.179019},{"town":"字家ノ志茂","koaza":"","lat":40.761787,"lng":141.158644},{"town":"字家ノ前","koaza":"","lat":40.736495,"lng":141.160211},{"town":"字市ノ渡","koaza":"","lat":40.758284,"lng":141.092023},{"town":"字銀南木","koaza":"","lat":40.725415,"lng":141.073183},{"town":"字猪ノ鼻","koaza":"","lat":40.762138,"lng":141.174225},{"town":"字上ノ山","koaza":"","lat":40.694009,"lng":141.140502},{"town":"字上屋田","koaza":"","lat":40.690168,"lng":141.137963},{"town":"字後川原","koaza":"","lat":40.695859,"lng":141.139442},{"town":"字後平","koaza":"","lat":40.779123,"lng":141.155018},{"town":"字内ノ沢","koaza":"","lat":40.776026,"lng":141.136413},{"town":"字宇道坂","koaza":"","lat":40.700601,"lng":141.138105},{"town":"字姥沢","koaza":"","lat":40.768189,"lng":141.240559},{"town":"字海内","koaza":"","lat":40.692876,"lng":141.136987},{"town":"字上町野","koaza":"","lat":40.704285,"lng":141.154435},{"town":"字犹花","koaza":"","lat":40.706722,"lng":141.177388},{"town":"字榎林家ノ後","koaza":"","lat":40.741808,"lng":141.214296},{"town":"字榎林家ノ前","koaza":"","lat":40.73726,"lng":141.216601},{"town":"字榎林小川向","koaza":"","lat":40.765885,"lng":141.253103},{"town":"字榎林中田","koaza":"","lat":40.730179,"lng":141.217352},{"town":"字榎林古屋敷","koaza":"","lat":40.771835,"lng":141.241838},{"town":"字榎林前田","koaza":"","lat":40.737874,"lng":141.229257},{"town":"字夷堂","koaza":"","lat":40.736264,"lng":141.213306},{"town":"字大池","koaza":"","lat":40.702873,"lng":141.168381},{"town":"字大川向","koaza":"","lat":40.75142,"lng":141.180981},{"town":"字大沢","koaza":"","lat":40.717833,"lng":141.164014},{"town":"字太田","koaza":"","lat":40.688785,"lng":141.168786},{"town":"字大平","koaza":"","lat":40.761257,"lng":141.14935},{"town":"字太田野","koaza":"","lat":40.693438,"lng":141.165701},{"town":"字大林","koaza":"","lat":40.684339,"lng":141.153146},{"town":"字大渡","koaza":"","lat":40.731917,"lng":141.232752},{"town":"字尾山頭","koaza":"","lat":40.800279,"lng":141.124672},{"town":"字小山川原","koaza":"","lat":40.678853,"lng":141.11516},{"town":"字貝塚家ノ前","koaza":"","lat":40.751886,"lng":141.229877},{"town":"字貝ノ口","koaza":"","lat":40.701902,"lng":141.146249},{"town":"字影津内","koaza":"","lat":40.699612,"lng":141.161719},{"town":"字鍛治林","koaza":"","lat":40.701846,"lng":141.12057},{"town":"字金沢平","koaza":"","lat":40.761827,"lng":141.140158},{"town":"字上川原","koaza":"","lat":40.769169,"lng":141.142476},{"town":"字上志多","koaza":"","lat":40.798191,"lng":141.105644},{"town":"字上平","koaza":"","lat":40.778679,"lng":141.137888},{"town":"字上田坪","koaza":"","lat":40.772087,"lng":141.250483},{"town":"字唐松","koaza":"","lat":40.642318,"lng":141.077773},{"town":"字川口","koaza":"","lat":40.751972,"lng":141.2641},{"town":"字川去","koaza":"","lat":40.679226,"lng":141.16081},{"town":"字川端","koaza":"","lat":40.755497,"lng":141.163696},{"town":"字北天間舘","koaza":"","lat":40.80176,"lng":141.134834},{"town":"字倉岡","koaza":"","lat":40.733657,"lng":141.086187},{"town":"字倉越","koaza":"","lat":40.702802,"lng":141.159023},{"town":"字栗ノ木沢","koaza":"","lat":40.765879,"lng":141.105841},{"town":"字五庵ノ下","koaza":"","lat":40.782366,"lng":141.107541},{"town":"字小川口","koaza":"","lat":40.678757,"lng":141.124718},{"town":"字小川向","koaza":"","lat":40.735207,"lng":141.190306},{"town":"字小田下","koaza":"","lat":40.741555,"lng":141.187168},{"town":"字小田平","koaza":"","lat":40.740794,"lng":141.184479},{"town":"字小又","koaza":"","lat":40.760659,"lng":141.155684},{"town":"字古和備","koaza":"","lat":40.741495,"lng":141.088691},{"town":"字皀","koaza":"","lat":40.748157,"lng":141.188457},{"town":"字賽ノ神","koaza":"","lat":40.646315,"lng":141.133168},{"town":"字竿打川原","koaza":"","lat":40.736738,"lng":141.225697},{"town":"字坂ノ外","koaza":"","lat":40.766817,"lng":141.235669},{"town":"字作田","koaza":"","lat":40.697688,"lng":141.131311},{"town":"字作田道","koaza":"","lat":40.729281,"lng":141.135423},{"town":"字左組","koaza":"","lat":40.701449,"lng":141.094257},{"town":"字桜田","koaza":"","lat":40.700433,"lng":141.1159},{"town":"字哘","koaza":"","lat":40.752094,"lng":141.113247},{"town":"字哘崎","koaza":"","lat":40.7456,"lng":141.13194},{"town":"字哘平","koaza":"","lat":40.74612,"lng":141.12073},{"town":"字淋代","koaza":"","lat":40.774467,"lng":141.123205},{"town":"字笊田","koaza":"","lat":40.697672,"lng":141.16693},{"town":"字笊田川久保","koaza":"","lat":40.698575,"lng":141.164686},{"town":"字地蔵堂","koaza":"","lat":40.735014,"lng":141.220283},{"town":"字下タ川原","koaza":"","lat":40.779914,"lng":141.12375},{"town":"字七戸","koaza":"","lat":40.696638,"lng":141.151648},{"town":"字七戸深山","koaza":"","lat":40.714254,"lng":141.046736},{"town":"字柴舘道ノ下","koaza":"","lat":40.760047,"lng":141.247444},{"town":"字清水頭","koaza":"","lat":40.665782,"lng":141.118827},{"town":"字下モ川原","koaza":"","lat":40.755214,"lng":141.114296},{"town":"字志茂川原","koaza":"","lat":40.788854,"lng":141.101324},{"town":"字下志多","koaza":"","lat":40.7893,"lng":141.11573},{"town":"字下田坪","koaza":"","lat":40.767284,"lng":141.249713},{"town":"字下鳥谷部","koaza":"","lat":40.739894,"lng":141.143486},{"town":"字下見町","koaza":"","lat":40.675725,"lng":141.141464},{"town":"字蛇喰","koaza":"","lat":40.765585,"lng":141.149522},{"town":"字白岩","koaza":"","lat":40.737406,"lng":141.109448},{"town":"字白石","koaza":"","lat":40.78195,"lng":141.115263},{"town":"字城ノ後","koaza":"","lat":40.698807,"lng":141.147902},{"town":"字治部袋","koaza":"","lat":40.734939,"lng":141.116944},{"town":"字李川原","koaza":"","lat":40.781662,"lng":141.128583},{"town":"字李沢家ノ後","koaza":"","lat":40.763707,"lng":141.232902},{"town":"字李沢家ノ前","koaza":"","lat":40.75793,"lng":141.233815},{"town":"字李沢道ノ下","koaza":"","lat":40.757225,"lng":141.240871},{"town":"字西野","koaza":"","lat":40.66833,"lng":141.088321},{"town":"字堰合","koaza":"","lat":40.75489,"lng":141.236762},{"town":"字堰代","koaza":"","lat":40.774797,"lng":141.113596},{"town":"字堰添","koaza":"","lat":40.725246,"lng":141.21388},{"town":"字堰根","koaza":"","lat":40.751934,"lng":141.108252},{"town":"字千刈道ノ上","koaza":"","lat":40.739647,"lng":141.236512},{"town":"字千刈道ノ下","koaza":"","lat":40.735152,"lng":141.239281},{"town":"字蒼前","koaza":"","lat":40.692297,"lng":141.15983},{"town":"字底田","koaza":"","lat":40.744262,"lng":141.102265},{"town":"字卒古沢","koaza":"","lat":40.775612,"lng":141.175814},{"town":"字卒古沢南平","koaza":"","lat":40.750429,"lng":141.202563},{"town":"字高井名","koaza":"","lat":40.739936,"lng":141.124133},{"town":"字高屋敷","koaza":"","lat":40.690204,"lng":141.119766},{"town":"字舘野","koaza":"","lat":40.688907,"lng":141.155974},{"town":"字立野頭","koaza":"","lat":40.708215,"lng":141.164958},{"town":"字舘ノ下","koaza":"","lat":40.750467,"lng":141.165754},{"town":"字舘向","koaza":"","lat":40.753002,"lng":141.174405},{"town":"字塚長根","koaza":"","lat":40.741097,"lng":141.206396},{"town":"字槻木沢","koaza":"","lat":40.655196,"lng":141.128475},{"town":"字附田家ノ前","koaza":"","lat":40.740963,"lng":141.19876},{"town":"字附田川目","koaza":"","lat":40.739912,"lng":141.202328},{"town":"字附田向","koaza":"","lat":40.73102,"lng":141.210496},{"town":"字附田向川目","koaza":"","lat":40.73408,"lng":141.213402},{"town":"字坪川原","koaza":"","lat":40.76918,"lng":141.137946},{"town":"字鶴打田","koaza":"","lat":40.695706,"lng":141.118754},{"town":"字鶴児平","koaza":"","lat":40.703131,"lng":141.127527},{"town":"字手代森","koaza":"","lat":40.732247,"lng":141.150701},{"town":"字寺裏","koaza":"","lat":40.697764,"lng":141.15619},{"town":"字寺沢前","koaza":"","lat":40.746989,"lng":141.195966},{"town":"字寺下","koaza":"","lat":40.637464,"lng":141.100974},{"town":"字寺下山","koaza":"","lat":40.640525,"lng":141.091901},{"town":"字天神林","koaza":"","lat":40.689945,"lng":141.150872},{"town":"字天王","koaza":"","lat":40.705942,"lng":141.152258},{"town":"字天間舘荒谷","koaza":"","lat":40.746137,"lng":141.185412},{"town":"字天間舘大沢","koaza":"","lat":40.761206,"lng":141.130068},{"town":"字天間舘寒水","koaza":"","lat":40.775683,"lng":141.131064},{"town":"字天間舘倉越","koaza":"","lat":40.750333,"lng":141.105724},{"town":"字天間舘前川原","koaza":"","lat":40.767698,"lng":141.153446},{"town":"字道地","koaza":"","lat":40.66371,"lng":141.068897},{"town":"字十枝内","koaza":"","lat":40.750739,"lng":141.126912},{"town":"字十役野","koaza":"","lat":40.706268,"lng":141.144572},{"town":"字豊間内","koaza":"","lat":40.711496,"lng":141.159329},{"town":"字鳥谷部","koaza":"","lat":40.739014,"lng":141.13723},{"town":"字中岫","koaza":"","lat":40.689879,"lng":141.130743},{"town":"字中岫太田嶋","koaza":"","lat":40.720236,"lng":141.204819},{"town":"字中岫長沢下","koaza":"","lat":40.714774,"lng":141.184692},{"town":"字中岫花松下","koaza":"","lat":40.723809,"lng":141.211449},{"town":"字中岫番屋","koaza":"","lat":40.718931,"lng":141.201218},{"town":"字中岫東道添","koaza":"","lat":40.720616,"lng":141.195875},{"town":"字中岫村ノ上","koaza":"","lat":40.715909,"lng":141.192356},{"town":"字長久保","koaza":"","lat":40.644868,"lng":141.103377},{"town":"字中田","koaza":"","lat":40.661559,"lng":141.12726},{"town":"字中天間舘","koaza":"","lat":40.775193,"lng":141.126761},{"town":"字中鳥谷","koaza":"","lat":40.735269,"lng":141.143805},{"town":"字中野","koaza":"","lat":40.739118,"lng":141.163466},{"town":"字中村","koaza":"","lat":40.660351,"lng":141.138057},{"town":"字中屋敷","koaza":"","lat":40.683387,"lng":141.140296},{"town":"字夏間木","koaza":"","lat":40.755605,"lng":141.126928},{"town":"字夏焼","koaza":"","lat":40.681117,"lng":141.143173},{"town":"字西上川原","koaza":"","lat":40.697632,"lng":141.142915},{"town":"字西槻木","koaza":"","lat":40.683049,"lng":141.121339},{"town":"字沼頭","koaza":"","lat":40.728191,"lng":141.212928},{"town":"字沼尻","koaza":"","lat":40.729713,"lng":141.224171},{"town":"字沼ノ沢","koaza":"","lat":40.649794,"lng":141.146575},{"town":"字根間手","koaza":"","lat":40.739114,"lng":141.194704},{"town":"字野左掛","koaza":"","lat":40.654586,"lng":141.083815},{"town":"字野左掛山","koaza":"","lat":40.642671,"lng":141.131263},{"town":"字野崎","koaza":"","lat":40.726431,"lng":141.199526},{"town":"字野崎揚地北","koaza":"","lat":40.731383,"lng":141.206917},{"town":"字野崎上田","koaza":"","lat":40.729057,"lng":141.195806},{"town":"字野崎狐久保","koaza":"","lat":40.724799,"lng":141.176776},{"town":"字野崎境田","koaza":"","lat":40.732039,"lng":141.196079},{"town":"字野崎樋場","koaza":"","lat":40.730931,"lng":141.202172},{"town":"字野崎前平","koaza":"","lat":40.724498,"lng":141.193384},{"town":"字野崎森ノ下","koaza":"","lat":40.721362,"lng":141.190324},{"town":"字野続","koaza":"","lat":40.701068,"lng":141.142792},{"town":"字萩ノ沢","koaza":"","lat":40.677652,"lng":141.108799},{"town":"字橋ノ上","koaza":"","lat":40.734476,"lng":141.158062},{"town":"字橋向","koaza":"","lat":40.734577,"lng":141.224799},{"town":"字八幡下","koaza":"","lat":40.733801,"lng":141.10293},{"town":"字八幡岳","koaza":"","lat":40.705319,"lng":141.031226},{"town":"字鉢森平","koaza":"","lat":40.752687,"lng":141.216741},{"town":"字八栗平","koaza":"","lat":40.674114,"lng":141.10252},{"town":"字八ケ田","koaza":"","lat":40.688289,"lng":141.114275},{"town":"字八尺堂","koaza":"","lat":40.692534,"lng":141.1236},{"town":"字放森","koaza":"","lat":40.72964,"lng":141.116889},{"town":"字花松林ノ根","koaza":"","lat":40.723729,"lng":141.205458},{"town":"字原久保","koaza":"","lat":40.729193,"lng":141.170355},{"town":"字東上川原","koaza":"","lat":40.694457,"lng":141.153653},{"town":"字東槻木","koaza":"","lat":40.69428,"lng":141.159735},{"town":"字東天間舘","koaza":"","lat":40.758957,"lng":141.104463},{"town":"字膝森","koaza":"","lat":40.710233,"lng":141.174937},{"town":"字寒水","koaza":"","lat":40.713294,"lng":141.16648},{"town":"字二ツ森家ノ後","koaza":"","lat":40.748976,"lng":141.239954},{"town":"字二ツ森家ノ表","koaza":"","lat":40.741685,"lng":141.241814},{"town":"字二ツ森家ノ下","koaza":"","lat":40.746426,"lng":141.245674},{"town":"字不動向","koaza":"","lat":40.686603,"lng":141.142121},{"town":"字舟場向川久保","koaza":"","lat":40.760258,"lng":141.188704},{"town":"字古屋敷","koaza":"","lat":40.731413,"lng":141.104206},{"town":"字別曽","koaza":"","lat":40.671014,"lng":141.116704},{"town":"字蛇坂","koaza":"","lat":40.708632,"lng":141.150205},{"town":"字細松","koaza":"","lat":40.735697,"lng":141.128927},{"town":"字菩提木","koaza":"","lat":40.795901,"lng":141.133403},{"town":"字堀切","koaza":"","lat":40.735471,"lng":141.20253},{"town":"字前川原","koaza":"","lat":40.692706,"lng":141.14815},{"town":"字前左野","koaza":"","lat":40.766598,"lng":141.244589},{"town":"字前田","koaza":"","lat":40.685268,"lng":141.124987},{"town":"字馬門川原","koaza":"","lat":40.705722,"lng":141.100975},{"town":"字町","koaza":"","lat":40.697829,"lng":141.154675},{"town":"字松ヶ沢","koaza":"","lat":40.751542,"lng":141.139668},{"town":"字道ノ上","koaza":"","lat":40.746032,"lng":141.152798},{"town":"字道ノ下","koaza":"","lat":40.736956,"lng":141.17302},{"town":"字南舘向","koaza":"","lat":40.751325,"lng":141.175583},{"town":"字南天間舘","koaza":"","lat":40.736712,"lng":140.960904},{"town":"字都平","koaza":"","lat":40.682849,"lng":141.1081},{"town":"字見町","koaza":"","lat":40.671837,"lng":141.134452},{"town":"字向川原","koaza":"","lat":40.785334,"lng":141.119676},{"town":"字向田","koaza":"","lat":40.690822,"lng":141.149498},{"town":"字向平","koaza":"","lat":40.726738,"lng":141.105902},{"town":"字向中野川向","koaza":"","lat":40.744253,"lng":141.14849},{"town":"字森ヶ沢","koaza":"","lat":40.752751,"lng":141.156878},{"town":"字森ノ上","koaza":"","lat":40.745521,"lng":141.164616},{"town":"字森ノ下","koaza":"","lat":40.741517,"lng":141.176651},{"town":"字薬師平","koaza":"","lat":40.695237,"lng":141.105186},{"town":"字矢倉","koaza":"","lat":40.676047,"lng":141.128116},{"town":"字柳平","koaza":"","lat":40.789312,"lng":141.131583},{"town":"字簗場川原","koaza":"","lat":40.75224,"lng":141.168549},{"town":"字山舘","koaza":"","lat":40.687928,"lng":141.06162},{"town":"字山屋","koaza":"","lat":40.689917,"lng":141.103882},{"town":"字和田","koaza":"","lat":40.685638,"lng":141.131817},{"town":"字和田下","koaza":"","lat":40.68815,"lng":141.138723},{"town":"字渡ノ上","koaza":"","lat":40.659122,"lng":141.134627},{"town":"字渡向","koaza":"","lat":40.759479,"lng":141.164164},{"town":"字古屋敷","koaza":"原","lat":40.729912,"lng":141.104888}]