[{"town":"大字岩屋","koaza":"","lat":41.370926,"lng":141.397036,"zip":"0350000"},{"town":"大字大利","koaza":"","lat":41.333295,"lng":141.25873,"zip":"0350000"},{"town":"大字小田野沢","koaza":"","lat":41.220557,"lng":141.390168,"zip":"0350000"},{"town":"大字蒲野沢","koaza":"","lat":41.31373,"lng":141.333035,"zip":"0350000"},{"town":"大字猿ケ森","koaza":"","lat":41.282977,"lng":141.389955,"zip":"0350000"},{"town":"大字尻労","koaza":"","lat":41.36437,"lng":141.423508,"zip":"0350000"},{"town":"大字白糠","koaza":"","lat":41.159176,"lng":141.370663,"zip":"0350000"},{"town":"大字尻屋","koaza":"","lat":41.406313,"lng":141.44722,"zip":"0350000"},{"town":"大字砂子又","koaza":"","lat":41.266167,"lng":141.34834,"zip":"0350000"},{"town":"大字田屋","koaza":"","lat":41.267536,"lng":141.292648,"zip":"0350000"},{"town":"大字野牛","koaza":"","lat":41.343176,"lng":141.336742,"zip":"0350000"},{"town":"大字目名","koaza":"","lat":41.301448,"lng":141.298616,"zip":"0350000"}]