[{"town":"字朝日","koaza":"","lat":43.994598,"lng":142.451264},{"town":"字川西","koaza":"","lat":44.001182,"lng":142.37569},{"town":"字菊野","koaza":"","lat":44.037084,"lng":142.344324},{"town":"字北原","koaza":"","lat":44.053116,"lng":142.374509},{"town":"字塩狩","koaza":"","lat":43.963082,"lng":142.413818},{"town":"字北町","koaza":"","lat":44.029059,"lng":142.412296},{"town":"字大成","koaza":"","lat":44.065508,"lng":142.408839},{"town":"字中和","koaza":"","lat":43.986205,"lng":142.375069},{"town":"字東和","koaza":"","lat":44.078698,"lng":142.444324},{"town":"字西町","koaza":"","lat":44.024237,"lng":142.411825},{"town":"字東町","koaza":"","lat":44.026675,"lng":142.41815},{"town":"字日ノ出","koaza":"","lat":44.048466,"lng":142.416546},{"town":"字福原","koaza":"","lat":43.968409,"lng":142.282399},{"town":"字松岡","koaza":"","lat":44.042515,"lng":142.389848},{"town":"字三笠","koaza":"","lat":44.015641,"lng":142.411836},{"town":"字東丘","koaza":"","lat":44.029512,"lng":142.4481},{"town":"字西和","koaza":"","lat":43.998045,"lng":142.286132},{"town":"字三和","koaza":"","lat":44.010037,"lng":142.354153},{"town":"字南町","koaza":"","lat":44.024207,"lng":142.415909},{"town":"字南丘","koaza":"","lat":43.976946,"lng":142.404538}]