[{"town":"一号北","koaza":"","lat":43.705566,"lng":142.542119},{"town":"北七線東","koaza":"","lat":43.713245,"lng":142.592537},{"town":"一号南","koaza":"","lat":43.686986,"lng":142.522535},{"town":"西十号北","koaza":"","lat":43.734285,"lng":142.494022},{"town":"西十一号北","koaza":"","lat":43.735699,"lng":142.487097},{"town":"西二号北","koaza":"","lat":43.708915,"lng":142.536979},{"town":"西二号南","koaza":"","lat":43.689325,"lng":142.518445},{"town":"西三号北","koaza":"","lat":43.712712,"lng":142.532388},{"town":"西四号北","koaza":"","lat":43.724616,"lng":142.536208},{"town":"西十二号北","koaza":"","lat":43.739349,"lng":142.481606},{"town":"西七号北","koaza":"","lat":43.726155,"lng":142.511503},{"town":"西八号北","koaza":"","lat":43.728607,"lng":142.505373},{"town":"西九号北","koaza":"","lat":43.731299,"lng":142.499711},{"town":"西五号北","koaza":"","lat":43.719653,"lng":142.522224},{"town":"東十号北","koaza":"","lat":43.670267,"lng":142.583508},{"town":"東十一号北","koaza":"","lat":43.667875,"lng":142.589385},{"town":"東十一号南","koaza":"","lat":43.655374,"lng":142.575956},{"town":"西六号北","koaza":"","lat":43.724024,"lng":142.518025},{"town":"東十二号南","koaza":"","lat":43.65335,"lng":142.581712},{"town":"東二十号","koaza":"","lat":43.662798,"lng":142.644365},{"town":"東十号南","koaza":"","lat":43.657706,"lng":142.569932},{"town":"東二号南","koaza":"","lat":43.683784,"lng":142.528657},{"town":"東三号北","koaza":"","lat":43.695246,"lng":142.54887},{"town":"東三号南","koaza":"","lat":43.680635,"lng":142.533955},{"town":"東四号北","koaza":"","lat":43.6919,"lng":142.554168},{"town":"東四号南","koaza":"","lat":43.677943,"lng":142.538999},{"town":"東五号南","koaza":"","lat":43.67435,"lng":142.545426},{"town":"東六号北","koaza":"","lat":43.687273,"lng":142.566259},{"town":"東六号南","koaza":"","lat":43.670701,"lng":142.549514},{"town":"東二号北","koaza":"","lat":43.692822,"lng":142.537622},{"town":"東七号南","koaza":"","lat":43.667162,"lng":142.554097},{"town":"東八号北","koaza":"","lat":43.68407,"lng":142.580495},{"town":"東八号南","koaza":"","lat":43.663274,"lng":142.558422},{"town":"東九号北","koaza":"","lat":43.673763,"lng":142.578465},{"town":"東九号南","koaza":"","lat":43.660098,"lng":142.563815},{"town":"東五号北","koaza":"","lat":43.688592,"lng":142.559293},{"town":"東十二号北","koaza":"","lat":43.6727,"lng":142.602626},{"town":"東七号北","koaza":"","lat":43.686674,"lng":142.574292},{"town":"東八号北一丁目","koaza":"","lat":43.669914,"lng":142.563311},{"town":"北町一丁目","koaza":"","lat":43.700291,"lng":142.508734},{"town":"北町十丁目","koaza":"","lat":43.713924,"lng":142.483559},{"town":"北町十一丁目","koaza":"","lat":43.715481,"lng":142.480832},{"town":"北町十二丁目","koaza":"","lat":43.717157,"lng":142.478298},{"town":"北町十三丁目","koaza":"","lat":43.718852,"lng":142.476235},{"town":"北町二丁目","koaza":"","lat":43.701802,"lng":142.505648},{"town":"北町三丁目","koaza":"","lat":43.703282,"lng":142.502759},{"town":"北町四丁目","koaza":"","lat":43.704854,"lng":142.500012},{"town":"北町五丁目","koaza":"","lat":43.706347,"lng":142.497217},{"town":"北町六丁目","koaza":"","lat":43.707978,"lng":142.494596},{"town":"北町七丁目","koaza":"","lat":43.709454,"lng":142.491803},{"town":"北町八丁目","koaza":"","lat":43.710981,"lng":142.489052},{"town":"北町九丁目","koaza":"","lat":43.712346,"lng":142.4858},{"town":"キトウシ西一丁目","koaza":"","lat":43.717611,"lng":142.526565},{"town":"キトウシ南一丁目","koaza":"","lat":43.716151,"lng":142.529091},{"town":"キトウシ南二丁目","koaza":"","lat":43.71453,"lng":142.532018},{"town":"進化台","koaza":"","lat":43.701069,"lng":142.545077},{"town":"西町一丁目","koaza":"","lat":43.695945,"lng":142.503644},{"town":"西町十丁目","koaza":"","lat":43.707735,"lng":142.477039},{"town":"西町十一丁目","koaza":"","lat":43.711164,"lng":142.476282},{"town":"西町十二丁目","koaza":"","lat":43.714266,"lng":142.475101},{"town":"西町二丁目","koaza":"","lat":43.697248,"lng":142.500744},{"town":"西町三丁目","koaza":"","lat":43.698379,"lng":142.497559},{"town":"西町四丁目","koaza":"","lat":43.699431,"lng":142.494316},{"town":"西町五丁目","koaza":"","lat":43.700583,"lng":142.491245},{"town":"西町六丁目","koaza":"","lat":43.701977,"lng":142.488319},{"town":"西町七丁目","koaza":"","lat":43.703019,"lng":142.485064},{"town":"西町八丁目","koaza":"","lat":43.703902,"lng":142.481663},{"town":"西町九丁目","koaza":"","lat":43.704871,"lng":142.478765},{"town":"ノカナン","koaza":"","lat":43.660756,"lng":142.712733},{"town":"東町一丁目","koaza":"","lat":43.698873,"lng":142.512113},{"town":"東町二丁目","koaza":"","lat":43.697236,"lng":142.513745},{"town":"東町三丁目","koaza":"","lat":43.695727,"lng":142.516473},{"town":"東町四丁目","koaza":"","lat":43.693787,"lng":142.519205},{"town":"松山温泉","koaza":"","lat":43.645526,"lng":142.834436},{"town":"南町一丁目","koaza":"","lat":43.694597,"lng":142.506545},{"town":"南町二丁目","koaza":"","lat":43.693358,"lng":142.509635},{"town":"南町三丁目","koaza":"","lat":43.691985,"lng":142.512478},{"town":"南町四丁目","koaza":"","lat":43.690147,"lng":142.515041},{"town":"勇駒別","koaza":"","lat":43.670626,"lng":142.811975}]