[{"town":"字重内","koaza":"","lat":41.614634,"lng":140.383354},{"town":"字小谷石","koaza":"","lat":41.538484,"lng":140.410072},{"town":"字上雷","koaza":"","lat":41.584746,"lng":140.362804},{"town":"字中ノ川","koaza":"","lat":41.651314,"lng":140.401043},{"town":"字元町","koaza":"","lat":41.571497,"lng":140.418316},{"town":"字森越","koaza":"","lat":41.63065,"lng":140.399076},{"town":"字湯ノ里","koaza":"","lat":41.598448,"lng":140.286877},{"town":"字涌元","koaza":"","lat":41.564018,"lng":140.399461}]