[{"town":"安骨","koaza":"","lat":42.762846,"lng":143.545833},{"town":"育素多","koaza":"","lat":42.824926,"lng":143.509232},{"town":"牛首別","koaza":"","lat":42.76227,"lng":143.487849},{"town":"薄別","koaza":"","lat":42.691953,"lng":143.361601},{"town":"打内","koaza":"","lat":42.702299,"lng":143.662039},{"town":"大津","koaza":"","lat":42.685746,"lng":143.629872},{"town":"大津寿町","koaza":"","lat":42.686018,"lng":143.646507},{"town":"大津幸町","koaza":"","lat":42.688669,"lng":143.647819},{"town":"大津港町","koaza":"","lat":42.679006,"lng":143.642367},{"town":"大津元町","koaza":"","lat":42.68974,"lng":143.653859},{"town":"背負","koaza":"","lat":42.745376,"lng":143.518889},{"town":"旅来","koaza":"","lat":42.721914,"lng":143.563355},{"town":"中央新町","koaza":"","lat":42.809516,"lng":143.524235},{"town":"中央若葉町","koaza":"","lat":42.811642,"lng":143.512757},{"town":"長節","koaza":"","lat":42.666927,"lng":143.59625},{"town":"統内","koaza":"","lat":42.851806,"lng":143.429187},{"town":"十弗","koaza":"","lat":42.87595,"lng":143.519541},{"town":"十弗宝町","koaza":"","lat":42.854875,"lng":143.503595},{"town":"豊頃","koaza":"","lat":42.816533,"lng":143.562302},{"town":"豊頃旭町","koaza":"","lat":42.816518,"lng":143.538423},{"town":"豊頃佐々田町","koaza":"","lat":42.818696,"lng":143.540239},{"town":"豊頃南町","koaza":"","lat":42.81118,"lng":143.542164},{"town":"二宮","koaza":"","lat":42.737029,"lng":143.414706},{"town":"農野牛","koaza":"","lat":42.795896,"lng":143.418609},{"town":"北栄","koaza":"","lat":42.856331,"lng":143.480221},{"town":"幌岡","koaza":"","lat":42.781804,"lng":143.568094},{"town":"茂岩","koaza":"","lat":42.797952,"lng":143.491252},{"town":"茂岩栄町","koaza":"","lat":42.796593,"lng":143.510044},{"town":"茂岩新和町","koaza":"","lat":42.807292,"lng":143.503565},{"town":"茂岩末広町","koaza":"","lat":42.794346,"lng":143.503747},{"town":"茂岩本町","koaza":"","lat":42.800789,"lng":143.510766},{"town":"湧洞","koaza":"","lat":42.638903,"lng":143.520079},{"town":"礼作別","koaza":"","lat":42.825762,"lng":143.443377},{"town":"礼文内","koaza":"","lat":42.857543,"lng":143.540078}]