[{"town":"字六郷","koaza":"","lat":44.496039,"lng":142.299988},{"town":"字泉","koaza":"","lat":44.421301,"lng":142.274684},{"town":"字大手","koaza":"","lat":44.578051,"lng":142.306198},{"town":"字小車","koaza":"","lat":44.601541,"lng":142.240686},{"town":"字恩根内","koaza":"","lat":44.618973,"lng":142.35142},{"town":"字開運町","koaza":"","lat":44.482916,"lng":142.350082},{"town":"字北町","koaza":"","lat":44.48873,"lng":142.346537},{"town":"字川西","koaza":"","lat":44.468088,"lng":142.31452},{"town":"字楠","koaza":"","lat":44.629045,"lng":142.280324},{"town":"字敷島","koaza":"","lat":44.496189,"lng":142.350178},{"town":"字清水","koaza":"","lat":44.647712,"lng":142.300513},{"town":"字富岡","koaza":"","lat":44.51625,"lng":142.32065},{"town":"字玉川","koaza":"","lat":44.486283,"lng":142.246814},{"town":"字西里","koaza":"","lat":44.535486,"lng":142.312421},{"town":"字西町","koaza":"","lat":44.483787,"lng":142.339826},{"town":"字斑溪","koaza":"","lat":44.534671,"lng":142.357333},{"town":"字美深","koaza":"","lat":44.471584,"lng":142.360734},{"town":"字菊丘","koaza":"","lat":44.502329,"lng":142.412817},{"town":"字報徳","koaza":"","lat":44.537692,"lng":142.252383},{"town":"字南町","koaza":"","lat":44.478277,"lng":142.354061},{"town":"字紋穂内","koaza":"","lat":44.543653,"lng":142.344631},{"town":"字吉野","koaza":"","lat":44.521484,"lng":142.389553},{"town":"字若松町","koaza":"","lat":44.483093,"lng":142.351742},{"town":"字辺溪","koaza":"","lat":44.488773,"lng":142.453242},{"town":"字仁宇布","koaza":"","lat":44.531017,"lng":142.5486},{"town":"字大通北一丁目","koaza":"","lat":44.482519,"lng":142.346019},{"town":"字大通南一丁目","koaza":"","lat":44.481579,"lng":142.346459},{"town":"字西一条北一丁目","koaza":"","lat":44.481984,"lng":142.344029},{"town":"字西一条南一丁目","koaza":"","lat":44.481183,"lng":142.344788},{"town":"字東一条北一丁目","koaza":"","lat":44.482808,"lng":142.347166},{"town":"字東一条南一丁目","koaza":"","lat":44.481855,"lng":142.347629},{"town":"字東二条北一丁目","koaza":"","lat":44.48305,"lng":142.348127},{"town":"字東二条南一丁目","koaza":"","lat":44.482089,"lng":142.348583},{"town":"字東三条北一丁目","koaza":"","lat":44.483267,"lng":142.349007},{"town":"字東三条南一丁目","koaza":"","lat":44.482305,"lng":142.349466},{"town":"字大通北二丁目","koaza":"","lat":44.483525,"lng":142.345548},{"town":"字大通南二丁目","koaza":"","lat":44.480885,"lng":142.346761},{"town":"字西一条北二丁目","koaza":"","lat":44.483096,"lng":142.343467},{"town":"字西一条南二丁目","koaza":"","lat":44.480491,"lng":142.345023},{"town":"字東一条北二丁目","koaza":"","lat":44.483815,"lng":142.346691},{"town":"字東一条南二丁目","koaza":"","lat":44.48113,"lng":142.347982},{"town":"字東二条北二丁目","koaza":"","lat":44.484051,"lng":142.347648},{"town":"字東二条南二丁目","koaza":"","lat":44.481358,"lng":142.348924},{"town":"字東三条北二丁目","koaza":"","lat":44.484265,"lng":142.348528},{"town":"字東三条南二丁目","koaza":"","lat":44.481515,"lng":142.349795},{"town":"字大通北三丁目","koaza":"","lat":44.484417,"lng":142.345135},{"town":"字大通南三丁目","koaza":"","lat":44.480111,"lng":142.347117},{"town":"字西一条北三丁目","koaza":"","lat":44.484094,"lng":142.343152},{"town":"字西一条南三丁目","koaza":"","lat":44.479877,"lng":142.34569},{"town":"字東一条北三丁目","koaza":"","lat":44.484702,"lng":142.346277},{"town":"字東一条南三丁目","koaza":"","lat":44.48038,"lng":142.348339},{"town":"字東二条北三丁目","koaza":"","lat":44.484997,"lng":142.347287},{"town":"字東二条南三丁目","koaza":"","lat":44.48068,"lng":142.349348},{"town":"字東三条北三丁目","koaza":"","lat":44.485071,"lng":142.348143},{"town":"字東三条南三丁目","koaza":"","lat":44.480738,"lng":142.350173},{"town":"字大通北四丁目","koaza":"","lat":44.485248,"lng":142.34473},{"town":"字大通南四丁目","koaza":"","lat":44.479468,"lng":142.347425},{"town":"字西一条北四丁目","koaza":"","lat":44.484743,"lng":142.342098},{"town":"字西一条南四丁目","koaza":"","lat":44.479297,"lng":142.345635},{"town":"字東一条北四丁目","koaza":"","lat":44.485541,"lng":142.345863},{"town":"字東一条南四丁目","koaza":"","lat":44.479759,"lng":142.348633},{"town":"字東二条北四丁目","koaza":"","lat":44.485822,"lng":142.34681},{"town":"字東二条南四丁目","koaza":"","lat":44.479988,"lng":142.349592},{"town":"字東三条北四丁目","koaza":"","lat":44.485764,"lng":142.347636},{"town":"字東三条南四丁目","koaza":"","lat":44.480189,"lng":142.35044},{"town":"字東四条北四丁目","koaza":"","lat":44.486037,"lng":142.348492},{"town":"字大通北五丁目","koaza":"","lat":44.485852,"lng":142.344398},{"town":"字西一条北五丁目","koaza":"","lat":44.485852,"lng":142.342278},{"town":"字東一条北五丁目","koaza":"","lat":44.486057,"lng":142.345276},{"town":"字東二条北五丁目","koaza":"","lat":44.486268,"lng":142.346074},{"town":"字東三条北五丁目","koaza":"","lat":44.486457,"lng":142.347158},{"town":"字東四条北五丁目","koaza":"","lat":44.48688,"lng":142.34863},{"town":"字東五条北五丁目","koaza":"","lat":44.48729,"lng":142.350282},{"town":"字大通北六丁目","koaza":"","lat":44.486312,"lng":142.344012},{"town":"字東一条北六丁目","koaza":"","lat":44.486625,"lng":142.345271},{"town":"字東二条北六丁目","koaza":"","lat":44.486817,"lng":142.346129},{"town":"字東三条北六丁目","koaza":"","lat":44.487014,"lng":142.34695},{"town":"字東四条北六丁目","koaza":"","lat":44.487379,"lng":142.34839},{"town":"字東五条北六丁目","koaza":"","lat":44.487793,"lng":142.350038},{"town":"字大通北七丁目","koaza":"","lat":44.486871,"lng":142.343867},{"town":"字東一条北七丁目","koaza":"","lat":44.4871,"lng":142.345035},{"town":"字東二条北七丁目","koaza":"","lat":44.487309,"lng":142.345886},{"town":"字東三条北七丁目","koaza":"","lat":44.487506,"lng":142.346706},{"town":"字東四条北七丁目","koaza":"","lat":44.487877,"lng":142.348145},{"town":"字東五条北七丁目","koaza":"","lat":44.488311,"lng":142.349788},{"town":"大通南五丁目","koaza":"","lat":44.478788,"lng":142.348159},{"town":"大通南六丁目","koaza":"","lat":44.477596,"lng":142.348795},{"town":"大通南七丁目","koaza":"","lat":44.476358,"lng":142.349331},{"town":"大通南八丁目","koaza":"","lat":44.47523,"lng":142.349766},{"town":"西一条南五丁目","koaza":"","lat":44.478472,"lng":142.34654},{"town":"西一条南六丁目","koaza":"","lat":44.477204,"lng":142.347335},{"town":"西一条南七丁目","koaza":"","lat":44.475914,"lng":142.348365},{"town":"西一条南八丁目","koaza":"","lat":44.474691,"lng":142.348516},{"town":"西二条南四丁目","koaza":"","lat":44.478979,"lng":142.342682},{"town":"西二条南五丁目","koaza":"","lat":44.477591,"lng":142.343344},{"town":"西二条南六丁目","koaza":"","lat":44.476375,"lng":142.344008},{"town":"西二条南七丁目","koaza":"","lat":44.47501,"lng":142.344674},{"town":"西二条南八丁目","koaza":"","lat":44.473877,"lng":142.345217},{"town":"西三条北一丁目","koaza":"","lat":44.480062,"lng":142.338469},{"town":"西三条北二丁目","koaza":"","lat":44.481322,"lng":142.338148},{"town":"西三条北三丁目","koaza":"","lat":44.482506,"lng":142.337574},{"town":"西三条北四丁目","koaza":"","lat":44.483305,"lng":142.337168},{"town":"西三条北五丁目","koaza":"","lat":44.484003,"lng":142.336803},{"town":"西三条北六丁目","koaza":"","lat":44.48482,"lng":142.336372},{"town":"西三条北七丁目","koaza":"","lat":44.486011,"lng":142.335331},{"town":"西三条南一丁目","koaza":"","lat":44.479081,"lng":142.339687},{"town":"西三条南四丁目","koaza":"","lat":44.477837,"lng":142.339092},{"town":"東一条南五丁目","koaza":"","lat":44.478989,"lng":142.349006},{"town":"東一条南六丁目","koaza":"","lat":44.477782,"lng":142.349593},{"town":"東一条南七丁目","koaza":"","lat":44.476562,"lng":142.350161},{"town":"東一条南八丁目","koaza":"","lat":44.475401,"lng":142.350727},{"town":"東二条南五丁目","koaza":"","lat":44.479215,"lng":142.349967},{"town":"東二条南六丁目","koaza":"","lat":44.478023,"lng":142.350547},{"town":"東二条南七丁目","koaza":"","lat":44.476795,"lng":142.351115},{"town":"東二条南八丁目","koaza":"","lat":44.47564,"lng":142.351688},{"town":"東三条南五丁目","koaza":"","lat":44.479418,"lng":142.35081},{"town":"東三条南六丁目","koaza":"","lat":44.47821,"lng":142.351387},{"town":"東三条南七丁目","koaza":"","lat":44.477035,"lng":142.351932},{"town":"東三条南八丁目","koaza":"","lat":44.475848,"lng":142.352528},{"town":"東四条南五丁目","koaza":"","lat":44.479619,"lng":142.351618},{"town":"東四条南六丁目","koaza":"","lat":44.478429,"lng":142.352176},{"town":"東四条南七丁目","koaza":"","lat":44.477289,"lng":142.352722},{"town":"東四条南八丁目","koaza":"","lat":44.4762,"lng":142.353165},{"town":"東五条北三丁目","koaza":"","lat":44.486286,"lng":142.350223},{"town":"東六条北一丁目","koaza":"","lat":44.484107,"lng":142.353831},{"town":"東六条北二丁目","koaza":"","lat":44.485235,"lng":142.353278},{"town":"東六条北三丁目","koaza":"","lat":44.486642,"lng":142.353322},{"town":"東六条南一丁目","koaza":"","lat":44.483005,"lng":142.354407},{"town":"東六条南二丁目","koaza":"","lat":44.482193,"lng":142.354584},{"town":"東六条南三丁目","koaza":"","lat":44.481721,"lng":142.354898},{"town":"東六条南四丁目","koaza":"","lat":44.48139,"lng":142.355667}]