[{"town":"大字入船町","koaza":"","lat":43.278485,"lng":140.641055,"zip":"0460100"},{"town":"大字歌棄町","koaza":"","lat":43.234821,"lng":140.660625,"zip":"0460100"},{"town":"大字沖町","koaza":"","lat":43.23136,"lng":140.678366,"zip":"0460100"},{"town":"大字群来町","koaza":"","lat":43.279104,"lng":140.615716,"zip":"0460100"},{"town":"大字沢江町","koaza":"","lat":43.169049,"lng":140.61974,"zip":"0460100"},{"town":"大字新地町","koaza":"","lat":43.281004,"lng":140.633056,"zip":"0460100"},{"town":"大字浜町","koaza":"","lat":43.175135,"lng":140.56113,"zip":"0460100"},{"town":"大字本町","koaza":"","lat":43.280084,"lng":140.640212,"zip":"0460100"},{"town":"大字丸山町","koaza":"","lat":43.281363,"lng":140.640493,"zip":"0460100"},{"town":"大字御崎町","koaza":"","lat":43.282081,"lng":140.644097,"zip":"0460100"},{"town":"大字港町","koaza":"","lat":43.27026,"lng":140.626185,"zip":"0460100"}]