[{"town":"大字入船町","koaza":"","lat":"43.278485","lng":"140.641055"},{"town":"大字歌棄町","koaza":"","lat":"43.234821","lng":"140.660625"},{"town":"大字沖町","koaza":"","lat":"43.231360","lng":"140.678366"},{"town":"大字群来町","koaza":"","lat":"43.279104","lng":"140.615716"},{"town":"大字沢江町","koaza":"","lat":"43.169049","lng":"140.619740"},{"town":"大字新地町","koaza":"","lat":"43.281004","lng":"140.633056"},{"town":"大字浜町","koaza":"","lat":"43.175135","lng":"140.561130"},{"town":"大字本町","koaza":"","lat":"43.280084","lng":"140.640212"},{"town":"大字丸山町","koaza":"","lat":"43.281363","lng":"140.640493"},{"town":"大字御崎町","koaza":"","lat":"43.282081","lng":"140.644097"},{"town":"大字港町","koaza":"","lat":"43.270260","lng":"140.626185"}]