[{"town":"阿分","koaza":"","lat":"43.871273","lng":"141.630987"},{"town":"稲葉海岸町","koaza":"","lat":"43.858628","lng":"141.522866"},{"town":"稲葉町一丁目","koaza":"","lat":"43.857811","lng":"141.523807"},{"town":"稲葉町二丁目","koaza":"","lat":"43.857130","lng":"141.523972"},{"town":"稲葉町三丁目","koaza":"","lat":"43.856534","lng":"141.524124"},{"town":"稲葉町四丁目","koaza":"","lat":"43.855604","lng":"141.524280"},{"town":"岩尾","koaza":"","lat":"43.780980","lng":"141.398556"},{"town":"岩老","koaza":"","lat":"43.773619","lng":"141.372618"},{"town":"永寿町一丁目","koaza":"","lat":"43.857348","lng":"141.522142"},{"town":"永寿町二丁目","koaza":"","lat":"43.856787","lng":"141.522456"},{"town":"永寿町三丁目","koaza":"","lat":"43.856232","lng":"141.522777"},{"town":"永寿町四丁目","koaza":"","lat":"43.855493","lng":"141.523045"},{"town":"永寿町五丁目","koaza":"","lat":"43.855232","lng":"141.523638"},{"town":"雄冬","koaza":"","lat":"43.747385","lng":"141.349353"},{"town":"御料","koaza":"","lat":"43.800777","lng":"141.685748"},{"town":"栄町","koaza":"","lat":"43.858284","lng":"141.518557"},{"town":"七源町","koaza":"","lat":"43.857778","lng":"141.519550"},{"town":"舎熊","koaza":"","lat":"43.794930","lng":"141.585612"},{"town":"暑寒海岸町","koaza":"","lat":"43.856300","lng":"141.514692"},{"town":"暑寒沢","koaza":"","lat":"43.767900","lng":"141.489376"},{"town":"暑寒町一丁目","koaza":"","lat":"43.853453","lng":"141.513244"},{"town":"暑寒町二丁目","koaza":"","lat":"43.855016","lng":"141.515752"},{"town":"暑寒町三丁目","koaza":"","lat":"43.854443","lng":"141.516027"},{"town":"暑寒町四丁目","koaza":"","lat":"43.853766","lng":"141.515788"},{"town":"暑寒町五丁目","koaza":"","lat":"43.852440","lng":"141.515066"},{"town":"中歌","koaza":"","lat":"43.854700","lng":"141.544771"},{"town":"野塚町","koaza":"","lat":"43.858047","lng":"141.521872"},{"town":"信砂","koaza":"","lat":"43.792508","lng":"141.636412"},{"town":"箸別","koaza":"","lat":"43.853530","lng":"141.553029"},{"town":"畠中北町","koaza":"","lat":"43.857258","lng":"141.519642"},{"town":"畠中町一丁目","koaza":"","lat":"43.856692","lng":"141.519726"},{"town":"畠中町二丁目","koaza":"","lat":"43.856059","lng":"141.519806"},{"town":"畠中町三丁目","koaza":"","lat":"43.855489","lng":"141.520082"},{"town":"畠中町四丁目","koaza":"","lat":"43.854900","lng":"141.520376"},{"town":"畠中町五丁目","koaza":"","lat":"43.854370","lng":"141.521064"},{"town":"別苅","koaza":"","lat":"43.782648","lng":"141.449355"},{"town":"弁天町一丁目","koaza":"","lat":"43.857642","lng":"141.526632"},{"town":"弁天町二丁目","koaza":"","lat":"43.856914","lng":"141.526700"},{"town":"弁天町三丁目","koaza":"","lat":"43.856297","lng":"141.525768"},{"town":"弁天町四丁目","koaza":"","lat":"43.855640","lng":"141.525903"},{"town":"弁天町五丁目","koaza":"","lat":"43.854971","lng":"141.526018"},{"town":"港町","koaza":"","lat":"43.856750","lng":"141.528436"},{"town":"南永寿町一丁目","koaza":"","lat":"43.854500","lng":"141.523723"},{"town":"南永寿町二丁目","koaza":"","lat":"43.852869","lng":"141.524359"},{"town":"南永寿町三丁目","koaza":"","lat":"43.850590","lng":"141.525345"},{"town":"南暑寒町一丁目","koaza":"","lat":"43.852728","lng":"141.517632"},{"town":"南暑寒町二丁目","koaza":"","lat":"43.851990","lng":"141.517692"},{"town":"南暑寒町三丁目","koaza":"","lat":"43.851536","lng":"141.518838"},{"town":"南暑寒町四丁目","koaza":"","lat":"43.850997","lng":"141.518620"},{"town":"南暑寒町五丁目","koaza":"","lat":"43.850166","lng":"141.516095"},{"town":"南暑寒町六丁目","koaza":"","lat":"43.848767","lng":"141.516287"},{"town":"南暑寒町七丁目","koaza":"","lat":"43.849372","lng":"141.519252"},{"town":"南暑寒町八丁目","koaza":"","lat":"43.848668","lng":"141.519006"},{"town":"南暑寒町九丁目","koaza":"","lat":"43.848123","lng":"141.519374"},{"town":"南畠中町一丁目","koaza":"","lat":"43.853570","lng":"141.521013"},{"town":"南畠中町二丁目","koaza":"","lat":"43.852921","lng":"141.521324"},{"town":"南畠中町三丁目","koaza":"","lat":"43.852336","lng":"141.521606"},{"town":"南畠中町四丁目","koaza":"","lat":"43.851823","lng":"141.521852"},{"town":"南畠中町五丁目","koaza":"","lat":"43.851350","lng":"141.522078"},{"town":"南畠中町六丁目","koaza":"","lat":"43.850833","lng":"141.522353"},{"town":"南畠中町七丁目","koaza":"","lat":"43.850272","lng":"141.522650"},{"town":"南畠中町八丁目","koaza":"","lat":"43.849678","lng":"141.522941"},{"town":"南畠中町九丁目","koaza":"","lat":"43.849103","lng":"141.523214"},{"town":"見晴町","koaza":"","lat":"43.851786","lng":"141.545372"},{"town":"湯の沢","koaza":"","lat":"43.783132","lng":"141.553672"}]