[{"town":"愛国町基線","koaza":"","lat":42.852631,"lng":143.202901},{"town":"愛国町零号","koaza":"","lat":42.873022,"lng":143.215889},{"town":"愛国町西一線","koaza":"","lat":42.853408,"lng":143.199397},{"town":"愛国町東一線","koaza":"","lat":42.851696,"lng":143.209667},{"town":"愛国町東二線","koaza":"","lat":42.850922,"lng":143.214963},{"town":"愛国町東三線","koaza":"","lat":42.836259,"lng":143.211676},{"town":"愛国町南十線","koaza":"","lat":42.882754,"lng":143.218393},{"town":"愛国町南十一線","koaza":"","lat":42.877623,"lng":143.218104},{"town":"愛国町南十二線","koaza":"","lat":42.874222,"lng":143.221907},{"town":"愛国町南八線","koaza":"","lat":42.8925,"lng":143.2165},{"town":"愛国町南九線","koaza":"","lat":42.887725,"lng":143.219483},{"town":"泉町西十線","koaza":"","lat":42.727902,"lng":143.205666},{"town":"泉町西十一線","koaza":"","lat":42.735905,"lng":143.202471},{"town":"泉町西四線","koaza":"","lat":42.716791,"lng":143.241856},{"town":"泉町西五線","koaza":"","lat":42.717994,"lng":143.235373},{"town":"泉町西六線","koaza":"","lat":42.719234,"lng":143.228892},{"town":"泉町西七線","koaza":"","lat":42.720461,"lng":143.222381},{"town":"泉町西八線","koaza":"","lat":42.721725,"lng":143.215787},{"town":"泉町西九線","koaza":"","lat":42.72291,"lng":143.209186},{"town":"泉町東十二線","koaza":"","lat":42.705171,"lng":143.191025},{"town":"泉町東十三線","koaza":"","lat":42.712698,"lng":143.197542},{"town":"泉町東十四線","koaza":"","lat":42.720332,"lng":143.200621},{"town":"以平町西","koaza":"","lat":42.754669,"lng":143.210235},{"town":"以平町西十線","koaza":"","lat":42.760178,"lng":143.218775},{"town":"以平町西十一線","koaza":"","lat":42.76478,"lng":143.21344},{"town":"以平町西十二線","koaza":"","lat":42.76807,"lng":143.207482},{"town":"以平町西十三線","koaza":"","lat":42.773926,"lng":143.203422},{"town":"以平町西三線","koaza":"","lat":42.74892,"lng":143.261776},{"town":"以平町西四線","koaza":"","lat":42.74773,"lng":143.256415},{"town":"以平町西五線","koaza":"","lat":42.748652,"lng":143.249735},{"town":"以平町西六線","koaza":"","lat":42.749931,"lng":143.242824},{"town":"以平町西七線","koaza":"","lat":42.751235,"lng":143.236139},{"town":"以平町西八線","koaza":"","lat":42.752408,"lng":143.229844},{"town":"以平町西九線","koaza":"","lat":42.753577,"lng":143.223478},{"town":"稲田町西一線","koaza":"","lat":42.872825,"lng":143.184676},{"town":"稲田町西二線","koaza":"","lat":42.872356,"lng":143.177973},{"town":"稲田町西三線","koaza":"","lat":42.87106,"lng":143.172995},{"town":"稲田町東一線","koaza":"","lat":42.874007,"lng":143.199597},{"town":"稲田町東二線","koaza":"","lat":42.879556,"lng":143.206178},{"town":"稲田町南八線","koaza":"","lat":42.893192,"lng":143.21194},{"town":"稲田町南九線","koaza":"","lat":42.887326,"lng":143.193115},{"town":"岩内町一線","koaza":"","lat":42.651079,"lng":143.011021},{"town":"岩内町二線","koaza":"","lat":42.649346,"lng":143.004955},{"town":"岩内町三線","koaza":"","lat":42.648057,"lng":142.998666},{"town":"岩内町四線","koaza":"","lat":42.645145,"lng":142.993481},{"town":"岩内町五線","koaza":"","lat":42.642596,"lng":142.98734},{"town":"岩内町第一基線","koaza":"","lat":42.67123,"lng":143.040886},{"town":"岩内町西一線","koaza":"","lat":42.674372,"lng":143.03557},{"town":"岩内町西二線","koaza":"","lat":42.676693,"lng":143.029767},{"town":"岩内町西三線","koaza":"","lat":42.67991,"lng":143.024595},{"town":"岩内町西四線","koaza":"","lat":42.700735,"lng":143.035056},{"town":"岩内町東一線","koaza":"","lat":42.683015,"lng":143.058168},{"town":"岩内町東二線","koaza":"","lat":42.680952,"lng":143.064266},{"town":"岩内町東三線","koaza":"","lat":42.67902,"lng":143.068609},{"town":"上帯広町基線","koaza":"","lat":42.787082,"lng":143.06174},{"town":"上帯広町西一線","koaza":"","lat":42.790268,"lng":143.05643},{"town":"上帯広町西二線","koaza":"","lat":42.791213,"lng":143.048596},{"town":"上帯広町西三線","koaza":"","lat":42.787934,"lng":143.038003},{"town":"上帯広町西四線","koaza":"","lat":42.784576,"lng":143.0258},{"town":"上帯広町東","koaza":"","lat":42.794505,"lng":143.076164},{"town":"上帯広町東一線","koaza":"","lat":42.775273,"lng":143.055464},{"town":"上清川町西一線","koaza":"","lat":42.716875,"lng":143.069685},{"town":"上清川町西二線","koaza":"","lat":42.718737,"lng":143.063454},{"town":"上清川町西三線","koaza":"","lat":42.730143,"lng":143.064684},{"town":"上清川町西四線","koaza":"","lat":42.730006,"lng":143.058336},{"town":"上清川町東一線","koaza":"","lat":42.722243,"lng":143.089745},{"town":"上清川町東二線","koaza":"","lat":42.721087,"lng":143.094907},{"town":"川西町基線","koaza":"","lat":42.849958,"lng":143.1843},{"town":"川西町西","koaza":"","lat":42.861722,"lng":143.158846},{"town":"川西町西一線","koaza":"","lat":42.851167,"lng":143.177378},{"town":"川西町西二線","koaza":"","lat":42.849686,"lng":143.16821},{"town":"川西町西三線","koaza":"","lat":42.857531,"lng":143.166574},{"town":"川西町西四線","koaza":"","lat":42.857584,"lng":143.159788},{"town":"川西町西五線","koaza":"","lat":42.848428,"lng":143.148123},{"town":"川西町東一線","koaza":"","lat":42.849703,"lng":143.190215},{"town":"川西町東二線","koaza":"","lat":42.853102,"lng":143.196788},{"town":"清川町西一線","koaza":"","lat":42.755429,"lng":143.100246},{"town":"清川町西二線","koaza":"","lat":42.762609,"lng":143.09829},{"town":"清川町西三線","koaza":"","lat":42.764165,"lng":143.093635},{"town":"清川町西通","koaza":"","lat":42.747218,"lng":143.082307},{"town":"清川町東一線","koaza":"","lat":42.750222,"lng":143.112014},{"town":"清川町東二線","koaza":"","lat":42.748189,"lng":143.11714},{"town":"清川町南二条通","koaza":"","lat":42.744811,"lng":143.08203},{"town":"空港南町南十線","koaza":"","lat":42.880223,"lng":143.162372},{"town":"空港南町南十線西","koaza":"","lat":42.877518,"lng":143.166479},{"town":"空港南町南十一線","koaza":"","lat":42.878927,"lng":143.159275},{"town":"空港南町南十一線西","koaza":"","lat":42.87384,"lng":143.163009},{"town":"空港南町南十二線","koaza":"","lat":42.879509,"lng":143.141815},{"town":"空港南町南十二線西","koaza":"","lat":42.869906,"lng":143.161732},{"town":"空港南町南十三線","koaza":"","lat":42.876642,"lng":143.141644},{"town":"空港南町南十三線西","koaza":"","lat":42.867208,"lng":143.157247},{"town":"幸福町基線","koaza":"","lat":42.747083,"lng":143.15419},{"town":"幸福町東一線","koaza":"","lat":42.745947,"lng":143.161152},{"town":"幸福町東二線","koaza":"","lat":42.744499,"lng":143.168512},{"town":"幸福町東三線","koaza":"","lat":42.742693,"lng":143.175958},{"town":"幸福町東四線","koaza":"","lat":42.741239,"lng":143.183254},{"town":"幸福町東五線","koaza":"","lat":42.739937,"lng":143.190418},{"town":"幸福町東六線","koaza":"","lat":42.741421,"lng":143.196901},{"town":"幸福町東七線","koaza":"","lat":42.747223,"lng":143.201469},{"town":"桜木町基線","koaza":"","lat":42.813001,"lng":143.207866},{"town":"桜木町東","koaza":"","lat":42.776858,"lng":143.231799},{"town":"桜木町東一線","koaza":"","lat":42.80077,"lng":143.207184},{"town":"桜木町東二線","koaza":"","lat":42.794911,"lng":143.211247},{"town":"桜木町東三線","koaza":"","lat":42.793292,"lng":143.2177},{"town":"桜木町東四線","koaza":"","lat":42.785555,"lng":143.220435},{"town":"桜木町東五線","koaza":"","lat":42.784184,"lng":143.226872},{"town":"桜木町東六線","koaza":"","lat":42.788334,"lng":143.236593},{"town":"桜木町東七線","koaza":"","lat":42.786824,"lng":143.241296},{"town":"昭和町基線","koaza":"","lat":42.773927,"lng":143.154401},{"town":"昭和町西","koaza":"","lat":42.780742,"lng":143.137305},{"town":"昭和町西一線","koaza":"","lat":42.778384,"lng":143.148647},{"town":"昭和町西二線","koaza":"","lat":42.781281,"lng":143.143146},{"town":"昭和町東","koaza":"","lat":42.784797,"lng":143.171103},{"town":"昭和町東一線","koaza":"","lat":42.770353,"lng":143.159336},{"town":"昭和町東二線","koaza":"","lat":42.771299,"lng":143.16755},{"town":"昭和町東三線","koaza":"","lat":42.770004,"lng":143.174097},{"town":"昭和町東四線","koaza":"","lat":42.76871,"lng":143.180575},{"town":"昭和町東五線","koaza":"","lat":42.768871,"lng":143.187598},{"town":"昭和町東六線","koaza":"","lat":42.765539,"lng":143.193616},{"town":"昭和町東七線","koaza":"","lat":42.764525,"lng":143.19982},{"town":"昭和町東八線","koaza":"","lat":42.758471,"lng":143.202766},{"town":"大正町基線","koaza":"","lat":42.815314,"lng":143.177706},{"town":"大正町西","koaza":"","lat":42.81119,"lng":143.162173},{"town":"大正町西一線","koaza":"","lat":42.816823,"lng":143.171263},{"town":"大正町東","koaza":"","lat":42.813832,"lng":143.203859},{"town":"大正町東一線","koaza":"","lat":42.815332,"lng":143.18515},{"town":"大正町東二線","koaza":"","lat":42.813166,"lng":143.190793},{"town":"大正町東三線","koaza":"","lat":42.806649,"lng":143.193589},{"town":"大正町東四線","koaza":"","lat":42.795212,"lng":143.193854},{"town":"大正町東五線","koaza":"","lat":42.789225,"lng":143.196756},{"town":"大正町東六線","koaza":"","lat":42.781687,"lng":143.198892},{"town":"太平町西四線","koaza":"","lat":42.724716,"lng":143.050129},{"town":"太平町西五線","koaza":"","lat":42.726641,"lng":143.046006},{"town":"太平町西六線","koaza":"","lat":42.727658,"lng":143.038304},{"town":"太平町西七線","koaza":"","lat":42.735978,"lng":143.037869},{"town":"太平町西八線","koaza":"","lat":42.738495,"lng":143.032054},{"town":"太平町西九線","koaza":"","lat":42.740255,"lng":143.02617},{"town":"拓成町第二基線","koaza":"","lat":42.710095,"lng":142.936881},{"town":"拓成町西","koaza":"","lat":42.70548,"lng":143.005589},{"town":"拓成町西四線","koaza":"","lat":42.702315,"lng":143.02992},{"town":"拓成町西五線","koaza":"","lat":42.702932,"lng":143.023334},{"town":"拓成町西六線","koaza":"","lat":42.70451,"lng":143.015886},{"town":"拓成町南","koaza":"","lat":42.696814,"lng":142.95505},{"town":"拓成町南一線","koaza":"","lat":42.70078,"lng":142.968606},{"town":"拓成町南二線","koaza":"","lat":42.697292,"lng":142.969836},{"town":"豊西町基線","koaza":"","lat":42.817475,"lng":143.158502},{"town":"豊西町西","koaza":"","lat":42.838167,"lng":143.137634},{"town":"豊西町西一線","koaza":"","lat":42.817256,"lng":143.150794},{"town":"豊西町西二線","koaza":"","lat":42.82284,"lng":143.146889},{"town":"豊西町西三線","koaza":"","lat":42.82516,"lng":143.140756},{"town":"豊西町西四線","koaza":"","lat":42.827207,"lng":143.134718},{"town":"豊西町西五線","koaza":"","lat":42.826308,"lng":143.125248},{"town":"豊西町西六線","koaza":"","lat":42.829762,"lng":143.122174},{"town":"中島町東","koaza":"","lat":42.728884,"lng":143.146938},{"town":"中島町東三線","koaza":"","lat":42.747587,"lng":143.124796},{"town":"中島町東四線","koaza":"","lat":42.745441,"lng":143.132098},{"town":"中島町東五線","koaza":"","lat":42.741151,"lng":143.136511},{"town":"中島町東六線","koaza":"","lat":42.736365,"lng":143.140577},{"town":"中島町東七線","koaza":"","lat":42.732982,"lng":143.145317},{"town":"美栄町西","koaza":"","lat":42.780924,"lng":143.062667},{"town":"美栄町西三線","koaza":"","lat":42.756807,"lng":143.083863},{"town":"美栄町西四線","koaza":"","lat":42.758675,"lng":143.079584},{"town":"美栄町西五線","koaza":"","lat":42.761193,"lng":143.073603},{"town":"美栄町西六線","koaza":"","lat":42.766804,"lng":143.070249},{"town":"美栄町西八線","koaza":"","lat":42.770653,"lng":143.058353},{"town":"美栄町西七線","koaza":"","lat":42.768267,"lng":143.063828},{"town":"広野町基線","koaza":"","lat":42.752019,"lng":143.023719},{"town":"広野町西","koaza":"","lat":42.751491,"lng":142.986985},{"town":"広野町西一線","koaza":"","lat":42.75916,"lng":143.02251},{"town":"広野町西二線","koaza":"","lat":42.762331,"lng":143.017202},{"town":"広野町西三線","koaza":"","lat":42.765402,"lng":143.011753},{"town":"広野町西四線","koaza":"","lat":42.768959,"lng":143.006473},{"town":"広野町西五線","koaza":"","lat":42.770419,"lng":142.999065},{"town":"広野町西六線","koaza":"","lat":42.769113,"lng":142.991305},{"town":"広野町東","koaza":"","lat":42.736562,"lng":143.020599},{"town":"広野町東一線","koaza":"","lat":42.748888,"lng":143.027959},{"town":"富士町西","koaza":"","lat":42.783625,"lng":143.115016},{"town":"富士町西一線","koaza":"","lat":42.792077,"lng":143.130244},{"town":"富士町西二線","koaza":"","lat":42.79468,"lng":143.124041},{"town":"富士町西三線","koaza":"","lat":42.797885,"lng":143.118406},{"town":"富士町西四線","koaza":"","lat":42.799828,"lng":143.112169},{"town":"富士町西五線","koaza":"","lat":42.802438,"lng":143.106167},{"town":"富士町西六線","koaza":"","lat":42.805954,"lng":143.100954},{"town":"富士町西七線","koaza":"","lat":42.805083,"lng":143.092208},{"town":"富士町西八線","koaza":"","lat":42.800123,"lng":143.082366},{"town":"富士町基線","koaza":"","lat":42.801198,"lng":143.142492},{"town":"別府町零号","koaza":"","lat":42.847288,"lng":143.125701},{"town":"別府町南","koaza":"","lat":42.850953,"lng":143.146651},{"town":"別府町南十三線","koaza":"","lat":42.870612,"lng":143.146243},{"town":"別府町南十四線","koaza":"","lat":42.867133,"lng":143.144188},{"town":"別府町南十五線","koaza":"","lat":42.863061,"lng":143.140432},{"town":"別府町南十六線","koaza":"","lat":42.858853,"lng":143.136596},{"town":"別府町南十七線","koaza":"","lat":42.855948,"lng":143.131324},{"town":"別府町南十八線","koaza":"","lat":42.850412,"lng":143.128924},{"town":"南町南七線","koaza":"","lat":42.8925,"lng":143.149904},{"town":"南町南八線","koaza":"","lat":42.887834,"lng":143.152915},{"town":"南町南九線","koaza":"","lat":42.885193,"lng":143.152599},{"town":"基松町基線","koaza":"","lat":42.829764,"lng":143.109123},{"town":"基松町西","koaza":"","lat":42.826746,"lng":143.090603},{"town":"基松町西一線","koaza":"","lat":42.83296,"lng":143.103799},{"town":"基松町西二線","koaza":"","lat":42.841273,"lng":143.106139},{"town":"基松町東","koaza":"","lat":42.812493,"lng":143.096003},{"town":"基松町東一線","koaza":"","lat":42.830523,"lng":143.118469},{"town":"八千代町基線","koaza":"","lat":42.723484,"lng":142.991749},{"town":"八千代町西","koaza":"","lat":42.735036,"lng":142.971233},{"town":"八千代町西一線","koaza":"","lat":42.725137,"lng":142.984666},{"town":"八千代町西二線","koaza":"","lat":42.738361,"lng":142.990636},{"town":"八千代町西三線","koaza":"","lat":42.740359,"lng":142.983994},{"town":"八千代町西四線","koaza":"","lat":42.743615,"lng":142.978562},{"town":"八千代町西五線","koaza":"","lat":42.746668,"lng":142.973415},{"town":"八千代町西六線","koaza":"","lat":42.749031,"lng":142.969334},{"town":"八千代町東","koaza":"","lat":42.71533,"lng":143.003974},{"town":"八千代町東一線","koaza":"","lat":42.722207,"lng":142.999185},{"town":"八千代町東二線","koaza":"","lat":42.721475,"lng":143.005922},{"town":"南町南六線","koaza":"","lat":42.898627,"lng":143.174926},{"town":"稲田町南九線西","koaza":"","lat":42.887252,"lng":143.19341},{"town":"稲田町南八線西","koaza":"","lat":42.889648,"lng":143.194473},{"town":"大正本町西一条一丁目","koaza":"","lat":42.795299,"lng":143.162884},{"town":"大正本町東一条一丁目","koaza":"","lat":42.793537,"lng":143.16738},{"town":"大正本町本通一丁目","koaza":"","lat":42.794279,"lng":143.164995},{"town":"東十条北一丁目","koaza":"","lat":42.933956,"lng":143.220795},{"town":"東十一条北一丁目","koaza":"","lat":42.934126,"lng":143.223065},{"town":"東十二条北一丁目","koaza":"","lat":42.934292,"lng":143.225355},{"town":"東五条北一丁目","koaza":"","lat":42.933293,"lng":143.21187},{"town":"東六条北一丁目","koaza":"","lat":42.933407,"lng":143.213453},{"town":"東七条北一丁目","koaza":"","lat":42.933525,"lng":143.215063},{"town":"東八条北一丁目","koaza":"","lat":42.933644,"lng":143.216663},{"town":"東九条北一丁目","koaza":"","lat":42.933786,"lng":143.21856},{"town":"大正本町西一条二丁目","koaza":"","lat":42.793832,"lng":143.163054},{"town":"大正本町東一条二丁目","koaza":"","lat":42.792203,"lng":143.167205},{"town":"大正本町本通二丁目","koaza":"","lat":42.793265,"lng":143.164307},{"town":"東十条北二丁目","koaza":"","lat":42.935355,"lng":143.220159},{"town":"東十一条北二丁目","koaza":"","lat":42.935564,"lng":143.222492},{"town":"東十二条北二丁目","koaza":"","lat":42.935577,"lng":143.225021},{"town":"東五条北二丁目","koaza":"","lat":42.934339,"lng":143.21162},{"town":"東六条北二丁目","koaza":"","lat":42.935487,"lng":143.213175},{"town":"東七条北二丁目","koaza":"","lat":42.934625,"lng":143.214618},{"town":"東八条北二丁目","koaza":"","lat":42.934808,"lng":143.216391},{"town":"東九条北二丁目","koaza":"","lat":42.935316,"lng":143.218164},{"town":"大正本町西一条三丁目","koaza":"","lat":42.792733,"lng":143.162351},{"town":"大正本町東一条三丁目","koaza":"","lat":42.791347,"lng":143.165676},{"town":"大正本町本通三丁目","koaza":"","lat":42.792274,"lng":143.163635},{"town":"大正本町西一条四丁目","koaza":"","lat":42.791517,"lng":143.161633},{"town":"大正本町東一条四丁目","koaza":"","lat":42.790086,"lng":143.165301},{"town":"大正本町本通四丁目","koaza":"","lat":42.791316,"lng":143.16298},{"town":"大正本町本通五丁目","koaza":"","lat":42.79057,"lng":143.162461},{"town":"愛国町","koaza":"","lat":42.87171,"lng":143.217217},{"town":"以平町","koaza":"","lat":42.742802,"lng":143.209913},{"town":"稲田町基線","koaza":"","lat":42.878959,"lng":143.190096},{"town":"岩内町","koaza":"","lat":42.717229,"lng":142.865927},{"town":"岩内町西","koaza":"","lat":42.681515,"lng":143.012645},{"town":"岩内町東","koaza":"","lat":42.651465,"lng":143.037365},{"town":"大川町","koaza":"","lat":42.933385,"lng":143.20736},{"town":"大空町一丁目","koaza":"","lat":42.879281,"lng":143.152315},{"town":"大空町十丁目","koaza":"","lat":42.8817,"lng":143.149587},{"town":"大空町十一丁目","koaza":"","lat":42.879584,"lng":143.148541},{"town":"大空町十二丁目","koaza":"","lat":42.876681,"lng":143.149431},{"town":"大空町二丁目","koaza":"","lat":42.878838,"lng":143.154966},{"town":"大空町三丁目","koaza":"","lat":42.876118,"lng":143.154391},{"town":"大空町四丁目","koaza":"","lat":42.873542,"lng":143.15279},{"town":"大空町五丁目","koaza":"","lat":42.873214,"lng":143.149805},{"town":"大空町六丁目","koaza":"","lat":42.873084,"lng":143.146604},{"town":"大空町七丁目","koaza":"","lat":42.876442,"lng":143.146204},{"town":"大空町八丁目","koaza":"","lat":42.87911,"lng":143.145734},{"town":"大空町九丁目","koaza":"","lat":42.88149,"lng":143.14544},{"town":"大通北一丁目","koaza":"","lat":42.932526,"lng":143.203918},{"town":"大通北二丁目","koaza":"","lat":42.93426,"lng":143.203672},{"town":"大通南一丁目","koaza":"","lat":42.931527,"lng":143.204062},{"town":"大通南十丁目","koaza":"","lat":42.921029,"lng":143.205473},{"town":"大通南十一丁目","koaza":"","lat":42.919863,"lng":143.205629},{"town":"大通南十二丁目","koaza":"","lat":42.918705,"lng":143.205785},{"town":"大通南十三丁目","koaza":"","lat":42.917536,"lng":143.205938},{"town":"大通南十四丁目","koaza":"","lat":42.916494,"lng":143.206072},{"town":"大通南十五丁目","koaza":"","lat":42.915224,"lng":143.206228},{"town":"大通南十六丁目","koaza":"","lat":42.914066,"lng":143.206369},{"town":"大通南十七丁目","koaza":"","lat":42.912911,"lng":143.206522},{"town":"大通南十八丁目","koaza":"","lat":42.911759,"lng":143.206674},{"town":"大通南十九丁目","koaza":"","lat":42.910558,"lng":143.206832},{"town":"大通南二丁目","koaza":"","lat":42.930283,"lng":143.204233},{"town":"大通南二十丁目","koaza":"","lat":42.909327,"lng":143.207001},{"town":"大通南二十一丁目","koaza":"","lat":42.908132,"lng":143.20717},{"town":"大通南二十二丁目","koaza":"","lat":42.906967,"lng":143.20733},{"town":"大通南二十三丁目","koaza":"","lat":42.905811,"lng":143.207484},{"town":"大通南二十四丁目","koaza":"","lat":42.904664,"lng":143.207639},{"town":"大通南二十五丁目","koaza":"","lat":42.903512,"lng":143.207801},{"town":"大通南二十六丁目","koaza":"","lat":42.902352,"lng":143.207963},{"town":"大通南二十七丁目","koaza":"","lat":42.901199,"lng":143.208118},{"town":"大通南二十八丁目","koaza":"","lat":42.900035,"lng":143.208273},{"town":"大通南二十九丁目","koaza":"","lat":42.898862,"lng":143.208444},{"town":"大通南三丁目","koaza":"","lat":42.929128,"lng":143.204391},{"town":"大通南三十丁目","koaza":"","lat":42.897686,"lng":143.208503},{"town":"大通南三十一丁目","koaza":"","lat":42.896579,"lng":143.208423},{"town":"大通南三十二丁目","koaza":"","lat":42.895165,"lng":143.208013},{"town":"大通南三十三丁目","koaza":"","lat":42.893942,"lng":143.208035},{"town":"大通南三十四丁目","koaza":"","lat":42.892676,"lng":143.20756},{"town":"大通南四丁目","koaza":"","lat":42.927974,"lng":143.204541},{"town":"大通南五丁目","koaza":"","lat":42.926813,"lng":143.204699},{"town":"大通南六丁目","koaza":"","lat":42.925664,"lng":143.204854},{"town":"大通南七丁目","koaza":"","lat":42.924511,"lng":143.205009},{"town":"大通南八丁目","koaza":"","lat":42.923347,"lng":143.205162},{"town":"大通南九丁目","koaza":"","lat":42.922188,"lng":143.205316},{"town":"上帯広町","koaza":"","lat":42.806197,"lng":143.078663},{"town":"上清川町","koaza":"","lat":42.710577,"lng":143.046883},{"town":"上清川町基線","koaza":"","lat":42.714338,"lng":143.075566},{"town":"清川町","koaza":"","lat":42.740715,"lng":143.078686},{"town":"清川町基線","koaza":"","lat":42.752928,"lng":143.106222},{"town":"清川町仲通","koaza":"","lat":42.746147,"lng":143.084611},{"town":"清川町本通","koaza":"","lat":42.745378,"lng":143.083286},{"town":"空港南町","koaza":"","lat":42.873488,"lng":143.157938},{"town":"公園東町一丁目","koaza":"","lat":42.911033,"lng":143.195923},{"town":"公園東町二丁目","koaza":"","lat":42.9077,"lng":143.195973},{"town":"公園東町三丁目","koaza":"","lat":42.908357,"lng":143.193363},{"town":"公園東町四丁目","koaza":"","lat":42.905606,"lng":143.19403},{"town":"公園東町五丁目","koaza":"","lat":42.905992,"lng":143.190597},{"town":"幸福町","koaza":"","lat":42.746948,"lng":143.150332},{"town":"桜木町","koaza":"","lat":42.803392,"lng":143.203148},{"town":"昭和町","koaza":"","lat":42.788977,"lng":143.160789},{"town":"白樺十六条西一丁目","koaza":"","lat":42.919321,"lng":143.175201},{"town":"白樺十六条西十丁目","koaza":"","lat":42.916719,"lng":143.174547},{"town":"白樺十六条西十一丁目","koaza":"","lat":42.916173,"lng":143.174622},{"town":"白樺十六条西十二丁目","koaza":"","lat":42.916635,"lng":143.173259},{"town":"白樺十六条西十三丁目","koaza":"","lat":42.916087,"lng":143.173327},{"town":"白樺十六条西十四丁目","koaza":"","lat":42.916265,"lng":143.172324},{"town":"白樺十六条西十五丁目","koaza":"","lat":42.915253,"lng":143.172515},{"town":"白樺十六条西十六丁目","koaza":"","lat":42.915578,"lng":143.173394},{"town":"白樺十六条西十七丁目","koaza":"","lat":42.915049,"lng":143.173459},{"town":"白樺十六条西十八丁目","koaza":"","lat":42.915667,"lng":143.174689},{"town":"白樺十六条西十九丁目","koaza":"","lat":42.915121,"lng":143.174755},{"town":"白樺十六条西二丁目","koaza":"","lat":42.918866,"lng":143.173303},{"town":"白樺十六条西二十丁目","koaza":"","lat":42.915438,"lng":143.175632},{"town":"白樺十六条西三丁目","koaza":"","lat":42.91805,"lng":143.175362},{"town":"白樺十六条西四丁目","koaza":"","lat":42.917689,"lng":143.17427},{"town":"白樺十六条西五丁目","koaza":"","lat":42.917572,"lng":143.172657},{"town":"白樺十六条西六丁目","koaza":"","lat":42.917044,"lng":143.17256},{"town":"白樺十六条西七丁目","koaza":"","lat":42.917136,"lng":143.173856},{"town":"白樺十六条西八丁目","koaza":"","lat":42.917225,"lng":143.175144},{"town":"白樺十六条西九丁目","koaza":"","lat":42.91648,"lng":143.175499},{"town":"白樺十六条東一丁目","koaza":"","lat":42.919835,"lng":143.177718},{"town":"白樺十六条東十丁目","koaza":"","lat":42.917746,"lng":143.176155},{"town":"白樺十六条東十一丁目","koaza":"","lat":42.917322,"lng":143.176551},{"town":"白樺十六条東十二丁目","koaza":"","lat":42.917424,"lng":143.178005},{"town":"白樺十六条東十三丁目","koaza":"","lat":42.916689,"lng":143.178458},{"town":"白樺十六条東十四丁目","koaza":"","lat":42.916857,"lng":143.177315},{"town":"白樺十六条東十五丁目","koaza":"","lat":42.916362,"lng":143.177377},{"town":"白樺十六条東十六丁目","koaza":"","lat":42.916534,"lng":143.176302},{"town":"白樺十六条東十七丁目","koaza":"","lat":42.915491,"lng":143.17643},{"town":"白樺十六条東十八丁目","koaza":"","lat":42.915873,"lng":143.177437},{"town":"白樺十六条東十九丁目","koaza":"","lat":42.915298,"lng":143.177509},{"town":"白樺十六条東二丁目","koaza":"","lat":42.919727,"lng":143.17625},{"town":"白樺十六条東二十丁目","koaza":"","lat":42.915606,"lng":143.178593},{"town":"白樺十六条東三丁目","koaza":"","lat":42.919174,"lng":143.176324},{"town":"白樺十六条東四丁目","koaza":"","lat":42.919023,"lng":143.17745},{"town":"白樺十六条東五丁目","koaza":"","lat":42.919072,"lng":143.178148},{"town":"白樺十六条東六丁目","koaza":"","lat":42.918173,"lng":143.178331},{"town":"白樺十六条東七丁目","koaza":"","lat":42.918102,"lng":143.177561},{"town":"白樺十六条東八丁目","koaza":"","lat":42.918285,"lng":143.176856},{"town":"白樺十六条東九丁目","koaza":"","lat":42.918471,"lng":143.175979},{"town":"新町西一丁目","koaza":"","lat":42.924583,"lng":143.187437},{"town":"新町西二丁目","koaza":"","lat":42.925372,"lng":143.185943},{"town":"新町西三丁目","koaza":"","lat":42.925961,"lng":143.184554},{"town":"新町西四丁目","koaza":"","lat":42.923214,"lng":143.18709},{"town":"新町西五丁目","koaza":"","lat":42.924421,"lng":143.186309},{"town":"新町西六丁目","koaza":"","lat":42.925516,"lng":143.183972},{"town":"新町西七丁目","koaza":"","lat":42.924538,"lng":143.183568},{"town":"新町西八丁目","koaza":"","lat":42.925253,"lng":143.183009},{"town":"新町西九丁目","koaza":"","lat":42.925004,"lng":143.182312},{"town":"新町東一丁目","koaza":"","lat":42.924137,"lng":143.188603},{"town":"新町東十丁目","koaza":"","lat":42.92137,"lng":143.186627},{"town":"新町東十一丁目","koaza":"","lat":42.921342,"lng":143.187338},{"town":"新町東十二丁目","koaza":"","lat":42.921389,"lng":143.188455},{"town":"新町東二丁目","koaza":"","lat":42.92333,"lng":143.190101},{"town":"新町東三丁目","koaza":"","lat":42.923653,"lng":143.188107},{"town":"新町東四丁目","koaza":"","lat":42.922748,"lng":143.187427},{"town":"新町東五丁目","koaza":"","lat":42.922961,"lng":143.188235},{"town":"新町東六丁目","koaza":"","lat":42.923057,"lng":143.189223},{"town":"新町東七丁目","koaza":"","lat":42.922486,"lng":143.188614},{"town":"新町東八丁目","koaza":"","lat":42.922462,"lng":143.18949},{"town":"新町東九丁目","koaza":"","lat":42.921936,"lng":143.187241},{"town":"自由が丘一丁目","koaza":"","lat":42.903178,"lng":143.165164},{"town":"自由が丘二丁目","koaza":"","lat":42.902949,"lng":143.161786},{"town":"自由が丘三丁目","koaza":"","lat":42.902516,"lng":143.158429},{"town":"自由が丘四丁目","koaza":"","lat":42.902225,"lng":143.155155},{"town":"自由が丘五丁目","koaza":"","lat":42.899764,"lng":143.155545},{"town":"自由が丘六丁目","koaza":"","lat":42.899215,"lng":143.152567},{"town":"自由が丘七丁目","koaza":"","lat":42.899369,"lng":143.150339},{"town":"清流西一丁目","koaza":"","lat":42.879806,"lng":143.195962},{"town":"清流西二丁目","koaza":"","lat":42.874731,"lng":143.192348},{"town":"清流西三丁目","koaza":"","lat":42.868232,"lng":143.18961},{"town":"清流西四丁目","koaza":"","lat":42.863855,"lng":143.186908},{"town":"清流東一丁目","koaza":"","lat":42.879986,"lng":143.198676},{"town":"清流東二丁目","koaza":"","lat":42.87474,"lng":143.196096},{"town":"清流東三丁目","koaza":"","lat":42.868195,"lng":143.192981},{"town":"清流東四丁目","koaza":"","lat":42.863953,"lng":143.190402},{"town":"大正町","koaza":"","lat":42.794872,"lng":143.154726},{"town":"太平町","koaza":"","lat":42.716279,"lng":143.015936},{"town":"拓成町","koaza":"","lat":42.706357,"lng":142.935097},{"town":"豊西町","koaza":"","lat":42.815617,"lng":143.162958},{"town":"中島町","koaza":"","lat":42.768497,"lng":143.135784},{"town":"西十条北一丁目","koaza":"","lat":42.931562,"lng":143.18816},{"town":"西十条北十丁目","koaza":"","lat":42.946942,"lng":143.186207},{"town":"西十条北二丁目","koaza":"","lat":42.93294,"lng":143.188092},{"town":"西十条北三丁目","koaza":"","lat":42.933969,"lng":143.188001},{"town":"西十条北四丁目","koaza":"","lat":42.935212,"lng":143.187821},{"town":"西十条北五丁目","koaza":"","lat":42.936534,"lng":143.18762},{"town":"西十条北六丁目","koaza":"","lat":42.937782,"lng":143.187432},{"town":"西十条北七丁目","koaza":"","lat":42.939623,"lng":143.186998},{"town":"西十条北八丁目","koaza":"","lat":42.94217,"lng":143.186878},{"town":"西十条北九丁目","koaza":"","lat":42.944464,"lng":143.186557},{"town":"西十条南一丁目","koaza":"","lat":42.930325,"lng":143.188306},{"town":"西十条南十丁目","koaza":"","lat":42.919844,"lng":143.189445},{"town":"西十条南十一丁目","koaza":"","lat":42.918867,"lng":143.189617},{"town":"西十条南十二丁目","koaza":"","lat":42.917551,"lng":143.189835},{"town":"西十条南十三丁目","koaza":"","lat":42.916391,"lng":143.189994},{"town":"西十条南十四丁目","koaza":"","lat":42.915233,"lng":143.190154},{"town":"西十条南十五丁目","koaza":"","lat":42.914082,"lng":143.190312},{"town":"西十条南十六丁目","koaza":"","lat":42.912931,"lng":143.190469},{"town":"西十条南十七丁目","koaza":"","lat":42.911776,"lng":143.190625},{"town":"西十条南十八丁目","koaza":"","lat":42.910615,"lng":143.190782},{"town":"西十条南十九丁目","koaza":"","lat":42.909447,"lng":143.190939},{"town":"西十条南二丁目","koaza":"","lat":42.929157,"lng":143.188464},{"town":"西十条南二十丁目","koaza":"","lat":42.908587,"lng":143.191443},{"town":"西十条南二十四丁目","koaza":"","lat":42.903015,"lng":143.191329},{"town":"西十条南二十五丁目","koaza":"","lat":42.902343,"lng":143.191933},{"town":"西十条南二十六丁目","koaza":"","lat":42.901201,"lng":143.19225},{"town":"西十条南二十七丁目","koaza":"","lat":42.900078,"lng":143.192273},{"town":"西十条南二十八丁目","koaza":"","lat":42.898949,"lng":143.19241},{"town":"西十条南二十九丁目","koaza":"","lat":42.897784,"lng":143.192554},{"town":"西十条南三丁目","koaza":"","lat":42.927957,"lng":143.188678},{"town":"西十条南三十丁目","koaza":"","lat":42.89667,"lng":143.192719},{"town":"西十条南三十一丁目","koaza":"","lat":42.895502,"lng":143.192897},{"town":"西十条南三十二丁目","koaza":"","lat":42.894252,"lng":143.193044},{"town":"西十条南三十三丁目","koaza":"","lat":42.89314,"lng":143.193275},{"town":"西十条南三十四丁目","koaza":"","lat":42.891884,"lng":143.193402},{"town":"西十条南三十九丁目","koaza":"","lat":42.885171,"lng":143.194096},{"town":"西十条南四丁目","koaza":"","lat":42.926803,"lng":143.188832},{"town":"西十条南四十丁目","koaza":"","lat":42.883506,"lng":143.194428},{"town":"西十条南四十一丁目","koaza":"","lat":42.881962,"lng":143.194586},{"town":"西十条南五丁目","koaza":"","lat":42.92565,"lng":143.188902},{"town":"西十条南六丁目","koaza":"","lat":42.924516,"lng":143.189227},{"town":"西十条南八丁目","koaza":"","lat":42.922208,"lng":143.189907},{"town":"西十条南九丁目","koaza":"","lat":42.921096,"lng":143.189427},{"town":"西十一条北一丁目","koaza":"","lat":42.931462,"lng":143.186606},{"town":"西十一条北十丁目","koaza":"","lat":42.947073,"lng":143.184557},{"town":"西十一条北二丁目","koaza":"","lat":42.932644,"lng":143.186467},{"town":"西十一条北三丁目","koaza":"","lat":42.933843,"lng":143.186317},{"town":"西十一条北四丁目","koaza":"","lat":42.935097,"lng":143.186151},{"town":"西十一条北五丁目","koaza":"","lat":42.936421,"lng":143.185962},{"town":"西十一条北六丁目","koaza":"","lat":42.937669,"lng":143.185774},{"town":"西十一条北七丁目","koaza":"","lat":42.939508,"lng":143.185522},{"town":"西十一条北八丁目","koaza":"","lat":42.94205,"lng":143.185204},{"town":"西十一条北九丁目","koaza":"","lat":42.944354,"lng":143.184911},{"town":"西十一条南一丁目","koaza":"","lat":42.930214,"lng":143.186727},{"town":"西十一条南十丁目","koaza":"","lat":42.919745,"lng":143.187952},{"town":"西十一条南十一丁目","koaza":"","lat":42.918593,"lng":143.188082},{"town":"西十一条南十二丁目","koaza":"","lat":42.91744,"lng":143.188241},{"town":"西十一条南十三丁目","koaza":"","lat":42.91628,"lng":143.188401},{"town":"西十一条南十四丁目","koaza":"","lat":42.915118,"lng":143.188562},{"town":"西十一条南十五丁目","koaza":"","lat":42.913966,"lng":143.188722},{"town":"西十一条南十六丁目","koaza":"","lat":42.912816,"lng":143.188879},{"town":"西十一条南十七丁目","koaza":"","lat":42.911658,"lng":143.189036},{"town":"西十一条南十八丁目","koaza":"","lat":42.910419,"lng":143.189083},{"town":"西十一条南十九丁目","koaza":"","lat":42.909602,"lng":143.189689},{"town":"西十一条南二丁目","koaza":"","lat":42.929043,"lng":143.18686},{"town":"西十一条南二十四丁目","koaza":"","lat":42.903324,"lng":143.190141},{"town":"西十一条南二十五丁目","koaza":"","lat":42.902294,"lng":143.190371},{"town":"西十一条南二十六丁目","koaza":"","lat":42.901089,"lng":143.190376},{"town":"西十一条南二十七丁目","koaza":"","lat":42.899936,"lng":143.190483},{"town":"西十一条南二十八丁目","koaza":"","lat":42.898823,"lng":143.190617},{"town":"西十一条南二十九丁目","koaza":"","lat":42.89766,"lng":143.190816},{"town":"西十一条南三丁目","koaza":"","lat":42.927849,"lng":143.187069},{"town":"西十一条南三十丁目","koaza":"","lat":42.896546,"lng":143.191003},{"town":"西十一条南三十一丁目","koaza":"","lat":42.895384,"lng":143.191167},{"town":"西十一条南三十二丁目","koaza":"","lat":42.894156,"lng":143.191332},{"town":"西十一条南三十三丁目","koaza":"","lat":42.89304,"lng":143.191555},{"town":"西十一条南三十四丁目","koaza":"","lat":42.89174,"lng":143.191679},{"town":"西十一条南三十九丁目","koaza":"","lat":42.884532,"lng":143.19239},{"town":"西十一条南四丁目","koaza":"","lat":42.926659,"lng":143.187242},{"town":"西十一条南四十丁目","koaza":"","lat":42.883371,"lng":143.192317},{"town":"西十一条南四十一丁目","koaza":"","lat":42.881815,"lng":143.192483},{"town":"西十一条南五丁目","koaza":"","lat":42.925576,"lng":143.187338},{"town":"西十一条南六丁目","koaza":"","lat":42.924813,"lng":143.188247},{"town":"西十一条南九丁目","koaza":"","lat":42.920573,"lng":143.188251},{"town":"西十二条北一丁目","koaza":"","lat":42.931259,"lng":143.184737},{"town":"西十二条北十丁目","koaza":"","lat":42.947891,"lng":143.182362},{"town":"西十二条北二丁目","koaza":"","lat":42.932391,"lng":143.184377},{"town":"西十二条北三丁目","koaza":"","lat":42.933714,"lng":143.184439},{"town":"西十二条北四丁目","koaza":"","lat":42.934963,"lng":143.184285},{"town":"西十二条北五丁目","koaza":"","lat":42.936288,"lng":143.184115},{"town":"西十二条北六丁目","koaza":"","lat":42.937543,"lng":143.183944},{"town":"西十二条北七丁目","koaza":"","lat":42.939383,"lng":143.1837},{"town":"西十二条北八丁目","koaza":"","lat":42.941924,"lng":143.18337},{"town":"西十二条北九丁目","koaza":"","lat":42.944228,"lng":143.183081},{"town":"西十二条南一丁目","koaza":"","lat":42.93009,"lng":143.184854},{"town":"西十二条南十丁目","koaza":"","lat":42.919461,"lng":143.186359},{"town":"西十二条南十一丁目","koaza":"","lat":42.918475,"lng":143.186477},{"town":"西十二条南十二丁目","koaza":"","lat":42.917324,"lng":143.186625},{"town":"西十二条南十三丁目","koaza":"","lat":42.916166,"lng":143.186777},{"town":"西十二条南十四丁目","koaza":"","lat":42.915001,"lng":143.186929},{"town":"西十二条南十五丁目","koaza":"","lat":42.913851,"lng":143.1871},{"town":"西十二条南十六丁目","koaza":"","lat":42.912688,"lng":143.187228},{"town":"西十二条南十七丁目","koaza":"","lat":42.911533,"lng":143.187336},{"town":"西十二条南十八丁目","koaza":"","lat":42.910537,"lng":143.187951},{"town":"西十二条南二丁目","koaza":"","lat":42.928923,"lng":143.18499},{"town":"西十二条南二十四丁目","koaza":"","lat":42.902919,"lng":143.189281},{"town":"西十二条南二十五丁目","koaza":"","lat":42.902167,"lng":143.189115},{"town":"西十二条南二十六丁目","koaza":"","lat":42.900988,"lng":143.188553},{"town":"西十二条南二十七丁目","koaza":"","lat":42.899809,"lng":143.18865},{"town":"西十二条南二十八丁目","koaza":"","lat":42.898692,"lng":143.18879},{"town":"西十二条南二十九丁目","koaza":"","lat":42.897529,"lng":143.188992},{"town":"西十二条南三丁目","koaza":"","lat":42.927674,"lng":143.185176},{"town":"西十二条南三十丁目","koaza":"","lat":42.896413,"lng":143.189176},{"town":"西十二条南三十一丁目","koaza":"","lat":42.895244,"lng":143.189327},{"town":"西十二条南三十二丁目","koaza":"","lat":42.894014,"lng":143.189497},{"town":"西十二条南三十三丁目","koaza":"","lat":42.892876,"lng":143.18963},{"town":"西十二条南三十四丁目","koaza":"","lat":42.891653,"lng":143.189749},{"town":"西十二条南三十九丁目","koaza":"","lat":42.885493,"lng":143.189838},{"town":"西十二条南四丁目","koaza":"","lat":42.926481,"lng":143.185333},{"town":"西十二条南四十丁目","koaza":"","lat":42.883336,"lng":143.190617},{"town":"西十二条南四十一丁目","koaza":"","lat":42.881699,"lng":143.190817},{"town":"西十二条南五丁目","koaza":"","lat":42.925721,"lng":143.18618},{"town":"西十二条南六丁目","koaza":"","lat":42.924123,"lng":143.185647},{"town":"西十二条南七丁目","koaza":"","lat":42.922969,"lng":143.185843},{"town":"西十二条南八丁目","koaza":"","lat":42.921864,"lng":143.186196},{"town":"西十二条南九丁目","koaza":"","lat":42.920712,"lng":143.186615},{"town":"西十三条北一丁目","koaza":"","lat":42.931358,"lng":143.182446},{"town":"西十三条北十丁目","koaza":"","lat":42.946952,"lng":143.180414},{"town":"西十三条北二丁目","koaza":"","lat":42.93245,"lng":143.182299},{"town":"西十三条北三丁目","koaza":"","lat":42.933571,"lng":143.182147},{"town":"西十三条北四丁目","koaza":"","lat":42.934801,"lng":143.181979},{"town":"西十三条北五丁目","koaza":"","lat":42.936126,"lng":143.181799},{"town":"西十三条北六丁目","koaza":"","lat":42.937381,"lng":143.181628},{"town":"西十三条北七丁目","koaza":"","lat":42.939217,"lng":143.181384},{"town":"西十三条北八丁目","koaza":"","lat":42.941716,"lng":143.180828},{"town":"西十三条北九丁目","koaza":"","lat":42.944067,"lng":143.18078},{"town":"西十三条南一丁目","koaza":"","lat":42.929941,"lng":143.182633},{"town":"西十三条南十丁目","koaza":"","lat":42.919388,"lng":143.184258},{"town":"西十三条南十一丁目","koaza":"","lat":42.918277,"lng":143.184338},{"town":"西十三条南十二丁目","koaza":"","lat":42.917134,"lng":143.18444},{"town":"西十三条南十三丁目","koaza":"","lat":42.916008,"lng":143.184583},{"town":"西十三条南十四丁目","koaza":"","lat":42.91484,"lng":143.18473},{"town":"西十三条南十五丁目","koaza":"","lat":42.913697,"lng":143.185007},{"town":"西十三条南十六丁目","koaza":"","lat":42.912545,"lng":143.185083},{"town":"西十三条南十七丁目","koaza":"","lat":42.911381,"lng":143.185243},{"town":"西十三条南二丁目","koaza":"","lat":42.928711,"lng":143.182794},{"town":"西十三条南二十七丁目","koaza":"","lat":42.899855,"lng":143.186346},{"town":"西十三条南二十八丁目","koaza":"","lat":42.898668,"lng":143.186865},{"town":"西十三条南二十九丁目","koaza":"","lat":42.897347,"lng":143.186993},{"town":"西十三条南三丁目","koaza":"","lat":42.927523,"lng":143.182952},{"town":"西十三条南三十丁目","koaza":"","lat":42.896187,"lng":143.187054},{"town":"西十三条南三十一丁目","koaza":"","lat":42.895043,"lng":143.187256},{"town":"西十三条南三十二丁目","koaza":"","lat":42.893824,"lng":143.187418},{"town":"西十三条南三十三丁目","koaza":"","lat":42.892619,"lng":143.187579},{"town":"西十三条南三十四丁目","koaza":"","lat":42.891415,"lng":143.187782},{"town":"西十三条南三十五丁目","koaza":"","lat":42.890049,"lng":143.187023},{"town":"西十三条南三十六丁目","koaza":"","lat":42.888887,"lng":143.187279},{"town":"西十三条南三十九丁目","koaza":"","lat":42.884888,"lng":143.188666},{"town":"西十三条南四丁目","koaza":"","lat":42.926231,"lng":143.182681},{"town":"西十三条南四十丁目","koaza":"","lat":42.883256,"lng":143.189089},{"town":"西十三条南四十一丁目","koaza":"","lat":42.881622,"lng":143.1896},{"town":"西十三条南六丁目","koaza":"","lat":42.923951,"lng":143.183419},{"town":"西十三条南七丁目","koaza":"","lat":42.9228,"lng":143.183703},{"town":"西十三条南八丁目","koaza":"","lat":42.921705,"lng":143.183856},{"town":"西十三条南九丁目","koaza":"","lat":42.920607,"lng":143.184005},{"town":"西十四条北一丁目","koaza":"","lat":42.930959,"lng":143.180227},{"town":"西十四条北十丁目","koaza":"","lat":42.946184,"lng":143.178642},{"town":"西十四条北二丁目","koaza":"","lat":42.932228,"lng":143.180039},{"town":"西十四条北三丁目","koaza":"","lat":42.933415,"lng":143.179895},{"town":"西十四条北四丁目","koaza":"","lat":42.934647,"lng":143.179748},{"town":"西十四条北五丁目","koaza":"","lat":42.935973,"lng":143.179578},{"town":"西十四条北六丁目","koaza":"","lat":42.937223,"lng":143.179402},{"town":"西十四条北七丁目","koaza":"","lat":42.939053,"lng":143.179139},{"town":"西十四条北八丁目","koaza":"","lat":42.941592,"lng":143.178796},{"town":"西十四条北九丁目","koaza":"","lat":42.943913,"lng":143.178502},{"town":"西十四条南一丁目","koaza":"","lat":42.929787,"lng":143.180387},{"town":"西十四条南十丁目","koaza":"","lat":42.919216,"lng":143.181917},{"town":"西十四条南十一丁目","koaza":"","lat":42.918042,"lng":143.181991},{"town":"西十四条南十二丁目","koaza":"","lat":42.916955,"lng":143.182005},{"town":"西十四条南十三丁目","koaza":"","lat":42.915807,"lng":143.182148},{"town":"西十四条南十四丁目","koaza":"","lat":42.914601,"lng":143.182524},{"town":"西十四条南十五丁目","koaza":"","lat":42.913511,"lng":143.18258},{"town":"西十四条南十六丁目","koaza":"","lat":42.912377,"lng":143.182702},{"town":"西十四条南十七丁目","koaza":"","lat":42.911208,"lng":143.182838},{"town":"西十四条南二丁目","koaza":"","lat":42.928517,"lng":143.180542},{"town":"西十四条南二十八丁目","koaza":"","lat":42.898113,"lng":143.18429},{"town":"西十四条南二十九丁目","koaza":"","lat":42.89737,"lng":143.184276},{"town":"西十四条南三丁目","koaza":"","lat":42.927273,"lng":143.180699},{"town":"西十四条南三十丁目","koaza":"","lat":42.896024,"lng":143.184445},{"town":"西十四条南三十一丁目","koaza":"","lat":42.894745,"lng":143.184688},{"town":"西十四条南三十二丁目","koaza":"","lat":42.893586,"lng":143.184809},{"town":"西十四条南三十三丁目","koaza":"","lat":42.892515,"lng":143.18493},{"town":"西十四条南三十四丁目","koaza":"","lat":42.891252,"lng":143.185092},{"town":"西十四条南三十五丁目","koaza":"","lat":42.889967,"lng":143.185724},{"town":"西十四条南三十六丁目","koaza":"","lat":42.888696,"lng":143.185884},{"town":"西十四条南三十七丁目","koaza":"","lat":42.887535,"lng":143.185457},{"town":"西十四条南三十九丁目","koaza":"","lat":42.88478,"lng":143.187035},{"town":"西十四条南四丁目","koaza":"","lat":42.926417,"lng":143.18099},{"town":"西十四条南四十丁目","koaza":"","lat":42.883013,"lng":143.187082},{"town":"西十四条南四十一丁目","koaza":"","lat":42.881719,"lng":143.187303},{"town":"西十四条南五丁目","koaza":"","lat":42.925141,"lng":143.180901},{"town":"西十四条南六丁目","koaza":"","lat":42.924125,"lng":143.181559},{"town":"西十四条南七丁目","koaza":"","lat":42.922634,"lng":143.181508},{"town":"西十四条南八丁目","koaza":"","lat":42.92156,"lng":143.181652},{"town":"西十四条南九丁目","koaza":"","lat":42.920474,"lng":143.181801},{"town":"西十五条北一丁目","koaza":"","lat":42.930804,"lng":143.178005},{"town":"西十五条北二丁目","koaza":"","lat":42.932178,"lng":143.177599},{"town":"西十五条北三丁目","koaza":"","lat":42.933247,"lng":143.177672},{"town":"西十五条北四丁目","koaza":"","lat":42.934488,"lng":143.177529},{"town":"西十五条北五丁目","koaza":"","lat":42.935815,"lng":143.177364},{"town":"西十五条北六丁目","koaza":"","lat":42.937068,"lng":143.17719},{"town":"西十五条北七丁目","koaza":"","lat":42.938903,"lng":143.17692},{"town":"西十五条北八丁目","koaza":"","lat":42.941028,"lng":143.176624},{"town":"西十五条北九丁目","koaza":"","lat":42.943599,"lng":143.176248},{"town":"西十五条南一丁目","koaza":"","lat":42.929505,"lng":143.178173},{"town":"西十五条南十丁目","koaza":"","lat":42.91903,"lng":143.179697},{"town":"西十五条南十一丁目","koaza":"","lat":42.917848,"lng":143.179841},{"town":"西十五条南十二丁目","koaza":"","lat":42.916737,"lng":143.179883},{"town":"西十五条南十三丁目","koaza":"","lat":42.915706,"lng":143.180013},{"town":"西十五条南十四丁目","koaza":"","lat":42.914468,"lng":143.180203},{"town":"西十五条南十五丁目","koaza":"","lat":42.913384,"lng":143.180335},{"town":"西十五条南十六丁目","koaza":"","lat":42.912192,"lng":143.180473},{"town":"西十五条南十七丁目","koaza":"","lat":42.911072,"lng":143.180623},{"town":"西十五条南二丁目","koaza":"","lat":42.928235,"lng":143.178329},{"town":"西十五条南二十八丁目","koaza":"","lat":42.89795,"lng":143.18199},{"town":"西十五条南二十九丁目","koaza":"","lat":42.897122,"lng":143.18212},{"town":"西十五条南三丁目","koaza":"","lat":42.927137,"lng":143.17848},{"town":"西十五条南三十丁目","koaza":"","lat":42.895915,"lng":143.18224},{"town":"西十五条南三十一丁目","koaza":"","lat":42.894696,"lng":143.182469},{"town":"西十五条南三十二丁目","koaza":"","lat":42.893507,"lng":143.182631},{"town":"西十五条南三十三丁目","koaza":"","lat":42.892228,"lng":143.182772},{"town":"西十五条南三十四丁目","koaza":"","lat":42.891054,"lng":143.183015},{"town":"西十五条南三十五丁目","koaza":"","lat":42.889909,"lng":143.183468},{"town":"西十五条南三十六丁目","koaza":"","lat":42.888749,"lng":143.183634},{"town":"西十五条南三十七丁目","koaza":"","lat":42.886798,"lng":143.183722},{"town":"西十五条南三十八丁目","koaza":"","lat":42.885842,"lng":143.18393},{"town":"西十五条南三十九丁目","koaza":"","lat":42.884654,"lng":143.184662},{"town":"西十五条南四丁目","koaza":"","lat":42.926178,"lng":143.178619},{"town":"西十五条南四十丁目","koaza":"","lat":42.883019,"lng":143.184534},{"town":"西十五条南四十一丁目","koaza":"","lat":42.881318,"lng":143.185171},{"town":"西十五条南五丁目","koaza":"","lat":42.924993,"lng":143.178598},{"town":"西十五条南六丁目","koaza":"","lat":42.923637,"lng":143.17906},{"town":"西十五条南七丁目","koaza":"","lat":42.922456,"lng":143.179218},{"town":"西十五条南八丁目","koaza":"","lat":42.921401,"lng":143.179365},{"town":"西十五条南九丁目","koaza":"","lat":42.920304,"lng":143.179544},{"town":"西十六条北一丁目","koaza":"","lat":42.932338,"lng":143.173255},{"town":"西十六条北二丁目","koaza":"","lat":42.937213,"lng":143.173727},{"town":"西十六条北三丁目","koaza":"","lat":42.942398,"lng":143.171887},{"town":"西十六条南一丁目","koaza":"","lat":42.92751,"lng":143.173899},{"town":"西十六条南二丁目","koaza":"","lat":42.9226,"lng":143.175124},{"town":"西十六条南二十七丁目","koaza":"","lat":42.899744,"lng":143.179758},{"town":"西十六条南二十八丁目","koaza":"","lat":42.898359,"lng":143.180115},{"town":"西十六条南二十九丁目","koaza":"","lat":42.897147,"lng":143.180257},{"town":"西十六条南三十丁目","koaza":"","lat":42.895986,"lng":143.180422},{"town":"西十六条南三十一丁目","koaza":"","lat":42.894623,"lng":143.180529},{"town":"西十六条南三十二丁目","koaza":"","lat":42.893393,"lng":143.180784},{"town":"西十六条南三十三丁目","koaza":"","lat":42.892149,"lng":143.180943},{"town":"西十六条南三十四丁目","koaza":"","lat":42.890883,"lng":143.181059},{"town":"西十六条南三十五丁目","koaza":"","lat":42.889151,"lng":143.181138},{"town":"西十六条南三十六丁目","koaza":"","lat":42.888479,"lng":143.18179},{"town":"西十六条南三十七丁目","koaza":"","lat":42.886924,"lng":143.181517},{"town":"西十六条南三十八丁目","koaza":"","lat":42.885687,"lng":143.181652},{"town":"西十六条南三十九丁目","koaza":"","lat":42.884034,"lng":143.18126},{"town":"西十六条南四丁目","koaza":"","lat":42.91239,"lng":143.17593},{"town":"西十六条南四十丁目","koaza":"","lat":42.882932,"lng":143.18209},{"town":"西十六条南四十一丁目","koaza":"","lat":42.881231,"lng":143.182329},{"town":"西十六条南五丁目","koaza":"","lat":42.907597,"lng":143.176563},{"town":"西十六条南六丁目","koaza":"","lat":42.90254,"lng":143.177206},{"town":"西十七条北一丁目","koaza":"","lat":42.931858,"lng":143.167152},{"town":"西十七条北二丁目","koaza":"","lat":42.936825,"lng":143.165791},{"town":"西十七条北三丁目","koaza":"","lat":42.940242,"lng":143.165352},{"town":"西十七条北四丁目","koaza":"","lat":42.945176,"lng":143.163517},{"town":"西十七条南一丁目","koaza":"","lat":42.927559,"lng":143.16704},{"town":"西十七条南二十七丁目","koaza":"","lat":42.899313,"lng":143.178233},{"town":"西十七条南二十八丁目","koaza":"","lat":42.897906,"lng":143.177955},{"town":"西十七条南二十九丁目","koaza":"","lat":42.896792,"lng":143.178001},{"town":"西十七条南三丁目","koaza":"","lat":42.91696,"lng":143.168458},{"town":"西十七条南三十丁目","koaza":"","lat":42.895521,"lng":143.178006},{"town":"西十七条南三十一丁目","koaza":"","lat":42.894562,"lng":143.178179},{"town":"西十七条南三十二丁目","koaza":"","lat":42.89331,"lng":143.178269},{"town":"西十七条南三十三丁目","koaza":"","lat":42.891996,"lng":143.178551},{"town":"西十七条南三十四丁目","koaza":"","lat":42.890755,"lng":143.178679},{"town":"西十七条南三十五丁目","koaza":"","lat":42.889426,"lng":143.178634},{"town":"西十七条南三十六丁目","koaza":"","lat":42.887616,"lng":143.178658},{"town":"西十七条南三十七丁目","koaza":"","lat":42.886945,"lng":143.179505},{"town":"西十七条南三十八丁目","koaza":"","lat":42.885602,"lng":143.179748},{"town":"西十七条南三十九丁目","koaza":"","lat":42.884329,"lng":143.179209},{"town":"西十七条南四丁目","koaza":"","lat":42.91197,"lng":143.169146},{"town":"西十七条南四十丁目","koaza":"","lat":42.882732,"lng":143.180094},{"town":"西十七条南四十一丁目","koaza":"","lat":42.881035,"lng":143.179739},{"town":"西十七条南五丁目","koaza":"","lat":42.907494,"lng":143.169408},{"town":"西十七条南六丁目","koaza":"","lat":42.902093,"lng":143.169756},{"town":"西十八条北一丁目","koaza":"","lat":42.931354,"lng":143.159611},{"town":"西十八条北二丁目","koaza":"","lat":42.936332,"lng":143.158935},{"town":"西十八条北三丁目","koaza":"","lat":42.939715,"lng":143.158489},{"town":"西十八条北四丁目","koaza":"","lat":42.945134,"lng":143.15829},{"town":"西十八条南一丁目","koaza":"","lat":42.926345,"lng":143.160355},{"town":"西十八条南二丁目","koaza":"","lat":42.921434,"lng":143.160995},{"town":"西十八条南二十七丁目","koaza":"","lat":42.898986,"lng":143.176269},{"town":"西十八条南二十八丁目","koaza":"","lat":42.897542,"lng":143.176232},{"town":"西十八条南二十九丁目","koaza":"","lat":42.896681,"lng":143.176325},{"town":"西十八条南三丁目","koaza":"","lat":42.91649,"lng":143.161681},{"town":"西十八条南三十丁目","koaza":"","lat":42.895384,"lng":143.176365},{"town":"西十八条南三十一丁目","koaza":"","lat":42.894416,"lng":143.176274},{"town":"西十八条南三十二丁目","koaza":"","lat":42.893262,"lng":143.176368},{"town":"西十八条南三十三丁目","koaza":"","lat":42.891986,"lng":143.176503},{"town":"西十八条南三十四丁目","koaza":"","lat":42.890704,"lng":143.176581},{"town":"西十八条南三十五丁目","koaza":"","lat":42.889599,"lng":143.176309},{"town":"西十八条南三十六丁目","koaza":"","lat":42.887959,"lng":143.176629},{"town":"西十八条南三十七丁目","koaza":"","lat":42.8862,"lng":143.176701},{"town":"西十八条南三十八丁目","koaza":"","lat":42.885669,"lng":143.177827},{"town":"西十八条南三十九丁目","koaza":"","lat":42.883296,"lng":143.177352},{"town":"西十八条南四丁目","koaza":"","lat":42.911483,"lng":143.162381},{"town":"西十八条南四十丁目","koaza":"","lat":42.881818,"lng":143.177637},{"town":"西十八条南四十一丁目","koaza":"","lat":42.880253,"lng":143.177412},{"town":"西十八条南五丁目","koaza":"","lat":42.906025,"lng":143.163105},{"town":"西十八条南六丁目","koaza":"","lat":42.900855,"lng":143.163773},{"town":"西十九条北一丁目","koaza":"","lat":42.930865,"lng":143.152798},{"town":"西十九条北二丁目","koaza":"","lat":42.935846,"lng":143.152134},{"town":"西十九条北三丁目","koaza":"","lat":42.944398,"lng":143.151074},{"town":"西十九条南一丁目","koaza":"","lat":42.925748,"lng":143.153647},{"town":"西十九条南二丁目","koaza":"","lat":42.921234,"lng":143.154202},{"town":"西十九条南三丁目","koaza":"","lat":42.91598,"lng":143.154938},{"town":"西十九条南三十五丁目","koaza":"","lat":42.889152,"lng":143.174802},{"town":"西十九条南三十六丁目","koaza":"","lat":42.887909,"lng":143.174595},{"town":"西十九条南三十七丁目","koaza":"","lat":42.886706,"lng":143.174751},{"town":"西十九条南三十八丁目","koaza":"","lat":42.885379,"lng":143.174849},{"town":"西十九条南四丁目","koaza":"","lat":42.911011,"lng":143.155582},{"town":"西十九条南四十一丁目","koaza":"","lat":42.880483,"lng":143.17586},{"town":"西十九条南四十二丁目","koaza":"","lat":42.878704,"lng":143.173858},{"town":"西十九条南五丁目","koaza":"","lat":42.905389,"lng":143.155785},{"town":"西十九条南六丁目","koaza":"","lat":42.90023,"lng":143.158948},{"town":"西一条北一丁目","koaza":"","lat":42.93253,"lng":143.202314},{"town":"西一条北二丁目","koaza":"","lat":42.934411,"lng":143.202068},{"town":"西一条南一丁目","koaza":"","lat":42.931358,"lng":143.20246},{"town":"西一条南十丁目","koaza":"","lat":42.920914,"lng":143.203855},{"town":"西一条南十一丁目","koaza":"","lat":42.919751,"lng":143.204013},{"town":"西一条南十二丁目","koaza":"","lat":42.918528,"lng":143.204147},{"town":"西一条南十三丁目","koaza":"","lat":42.917371,"lng":143.204309},{"town":"西一条南十四丁目","koaza":"","lat":42.916259,"lng":143.204474},{"town":"西一条南十五丁目","koaza":"","lat":42.91511,"lng":143.204613},{"town":"西一条南十六丁目","koaza":"","lat":42.913955,"lng":143.204753},{"town":"西一条南十七丁目","koaza":"","lat":42.912797,"lng":143.204902},{"town":"西一条南十八丁目","koaza":"","lat":42.911638,"lng":143.205055},{"town":"西一条南十九丁目","koaza":"","lat":42.910441,"lng":143.205217},{"town":"西一条南二丁目","koaza":"","lat":42.930169,"lng":143.202629},{"town":"西一条南二十丁目","koaza":"","lat":42.909209,"lng":143.205389},{"town":"西一条南二十一丁目","koaza":"","lat":42.908012,"lng":143.205561},{"town":"西一条南二十二丁目","koaza":"","lat":42.906853,"lng":143.205718},{"town":"西一条南二十三丁目","koaza":"","lat":42.905697,"lng":143.205871},{"town":"西一条南二十四丁目","koaza":"","lat":42.90455,"lng":143.206026},{"town":"西一条南二十五丁目","koaza":"","lat":42.903398,"lng":143.20618},{"town":"西一条南二十六丁目","koaza":"","lat":42.902233,"lng":143.206344},{"town":"西一条南二十七丁目","koaza":"","lat":42.901028,"lng":143.20651},{"town":"西一条南二十八丁目","koaza":"","lat":42.899936,"lng":143.206649},{"town":"西一条南二十九丁目","koaza":"","lat":42.898766,"lng":143.206796},{"town":"西一条南三丁目","koaza":"","lat":42.929007,"lng":143.202783},{"town":"西一条南三十丁目","koaza":"","lat":42.89753,"lng":143.206711},{"town":"西一条南三十一丁目","koaza":"","lat":42.896568,"lng":143.206408},{"town":"西一条南三十二丁目","koaza":"","lat":42.895512,"lng":143.206613},{"town":"西一条南三十三丁目","koaza":"","lat":42.894221,"lng":143.20687},{"town":"西一条南三十五丁目","koaza":"","lat":42.891291,"lng":143.207742},{"town":"西一条南三十六丁目","koaza":"","lat":42.889432,"lng":143.207649},{"town":"西一条南四丁目","koaza":"","lat":42.927859,"lng":143.202927},{"town":"西一条南五丁目","koaza":"","lat":42.926704,"lng":143.203082},{"town":"西一条南六丁目","koaza":"","lat":42.925552,"lng":143.203236},{"town":"西一条南七丁目","koaza":"","lat":42.924394,"lng":143.203393},{"town":"西一条南八丁目","koaza":"","lat":42.923232,"lng":143.203543},{"town":"西一条南九丁目","koaza":"","lat":42.922076,"lng":143.203694},{"town":"西二十条北一丁目","koaza":"","lat":42.930397,"lng":143.146076},{"town":"西二十条北二丁目","koaza":"","lat":42.936109,"lng":143.14532},{"town":"西二十条北三丁目","koaza":"","lat":42.941789,"lng":143.144648},{"town":"西二十条北四丁目","koaza":"","lat":42.946605,"lng":143.144031},{"town":"西二十条北五丁目","koaza":"","lat":42.94962,"lng":143.143538},{"town":"西二十条南一丁目","koaza":"","lat":42.92539,"lng":143.146818},{"town":"西二十条南二丁目","koaza":"","lat":42.920425,"lng":143.147454},{"town":"西二十条南三丁目","koaza":"","lat":42.915498,"lng":143.148173},{"town":"西二十条南四丁目","koaza":"","lat":42.910546,"lng":143.148809},{"town":"西二十条南五丁目","koaza":"","lat":42.905549,"lng":143.149473},{"town":"西二十条南六丁目","koaza":"","lat":42.900606,"lng":143.148448},{"town":"西二十一条北一丁目","koaza":"","lat":42.929907,"lng":143.13914},{"town":"西二十一条北二丁目","koaza":"","lat":42.93487,"lng":143.138677},{"town":"西二十一条北三丁目","koaza":"","lat":42.941096,"lng":143.137896},{"town":"西二十一条北四丁目","koaza":"","lat":42.9461,"lng":143.137243},{"town":"西二十一条北五丁目","koaza":"","lat":42.949482,"lng":143.13675},{"town":"西二十一条南一丁目","koaza":"","lat":42.924929,"lng":143.139976},{"town":"西二十一条南二丁目","koaza":"","lat":42.919927,"lng":143.140684},{"town":"西二十一条南三丁目","koaza":"","lat":42.915012,"lng":143.141435},{"town":"西二十一条南四丁目","koaza":"","lat":42.909383,"lng":143.142175},{"town":"西二十一条南五丁目","koaza":"","lat":42.905084,"lng":143.142753},{"town":"西二十一条南六丁目","koaza":"","lat":42.899566,"lng":143.144083},{"town":"西二十二条北一丁目","koaza":"","lat":42.929423,"lng":143.13241},{"town":"西二十二条北二丁目","koaza":"","lat":42.934065,"lng":143.132579},{"town":"西二十二条北三丁目","koaza":"","lat":42.940775,"lng":143.131073},{"town":"西二十二条北四丁目","koaza":"","lat":42.9456,"lng":143.130433},{"town":"西二十二条北五丁目","koaza":"","lat":42.949714,"lng":143.130295},{"town":"西二十二条南一丁目","koaza":"","lat":42.924464,"lng":143.133245},{"town":"西二十二条南二丁目","koaza":"","lat":42.919486,"lng":143.13392},{"town":"西二十二条南三丁目","koaza":"","lat":42.914499,"lng":143.134665},{"town":"西二十二条南四丁目","koaza":"","lat":42.909542,"lng":143.135318},{"town":"西二十二条南五丁目","koaza":"","lat":42.904507,"lng":143.135956},{"town":"西二十二条南六丁目","koaza":"","lat":42.899502,"lng":143.136614},{"town":"西二十三条北一丁目","koaza":"","lat":42.928947,"lng":143.125835},{"town":"西二十三条北二丁目","koaza":"","lat":42.934168,"lng":143.125132},{"town":"西二十三条北三丁目","koaza":"","lat":42.940316,"lng":143.124317},{"town":"西二十三条北四丁目","koaza":"","lat":42.945082,"lng":143.123717},{"town":"西二十三条北五丁目","koaza":"","lat":42.946878,"lng":143.125499},{"town":"西二十三条南一丁目","koaza":"","lat":42.923981,"lng":143.126527},{"town":"西二十三条南二丁目","koaza":"","lat":42.919002,"lng":143.127181},{"town":"西二十三条南三丁目","koaza":"","lat":42.914051,"lng":143.127844},{"town":"西二十三条南四丁目","koaza":"","lat":42.909039,"lng":143.128505},{"town":"西二十三条南五丁目","koaza":"","lat":42.904636,"lng":143.129757},{"town":"西二十三条南六丁目","koaza":"","lat":42.899004,"lng":143.129846},{"town":"西二十四条北一丁目","koaza":"","lat":42.928448,"lng":143.119113},{"town":"西二十四条北二丁目","koaza":"","lat":42.933441,"lng":143.118471},{"town":"西二十四条北三丁目","koaza":"","lat":42.938557,"lng":143.118619},{"town":"西二十四条北四丁目","koaza":"","lat":42.943221,"lng":143.117642},{"town":"西二十四条南一丁目","koaza":"","lat":42.923517,"lng":143.119754},{"town":"西二十四条南二丁目","koaza":"","lat":42.918517,"lng":143.12038},{"town":"西二十四条南三丁目","koaza":"","lat":42.913545,"lng":143.121036},{"town":"西二十四条南四丁目","koaza":"","lat":42.908595,"lng":143.121709},{"town":"西二十四条南五丁目","koaza":"","lat":42.903631,"lng":143.122389},{"town":"西二十四条南六丁目","koaza":"","lat":42.898557,"lng":143.123064},{"town":"西二十五条北一丁目","koaza":"","lat":42.927784,"lng":143.112499},{"town":"西二十五条北二丁目","koaza":"","lat":42.932496,"lng":143.113626},{"town":"西二十五条北三丁目","koaza":"","lat":42.936407,"lng":143.112633},{"town":"西二十五条南一丁目","koaza":"","lat":42.923032,"lng":143.113049},{"town":"西二十五条南二丁目","koaza":"","lat":42.918036,"lng":143.113527},{"town":"西二十五条南三丁目","koaza":"","lat":42.913045,"lng":143.11421},{"town":"西二十五条南四丁目","koaza":"","lat":42.908081,"lng":143.1149},{"town":"西二十五条南五丁目","koaza":"","lat":42.903153,"lng":143.115586},{"town":"西二十五条南六丁目","koaza":"","lat":42.898108,"lng":143.116267},{"town":"西二条北一丁目","koaza":"","lat":42.932439,"lng":143.20075},{"town":"西二条北二丁目","koaza":"","lat":42.933627,"lng":143.200633},{"town":"西二条北三丁目","koaza":"","lat":42.935277,"lng":143.200408},{"town":"西二条南一丁目","koaza":"","lat":42.931244,"lng":143.200899},{"town":"西二条南十丁目","koaza":"","lat":42.920813,"lng":143.202285},{"town":"西二条南十一丁目","koaza":"","lat":42.919654,"lng":143.202442},{"town":"西二条南十二丁目","koaza":"","lat":42.918559,"lng":143.202533},{"town":"西二条南十三丁目","koaza":"","lat":42.917241,"lng":143.202431},{"town":"西二条南十四丁目","koaza":"","lat":42.916306,"lng":143.202733},{"town":"西二条南十五丁目","koaza":"","lat":42.915218,"lng":143.202816},{"town":"西二条南十六丁目","koaza":"","lat":42.913841,"lng":143.203188},{"town":"西二条南十七丁目","koaza":"","lat":42.912683,"lng":143.203339},{"town":"西二条南十八丁目","koaza":"","lat":42.911521,"lng":143.203494},{"town":"西二条南十九丁目","koaza":"","lat":42.910327,"lng":143.203657},{"town":"西二条南二丁目","koaza":"","lat":42.930066,"lng":143.201067},{"town":"西二条南二十丁目","koaza":"","lat":42.909098,"lng":143.203824},{"town":"西二条南二十一丁目","koaza":"","lat":42.907899,"lng":143.203984},{"town":"西二条南二十二丁目","koaza":"","lat":42.906741,"lng":143.204141},{"town":"西二条南二十三丁目","koaza":"","lat":42.905586,"lng":143.204298},{"town":"西二条南二十四丁目","koaza":"","lat":42.90444,"lng":143.204456},{"town":"西二条南二十五丁目","koaza":"","lat":42.903291,"lng":143.204609},{"town":"西二条南二十六丁目","koaza":"","lat":42.902129,"lng":143.204763},{"town":"西二条南二十七丁目","koaza":"","lat":42.900921,"lng":143.204922},{"town":"西二条南二十八丁目","koaza":"","lat":42.899774,"lng":143.205069},{"town":"西二条南二十九丁目","koaza":"","lat":42.898658,"lng":143.205221},{"town":"西二条南三丁目","koaza":"","lat":42.9289,"lng":143.20121},{"town":"西二条南三十丁目","koaza":"","lat":42.897549,"lng":143.205366},{"town":"西二条南三十一丁目","koaza":"","lat":42.896612,"lng":143.205464},{"town":"西二条南三十二丁目","koaza":"","lat":42.895504,"lng":143.205433},{"town":"西二条南三十三丁目","koaza":"","lat":42.894063,"lng":143.205763},{"town":"西二条南三十四丁目","koaza":"","lat":42.892794,"lng":143.205741},{"town":"西二条南三十五丁目","koaza":"","lat":42.891369,"lng":143.206465},{"town":"西二条南三十六丁目","koaza":"","lat":42.890015,"lng":143.2062},{"town":"西二条南三十七丁目","koaza":"","lat":42.888891,"lng":143.206356},{"town":"西二条南三十八丁目","koaza":"","lat":42.887908,"lng":143.206648},{"town":"西二条南四丁目","koaza":"","lat":42.927744,"lng":143.201353},{"town":"西二条南五丁目","koaza":"","lat":42.926593,"lng":143.201508},{"town":"西二条南六丁目","koaza":"","lat":42.925437,"lng":143.201663},{"town":"西二条南七丁目","koaza":"","lat":42.924276,"lng":143.20182},{"town":"西二条南八丁目","koaza":"","lat":42.923115,"lng":143.201976},{"town":"西二条南九丁目","koaza":"","lat":42.921961,"lng":143.202131},{"town":"西三条北一丁目","koaza":"","lat":42.932319,"lng":143.199122},{"town":"西三条北二丁目","koaza":"","lat":42.933497,"lng":143.198991},{"town":"西三条北三丁目","koaza":"","lat":42.934662,"lng":143.198837},{"town":"西三条北四丁目","koaza":"","lat":42.937581,"lng":143.198166},{"town":"西三条南一丁目","koaza":"","lat":42.931122,"lng":143.19929},{"town":"西三条南十丁目","koaza":"","lat":42.920708,"lng":143.200671},{"town":"西三条南十一丁目","koaza":"","lat":42.919433,"lng":143.200873},{"town":"西三条南十二丁目","koaza":"","lat":42.918345,"lng":143.201053},{"town":"西三条南十三丁目","koaza":"","lat":42.916948,"lng":143.200856},{"town":"西三条南十四丁目","koaza":"","lat":42.915868,"lng":143.201374},{"town":"西三条南十五丁目","koaza":"","lat":42.914797,"lng":143.201686},{"town":"西三条南十六丁目","koaza":"","lat":42.913829,"lng":143.20175},{"town":"西三条南十七丁目","koaza":"","lat":42.912567,"lng":143.201768},{"town":"西三条南十八丁目","koaza":"","lat":42.911405,"lng":143.201923},{"town":"西三条南十九丁目","koaza":"","lat":42.910214,"lng":143.202084},{"town":"西三条南二丁目","koaza":"","lat":42.929953,"lng":143.199463},{"town":"西三条南二十丁目","koaza":"","lat":42.908985,"lng":143.202244},{"town":"西三条南二十一丁目","koaza":"","lat":42.907787,"lng":143.202402},{"town":"西三条南二十二丁目","koaza":"","lat":42.90663,"lng":143.202562},{"town":"西三条南二十三丁目","koaza":"","lat":42.905473,"lng":143.202717},{"town":"西三条南二十四丁目","koaza":"","lat":42.90432,"lng":143.202877},{"town":"西三条南二十五丁目","koaza":"","lat":42.903177,"lng":143.203033},{"town":"西三条南二十六丁目","koaza":"","lat":42.902022,"lng":143.203185},{"town":"西三条南二十七丁目","koaza":"","lat":42.900814,"lng":143.203324},{"town":"西三条南二十八丁目","koaza":"","lat":42.899662,"lng":143.203452},{"town":"西三条南二十九丁目","koaza":"","lat":42.898438,"lng":143.203509},{"town":"西三条南三丁目","koaza":"","lat":42.928789,"lng":143.199616},{"town":"西三条南三十丁目","koaza":"","lat":42.897439,"lng":143.203842},{"town":"西三条南三十一丁目","koaza":"","lat":42.896175,"lng":143.204057},{"town":"西三条南三十二丁目","koaza":"","lat":42.895204,"lng":143.204042},{"town":"西三条南三十三丁目","koaza":"","lat":42.893968,"lng":143.204225},{"town":"西三条南三十四丁目","koaza":"","lat":42.892693,"lng":143.204291},{"town":"西三条南三十五丁目","koaza":"","lat":42.89144,"lng":143.204842},{"town":"西三条南三十六丁目","koaza":"","lat":42.890016,"lng":143.204571},{"town":"西三条南三十七丁目","koaza":"","lat":42.88879,"lng":143.204857},{"town":"西三条南三十八丁目","koaza":"","lat":42.88761,"lng":143.204932},{"town":"西三条南四丁目","koaza":"","lat":42.927626,"lng":143.19977},{"town":"西三条南五丁目","koaza":"","lat":42.926476,"lng":143.19993},{"town":"西三条南六丁目","koaza":"","lat":42.925307,"lng":143.200105},{"town":"西三条南七丁目","koaza":"","lat":42.924149,"lng":143.200282},{"town":"西三条南八丁目","koaza":"","lat":42.923001,"lng":143.200445},{"town":"西三条南九丁目","koaza":"","lat":42.921844,"lng":143.200563},{"town":"西四条北一丁目","koaza":"","lat":42.932204,"lng":143.197554},{"town":"西四条北二丁目","koaza":"","lat":42.933382,"lng":143.197398},{"town":"西四条北三丁目","koaza":"","lat":42.934547,"lng":143.197232},{"town":"西四条北四丁目","koaza":"","lat":42.935848,"lng":143.197058},{"town":"西四条北五丁目","koaza":"","lat":42.937192,"lng":143.196898},{"town":"西四条北六丁目","koaza":"","lat":42.94191,"lng":143.196325},{"town":"西四条南一丁目","koaza":"","lat":42.931007,"lng":143.19772},{"town":"西四条南十丁目","koaza":"","lat":42.920593,"lng":143.199095},{"town":"西四条南十一丁目","koaza":"","lat":42.919427,"lng":143.199309},{"town":"西四条南十二丁目","koaza":"","lat":42.91782,"lng":143.199534},{"town":"西四条南十三丁目","koaza":"","lat":42.916647,"lng":143.19998},{"town":"西四条南十四丁目","koaza":"","lat":42.915961,"lng":143.199672},{"town":"西四条南十五丁目","koaza":"","lat":42.91509,"lng":143.20031},{"town":"西四条南十六丁目","koaza":"","lat":42.913746,"lng":143.200033},{"town":"西四条南十七丁目","koaza":"","lat":42.912451,"lng":143.200187},{"town":"西四条南十八丁目","koaza":"","lat":42.911287,"lng":143.200339},{"town":"西四条南十九丁目","koaza":"","lat":42.910099,"lng":143.200498},{"town":"西四条南二丁目","koaza":"","lat":42.929842,"lng":143.19789},{"town":"西四条南二十丁目","koaza":"","lat":42.908876,"lng":143.200662},{"town":"西四条南二十一丁目","koaza":"","lat":42.907679,"lng":143.200823},{"town":"西四条南二十二丁目","koaza":"","lat":42.906518,"lng":143.200971},{"town":"西四条南二十三丁目","koaza":"","lat":42.905359,"lng":143.201127},{"town":"西四条南二十四丁目","koaza":"","lat":42.904203,"lng":143.201299},{"town":"西四条南二十五丁目","koaza":"","lat":42.903063,"lng":143.201458},{"town":"西四条南二十六丁目","koaza":"","lat":42.901901,"lng":143.201614},{"town":"西四条南二十七丁目","koaza":"","lat":42.900716,"lng":143.201935},{"town":"西四条南二十八丁目","koaza":"","lat":42.899568,"lng":143.20206},{"town":"西四条南二十九丁目","koaza":"","lat":42.898441,"lng":143.20224},{"town":"西四条南三丁目","koaza":"","lat":42.928682,"lng":143.198054},{"town":"西四条南三十丁目","koaza":"","lat":42.897331,"lng":143.202434},{"town":"西四条南三十一丁目","koaza":"","lat":42.896038,"lng":143.202591},{"town":"西四条南三十二丁目","koaza":"","lat":42.894808,"lng":143.20273},{"town":"西四条南三十三丁目","koaza":"","lat":42.893858,"lng":143.202853},{"town":"西四条南三十四丁目","koaza":"","lat":42.892618,"lng":143.203019},{"town":"西四条南三十五丁目","koaza":"","lat":42.891092,"lng":143.203274},{"town":"西四条南三十六丁目","koaza":"","lat":42.889956,"lng":143.203421},{"town":"西四条南三十七丁目","koaza":"","lat":42.888978,"lng":143.203716},{"town":"西四条南三十八丁目","koaza":"","lat":42.887696,"lng":143.203756},{"town":"西四条南四丁目","koaza":"","lat":42.927518,"lng":143.198209},{"town":"西四条南五丁目","koaza":"","lat":42.926364,"lng":143.198359},{"town":"西四条南六丁目","koaza":"","lat":42.925174,"lng":143.198515},{"town":"西四条南七丁目","koaza":"","lat":42.924015,"lng":143.198673},{"town":"西四条南八丁目","koaza":"","lat":42.922885,"lng":143.198831},{"town":"西四条南九丁目","koaza":"","lat":42.92173,"lng":143.198962},{"town":"西五条北一丁目","koaza":"","lat":42.932086,"lng":143.195999},{"town":"西五条北二丁目","koaza":"","lat":42.93327,"lng":143.195843},{"town":"西五条北三丁目","koaza":"","lat":42.934428,"lng":143.195685},{"town":"西五条北四丁目","koaza":"","lat":42.935721,"lng":143.195525},{"town":"西五条北五丁目","koaza":"","lat":42.93707,"lng":143.195334},{"town":"西五条北六丁目","koaza":"","lat":42.938311,"lng":143.195165},{"town":"西五条北七丁目","koaza":"","lat":42.94017,"lng":143.194908},{"town":"西五条北八丁目","koaza":"","lat":42.942719,"lng":143.194548},{"town":"西五条北九丁目","koaza":"","lat":42.945302,"lng":143.194202},{"town":"西五条南一丁目","koaza":"","lat":42.930889,"lng":143.196163},{"town":"西五条南十丁目","koaza":"","lat":42.920467,"lng":143.197543},{"town":"西五条南十一丁目","koaza":"","lat":42.919309,"lng":143.197622},{"town":"西五条南十二丁目","koaza":"","lat":42.9179,"lng":143.197924},{"town":"西五条南十三丁目","koaza":"","lat":42.916972,"lng":143.198021},{"town":"西五条南十四丁目","koaza":"","lat":42.915812,"lng":143.198168},{"town":"西五条南十五丁目","koaza":"","lat":42.914619,"lng":143.198207},{"town":"西五条南十六丁目","koaza":"","lat":42.913836,"lng":143.198613},{"town":"西五条南十七丁目","koaza":"","lat":42.912339,"lng":143.198665},{"town":"西五条南十八丁目","koaza":"","lat":42.911173,"lng":143.19875},{"town":"西五条南十九丁目","koaza":"","lat":42.909983,"lng":143.19893},{"town":"西五条南二丁目","koaza":"","lat":42.929727,"lng":143.19633},{"town":"西五条南二十丁目","koaza":"","lat":42.908766,"lng":143.199095},{"town":"西五条南二十一丁目","koaza":"","lat":42.907571,"lng":143.19925},{"town":"西五条南二十二丁目","koaza":"","lat":42.906403,"lng":143.1994},{"town":"西五条南二十三丁目","koaza":"","lat":42.905245,"lng":143.199561},{"town":"西五条南二十四丁目","koaza":"","lat":42.904089,"lng":143.199729},{"town":"西五条南二十五丁目","koaza":"","lat":42.902952,"lng":143.199888},{"town":"西五条南二十六丁目","koaza":"","lat":42.901794,"lng":143.200043},{"town":"西五条南二十七丁目","koaza":"","lat":42.900611,"lng":143.200383},{"town":"西五条南二十八丁目","koaza":"","lat":42.899467,"lng":143.200533},{"town":"西五条南二十九丁目","koaza":"","lat":42.898341,"lng":143.200683},{"town":"西五条南三丁目","koaza":"","lat":42.928571,"lng":143.196487},{"town":"西五条南三十丁目","koaza":"","lat":42.897217,"lng":143.200831},{"town":"西五条南三十一丁目","koaza":"","lat":42.895817,"lng":143.201037},{"town":"西五条南三十二丁目","koaza":"","lat":42.894615,"lng":143.200967},{"town":"西五条南三十三丁目","koaza":"","lat":42.89373,"lng":143.201114},{"town":"西五条南三十四丁目","koaza":"","lat":42.892488,"lng":143.201289},{"town":"西五条南三十五丁目","koaza":"","lat":42.891101,"lng":143.201429},{"town":"西五条南三十六丁目","koaza":"","lat":42.889847,"lng":143.201545},{"town":"西五条南三十七丁目","koaza":"","lat":42.888492,"lng":143.201721},{"town":"西五条南三十八丁目","koaza":"","lat":42.887201,"lng":143.201886},{"town":"西五条南三十九丁目","koaza":"","lat":42.885877,"lng":143.202},{"town":"西五条南四丁目","koaza":"","lat":42.927413,"lng":143.196636},{"town":"西五条南四十丁目","koaza":"","lat":42.88418,"lng":143.201645},{"town":"西五条南四十一丁目","koaza":"","lat":42.882517,"lng":143.202427},{"town":"西五条南五丁目","koaza":"","lat":42.926255,"lng":143.19678},{"town":"西五条南六丁目","koaza":"","lat":42.925056,"lng":143.196926},{"town":"西五条南七丁目","koaza":"","lat":42.923892,"lng":143.197064},{"town":"西五条南八丁目","koaza":"","lat":42.922771,"lng":143.197218},{"town":"西五条南九丁目","koaza":"","lat":42.92161,"lng":143.197372},{"town":"西六条北一丁目","koaza":"","lat":42.931975,"lng":143.194433},{"town":"西六条北二丁目","koaza":"","lat":42.933155,"lng":143.194269},{"town":"西六条北三丁目","koaza":"","lat":42.934308,"lng":143.194121},{"town":"西六条北四丁目","koaza":"","lat":42.935621,"lng":143.19411},{"town":"西六条北五丁目","koaza":"","lat":42.936956,"lng":143.193768},{"town":"西六条北六丁目","koaza":"","lat":42.938202,"lng":143.193607},{"town":"西六条北七丁目","koaza":"","lat":42.940064,"lng":143.193343},{"town":"西六条北八丁目","koaza":"","lat":42.94261,"lng":143.192976},{"town":"西六条北九丁目","koaza":"","lat":42.94539,"lng":143.192598},{"town":"西六条南一丁目","koaza":"","lat":42.930778,"lng":143.194593},{"town":"西六条南十丁目","koaza":"","lat":42.920225,"lng":143.196019},{"town":"西六条南十一丁目","koaza":"","lat":42.91915,"lng":143.19614},{"town":"西六条南十二丁目","koaza":"","lat":42.918018,"lng":143.196296},{"town":"西六条南十三丁目","koaza":"","lat":42.916856,"lng":143.196445},{"town":"西六条南十四丁目","koaza":"","lat":42.915696,"lng":143.196594},{"town":"西六条南十五丁目","koaza":"","lat":42.914536,"lng":143.196749},{"town":"西六条南十六丁目","koaza":"","lat":42.913372,"lng":143.196787},{"town":"西六条南十七丁目","koaza":"","lat":42.91234,"lng":143.197356},{"town":"西六条南十八丁目","koaza":"","lat":42.911108,"lng":143.19776},{"town":"西六条南十九丁目","koaza":"","lat":42.909901,"lng":143.197926},{"town":"西六条南二丁目","koaza":"","lat":42.92961,"lng":143.194749},{"town":"西六条南二十丁目","koaza":"","lat":42.908674,"lng":143.197949},{"town":"西六条南二十一丁目","koaza":"","lat":42.907482,"lng":143.197973},{"town":"西六条南二十二丁目","koaza":"","lat":42.906306,"lng":143.19805},{"town":"西六条南二十三丁目","koaza":"","lat":42.905146,"lng":143.19801},{"town":"西六条南二十四丁目","koaza":"","lat":42.903987,"lng":143.198123},{"town":"西六条南二十五丁目","koaza":"","lat":42.902831,"lng":143.198241},{"town":"西六条南二十六丁目","koaza":"","lat":42.901668,"lng":143.19836},{"town":"西六条南二十七丁目","koaza":"","lat":42.900361,"lng":143.198296},{"town":"西六条南二十八丁目","koaza":"","lat":42.899338,"lng":143.198593},{"town":"西六条南二十九丁目","koaza":"","lat":42.898199,"lng":143.198564},{"town":"西六条南三丁目","koaza":"","lat":42.928458,"lng":143.194898},{"town":"西六条南三十丁目","koaza":"","lat":42.897073,"lng":143.198679},{"town":"西六条南三十一丁目","koaza":"","lat":42.895386,"lng":143.199016},{"town":"西六条南三十二丁目","koaza":"","lat":42.894438,"lng":143.198738},{"town":"西六条南三十三丁目","koaza":"","lat":42.89356,"lng":143.198873},{"town":"西六条南三十四丁目","koaza":"","lat":42.89232,"lng":143.199047},{"town":"西六条南三十九丁目","koaza":"","lat":42.885744,"lng":143.200543},{"town":"西六条南四丁目","koaza":"","lat":42.927303,"lng":143.195048},{"town":"西六条南四十丁目","koaza":"","lat":42.884077,"lng":143.200595},{"town":"西六条南四十一丁目","koaza":"","lat":42.882606,"lng":143.200796},{"town":"西六条南五丁目","koaza":"","lat":42.926141,"lng":143.195202},{"town":"西六条南六丁目","koaza":"","lat":42.924942,"lng":143.195369},{"town":"西六条南七丁目","koaza":"","lat":42.923778,"lng":143.195525},{"town":"西六条南八丁目","koaza":"","lat":42.922629,"lng":143.195701},{"town":"西六条南九丁目","koaza":"","lat":42.92146,"lng":143.195866},{"town":"西七条北一丁目","koaza":"","lat":42.931868,"lng":143.192877},{"town":"西七条北二丁目","koaza":"","lat":42.933075,"lng":143.192719},{"town":"西七条北三丁目","koaza":"","lat":42.934127,"lng":143.192577},{"town":"西七条北四丁目","koaza":"","lat":42.935504,"lng":143.192381},{"town":"西七条北五丁目","koaza":"","lat":42.936844,"lng":143.192197},{"town":"西七条北六丁目","koaza":"","lat":42.938095,"lng":143.192026},{"town":"西七条北七丁目","koaza":"","lat":42.939954,"lng":143.191756},{"town":"西七条北八丁目","koaza":"","lat":42.942497,"lng":143.19139},{"town":"西七条北九丁目","koaza":"","lat":42.945473,"lng":143.190974},{"town":"西七条南一丁目","koaza":"","lat":42.930674,"lng":143.193047},{"town":"西七条南十丁目","koaza":"","lat":42.920212,"lng":143.194442},{"town":"西七条南十一丁目","koaza":"","lat":42.919071,"lng":143.194574},{"town":"西七条南十二丁目","koaza":"","lat":42.917899,"lng":143.194726},{"town":"西七条南十三丁目","koaza":"","lat":42.91674,"lng":143.194877},{"town":"西七条南十四丁目","koaza":"","lat":42.915584,"lng":143.195027},{"town":"西七条南十五丁目","koaza":"","lat":42.914424,"lng":143.195176},{"town":"西七条南十六丁目","koaza":"","lat":42.913262,"lng":143.195323},{"town":"西七条南十七丁目","koaza":"","lat":42.912227,"lng":143.195541},{"town":"西七条南十八丁目","koaza":"","lat":42.910763,"lng":143.197193},{"town":"西七条南十九丁目","koaza":"","lat":42.909674,"lng":143.196833},{"town":"西七条南二丁目","koaza":"","lat":42.929501,"lng":143.193212},{"town":"西七条南二十丁目","koaza":"","lat":42.90864,"lng":143.197026},{"town":"西七条南二十一丁目","koaza":"","lat":42.907394,"lng":143.197149},{"town":"西七条南二十二丁目","koaza":"","lat":42.906257,"lng":143.197021},{"town":"西七条南二十三丁目","koaza":"","lat":42.905264,"lng":143.196861},{"town":"西七条南二十四丁目","koaza":"","lat":42.904366,"lng":143.196581},{"town":"西七条南二十五丁目","koaza":"","lat":42.902719,"lng":143.196631},{"town":"西七条南二十六丁目","koaza":"","lat":42.901546,"lng":143.19675},{"town":"西七条南二十七丁目","koaza":"","lat":42.900406,"lng":143.196753},{"town":"西七条南二十八丁目","koaza":"","lat":42.899253,"lng":143.196857},{"town":"西七条南二十九丁目","koaza":"","lat":42.89808,"lng":143.196821},{"town":"西七条南三丁目","koaza":"","lat":42.92834,"lng":143.193343},{"town":"西七条南三十丁目","koaza":"","lat":42.896958,"lng":143.196941},{"town":"西七条南三十一丁目","koaza":"","lat":42.895547,"lng":143.196994},{"town":"西七条南三十二丁目","koaza":"","lat":42.894438,"lng":143.19722},{"town":"西七条南三十三丁目","koaza":"","lat":42.893362,"lng":143.197347},{"town":"西七条南三十四丁目","koaza":"","lat":42.892331,"lng":143.197538},{"town":"西七条南三十九丁目","koaza":"","lat":42.885645,"lng":143.199217},{"town":"西七条南四丁目","koaza":"","lat":42.927305,"lng":143.193449},{"town":"西七条南四十丁目","koaza":"","lat":42.883993,"lng":143.199414},{"town":"西七条南四十一丁目","koaza":"","lat":42.882343,"lng":143.199521},{"town":"西七条南五丁目","koaza":"","lat":42.926027,"lng":143.193617},{"town":"西七条南六丁目","koaza":"","lat":42.924831,"lng":143.193807},{"town":"西七条南七丁目","koaza":"","lat":42.923669,"lng":143.194003},{"town":"西七条南八丁目","koaza":"","lat":42.922486,"lng":143.194098},{"town":"西七条南九丁目","koaza":"","lat":42.921565,"lng":143.193954},{"town":"西八条北一丁目","koaza":"","lat":42.931762,"lng":143.191238},{"town":"西八条北二丁目","koaza":"","lat":42.933015,"lng":143.191076},{"town":"西八条北三丁目","koaza":"","lat":42.934187,"lng":143.190916},{"town":"西八条北四丁目","koaza":"","lat":42.935403,"lng":143.190738},{"town":"西八条北五丁目","koaza":"","lat":42.936728,"lng":143.190556},{"town":"西八条北六丁目","koaza":"","lat":42.937984,"lng":143.190383},{"town":"西八条北七丁目","koaza":"","lat":42.939842,"lng":143.19014},{"town":"西八条北八丁目","koaza":"","lat":42.942383,"lng":143.189788},{"town":"西八条北九丁目","koaza":"","lat":42.945582,"lng":143.189322},{"town":"西八条南一丁目","koaza":"","lat":42.93056,"lng":143.191412},{"town":"西八条南十丁目","koaza":"","lat":42.920077,"lng":143.192728},{"town":"西八条南十一丁目","koaza":"","lat":42.918936,"lng":143.192901},{"town":"西八条南十二丁目","koaza":"","lat":42.917777,"lng":143.19305},{"town":"西八条南十三丁目","koaza":"","lat":42.916618,"lng":143.193202},{"town":"西八条南十四丁目","koaza":"","lat":42.915464,"lng":143.193351},{"town":"西八条南十五丁目","koaza":"","lat":42.914304,"lng":143.1935},{"town":"西八条南十六丁目","koaza":"","lat":42.913146,"lng":143.193642},{"town":"西八条南十七丁目","koaza":"","lat":42.911992,"lng":143.193787},{"town":"西八条南十八丁目","koaza":"","lat":42.910835,"lng":143.193817},{"town":"西八条南十九丁目","koaza":"","lat":42.910079,"lng":143.193518},{"town":"西八条南二丁目","koaza":"","lat":42.929386,"lng":143.19158},{"town":"西八条南二十四丁目","koaza":"","lat":42.903946,"lng":143.195133},{"town":"西八条南二十五丁目","koaza":"","lat":42.902603,"lng":143.195092},{"town":"西八条南二十六丁目","koaza":"","lat":42.901333,"lng":143.195409},{"town":"西八条南二十七丁目","koaza":"","lat":42.900301,"lng":143.195287},{"town":"西八条南二十八丁目","koaza":"","lat":42.899165,"lng":143.195424},{"town":"西八条南二十九丁目","koaza":"","lat":42.897998,"lng":143.195573},{"town":"西八条南三丁目","koaza":"","lat":42.928197,"lng":143.191716},{"town":"西八条南三十丁目","koaza":"","lat":42.896873,"lng":143.195725},{"town":"西八条南三十一丁目","koaza":"","lat":42.895666,"lng":143.195876},{"town":"西八条南三十二丁目","koaza":"","lat":42.894421,"lng":143.19608},{"town":"西八条南三十三丁目","koaza":"","lat":42.893278,"lng":143.196212},{"town":"西八条南三十四丁目","koaza":"","lat":42.892043,"lng":143.196398},{"town":"西八条南三十九丁目","koaza":"","lat":42.885375,"lng":143.197659},{"town":"西八条南四丁目","koaza":"","lat":42.92704,"lng":143.191844},{"town":"西八条南四十丁目","koaza":"","lat":42.884046,"lng":143.197718},{"town":"西八条南四十一丁目","koaza":"","lat":42.882232,"lng":143.197873},{"town":"西八条南五丁目","koaza":"","lat":42.925888,"lng":143.192002},{"town":"西八条南六丁目","koaza":"","lat":42.924691,"lng":143.192211},{"town":"西八条南七丁目","koaza":"","lat":42.923575,"lng":143.19243},{"town":"西八条南八丁目","koaza":"","lat":42.922712,"lng":143.192435},{"town":"西八条南九丁目","koaza":"","lat":42.921493,"lng":143.191992},{"town":"西九条北一丁目","koaza":"","lat":42.931651,"lng":143.189827},{"town":"西九条北十丁目","koaza":"","lat":42.946844,"lng":143.187802},{"town":"西九条北二丁目","koaza":"","lat":42.932916,"lng":143.189657},{"town":"西九条北三丁目","koaza":"","lat":42.934077,"lng":143.189506},{"town":"西九条北四丁目","koaza":"","lat":42.935312,"lng":143.189343},{"town":"西九条北五丁目","koaza":"","lat":42.936636,"lng":143.189159},{"town":"西九条北六丁目","koaza":"","lat":42.937888,"lng":143.18899},{"town":"西九条北七丁目","koaza":"","lat":42.939749,"lng":143.188769},{"town":"西九条北八丁目","koaza":"","lat":42.942287,"lng":143.188433},{"town":"西九条北九丁目","koaza":"","lat":42.944569,"lng":143.188098},{"town":"西九条南一丁目","koaza":"","lat":42.93044,"lng":143.189817},{"town":"西九条南十丁目","koaza":"","lat":42.919949,"lng":143.190993},{"town":"西九条南十一丁目","koaza":"","lat":42.918819,"lng":143.191221},{"town":"西九条南十二丁目","koaza":"","lat":42.917659,"lng":143.191392},{"town":"西九条南十三丁目","koaza":"","lat":42.916501,"lng":143.191541},{"town":"西九条南十四丁目","koaza":"","lat":42.915345,"lng":143.19169},{"town":"西九条南十五丁目","koaza":"","lat":42.91419,"lng":143.191838},{"town":"西九条南十六丁目","koaza":"","lat":42.913036,"lng":143.191985},{"town":"西九条南十七丁目","koaza":"","lat":42.91188,"lng":143.192134},{"town":"西九条南十八丁目","koaza":"","lat":42.910713,"lng":143.192282},{"town":"西九条南十九丁目","koaza":"","lat":42.909607,"lng":143.192486},{"town":"西九条南二丁目","koaza":"","lat":42.929268,"lng":143.189983},{"town":"西九条南二十四丁目","koaza":"","lat":42.903162,"lng":143.194053},{"town":"西九条南二十五丁目","koaza":"","lat":42.902472,"lng":143.193714},{"town":"西九条南二十六丁目","koaza":"","lat":42.901337,"lng":143.193828},{"town":"西九条南二十七丁目","koaza":"","lat":42.900202,"lng":143.193828},{"town":"西九条南二十八丁目","koaza":"","lat":42.899064,"lng":143.19397},{"town":"西九条南二十九丁目","koaza":"","lat":42.897899,"lng":143.194115},{"town":"西九条南三丁目","koaza":"","lat":42.928059,"lng":143.190169},{"town":"西九条南三十丁目","koaza":"","lat":42.896776,"lng":143.194279},{"town":"西九条南三十一丁目","koaza":"","lat":42.895587,"lng":143.194436},{"town":"西九条南三十二丁目","koaza":"","lat":42.894345,"lng":143.194848},{"town":"西九条南三十三丁目","koaza":"","lat":42.893218,"lng":143.194886},{"town":"西九条南三十四丁目","koaza":"","lat":42.891943,"lng":143.194868},{"town":"西九条南三十九丁目","koaza":"","lat":42.885289,"lng":143.195932},{"town":"西九条南四丁目","koaza":"","lat":42.926907,"lng":143.19031},{"town":"西九条南四十丁目","koaza":"","lat":42.883608,"lng":143.196184},{"town":"西九条南四十一丁目","koaza":"","lat":42.882154,"lng":143.196331},{"town":"西九条南五丁目","koaza":"","lat":42.925753,"lng":143.19043},{"town":"西九条南六丁目","koaza":"","lat":42.924567,"lng":143.190615},{"town":"西九条南七丁目","koaza":"","lat":42.923392,"lng":143.191225},{"town":"西九条南八丁目","koaza":"","lat":42.922427,"lng":143.19099},{"town":"西九条南九丁目","koaza":"","lat":42.921148,"lng":143.19081},{"town":"柏林台北町一丁目","koaza":"","lat":42.926025,"lng":143.164372},{"town":"柏林台北町二丁目","koaza":"","lat":42.925907,"lng":143.165871},{"town":"柏林台北町三丁目","koaza":"","lat":42.925625,"lng":143.167607},{"town":"柏林台北町四丁目","koaza":"","lat":42.925343,"lng":143.169642},{"town":"柏林台北町五丁目","koaza":"","lat":42.925016,"lng":143.171769},{"town":"柏林台中町一丁目","koaza":"","lat":42.924329,"lng":143.167217},{"town":"柏林台中町二丁目","koaza":"","lat":42.92404,"lng":143.169789},{"town":"柏林台中町三丁目","koaza":"","lat":42.923438,"lng":143.168683},{"town":"柏林台中町四丁目","koaza":"","lat":42.922279,"lng":143.169694},{"town":"柏林台中町五丁目","koaza":"","lat":42.922416,"lng":143.167718},{"town":"柏林台西町一丁目","koaza":"","lat":42.922136,"lng":143.16555},{"town":"柏林台西町二丁目","koaza":"","lat":42.92311,"lng":143.164817},{"town":"柏林台西町三丁目","koaza":"","lat":42.924861,"lng":143.164483},{"town":"柏林台西町四丁目","koaza":"","lat":42.924907,"lng":143.1655},{"town":"柏林台西町五丁目","koaza":"","lat":42.923404,"lng":143.165782},{"town":"柏林台東町一丁目","koaza":"","lat":42.924274,"lng":143.172557},{"town":"柏林台東町二丁目","koaza":"","lat":42.923895,"lng":143.171532},{"town":"柏林台東町三丁目","koaza":"","lat":42.922339,"lng":143.171773},{"town":"柏林台東町四丁目","koaza":"","lat":42.92113,"lng":143.17184},{"town":"柏林台東町五丁目","koaza":"","lat":42.920276,"lng":143.17218},{"town":"柏林台南町一丁目","koaza":"","lat":42.920166,"lng":143.17035},{"town":"柏林台南町二丁目","koaza":"","lat":42.920009,"lng":143.168058},{"town":"柏林台南町三丁目","koaza":"","lat":42.919852,"lng":143.165757},{"town":"柏林台南町四丁目","koaza":"","lat":42.92095,"lng":143.165612},{"town":"柏林台南町五丁目","koaza":"","lat":42.921058,"lng":143.167888},{"town":"柏林台南町六丁目","koaza":"","lat":42.921153,"lng":143.169634},{"town":"柏林台南町七丁目","koaza":"","lat":42.9212,"lng":143.17083},{"town":"東十条南一丁目","koaza":"","lat":42.932716,"lng":143.220964},{"town":"東十条南十丁目","koaza":"","lat":42.922236,"lng":143.222329},{"town":"東十条南十一丁目","koaza":"","lat":42.921074,"lng":143.222489},{"town":"東十条南十二丁目","koaza":"","lat":42.919916,"lng":143.222647},{"town":"東十条南十三丁目","koaza":"","lat":42.918844,"lng":143.222794},{"town":"東十条南十四丁目","koaza":"","lat":42.91766,"lng":143.222902},{"town":"東十条南十五丁目","koaza":"","lat":42.916398,"lng":143.223094},{"town":"東十条南十六丁目","koaza":"","lat":42.915254,"lng":143.223255},{"town":"東十条南十七丁目","koaza":"","lat":42.914055,"lng":143.223424},{"town":"東十条南十八丁目","koaza":"","lat":42.912963,"lng":143.223599},{"town":"東十条南十九丁目","koaza":"","lat":42.911641,"lng":143.223534},{"town":"東十条南二丁目","koaza":"","lat":42.931382,"lng":143.221117},{"town":"東十条南二十丁目","koaza":"","lat":42.908338,"lng":143.22426},{"town":"東十条南三丁目","koaza":"","lat":42.930188,"lng":143.221313},{"town":"東十条南四丁目","koaza":"","lat":42.928944,"lng":143.221379},{"town":"東十条南五丁目","koaza":"","lat":42.927591,"lng":143.221611},{"town":"東十条南六丁目","koaza":"","lat":42.92648,"lng":143.221781},{"town":"東十条南七丁目","koaza":"","lat":42.925449,"lng":143.2219},{"town":"東十条南八丁目","koaza":"","lat":42.924545,"lng":143.222016},{"town":"東十条南九丁目","koaza":"","lat":42.923395,"lng":143.222169},{"town":"東十一条南一丁目","koaza":"","lat":42.932861,"lng":143.223243},{"town":"東十一条南十丁目","koaza":"","lat":42.92239,"lng":143.224566},{"town":"東十一条南十一丁目","koaza":"","lat":42.921242,"lng":143.224725},{"town":"東十一条南十二丁目","koaza":"","lat":42.920117,"lng":143.224892},{"town":"東十一条南十三丁目","koaza":"","lat":42.919069,"lng":143.225039},{"town":"東十一条南十四丁目","koaza":"","lat":42.917803,"lng":143.22521},{"town":"東十一条南十五丁目","koaza":"","lat":42.916535,"lng":143.225409},{"town":"東十一条南十六丁目","koaza":"","lat":42.911864,"lng":143.226064},{"town":"東十一条南十七丁目","koaza":"","lat":42.91414,"lng":143.224967},{"town":"東十一条南十八丁目","koaza":"","lat":42.912995,"lng":143.224779},{"town":"東十一条南二丁目","koaza":"","lat":42.931542,"lng":143.223407},{"town":"東十一条南三丁目","koaza":"","lat":42.930379,"lng":143.223565},{"town":"東十一条南四丁目","koaza":"","lat":42.929125,"lng":143.223743},{"town":"東十一条南五丁目","koaza":"","lat":42.927678,"lng":143.223823},{"town":"東十一条南六丁目","koaza":"","lat":42.926424,"lng":143.224022},{"town":"東十一条南七丁目","koaza":"","lat":42.925602,"lng":143.224132},{"town":"東十一条南八丁目","koaza":"","lat":42.924698,"lng":143.224248},{"town":"東十一条南九丁目","koaza":"","lat":42.923546,"lng":143.224407},{"town":"東十二条南一丁目","koaza":"","lat":42.933026,"lng":143.225536},{"town":"東十二条南十丁目","koaza":"","lat":42.92243,"lng":143.22603},{"town":"東十二条南十一丁目","koaza":"","lat":42.921511,"lng":143.227424},{"town":"東十二条南十二丁目","koaza":"","lat":42.920329,"lng":143.227514},{"town":"東十二条南十三丁目","koaza":"","lat":42.919133,"lng":143.2278},{"town":"東十二条南十四丁目","koaza":"","lat":42.917992,"lng":143.227824},{"town":"東十二条南十五丁目","koaza":"","lat":42.916679,"lng":143.228002},{"town":"東十二条南十六丁目","koaza":"","lat":42.913418,"lng":143.228357},{"town":"東十二条南二丁目","koaza":"","lat":42.931697,"lng":143.225719},{"town":"東十二条南三丁目","koaza":"","lat":42.930534,"lng":143.225856},{"town":"東十二条南四丁目","koaza":"","lat":42.929294,"lng":143.226004},{"town":"東十二条南五丁目","koaza":"","lat":42.92766,"lng":143.226287},{"town":"東十二条南六丁目","koaza":"","lat":42.926691,"lng":143.226345},{"town":"東十二条南七丁目","koaza":"","lat":42.925767,"lng":143.226471},{"town":"東十二条南八丁目","koaza":"","lat":42.924853,"lng":143.226586},{"town":"東十二条南九丁目","koaza":"","lat":42.923985,"lng":143.226122},{"town":"東十三条南二丁目","koaza":"","lat":42.932552,"lng":143.227564},{"town":"東十三条南三丁目","koaza":"","lat":42.930694,"lng":143.228114},{"town":"東十三条南四丁目","koaza":"","lat":42.92946,"lng":143.228281},{"town":"東十三条南五丁目","koaza":"","lat":42.928121,"lng":143.228446},{"town":"東十三条南六丁目","koaza":"","lat":42.927092,"lng":143.228539},{"town":"東十三条南七丁目","koaza":"","lat":42.925927,"lng":143.228684},{"town":"東十三条南八丁目","koaza":"","lat":42.925455,"lng":143.228106},{"town":"東十四条南二丁目","koaza":"","lat":42.932435,"lng":143.229819},{"town":"東十四条南三丁目","koaza":"","lat":42.930855,"lng":143.230328},{"town":"東十四条南四丁目","koaza":"","lat":42.929621,"lng":143.230502},{"town":"東十四条南五丁目","koaza":"","lat":42.928707,"lng":143.23051},{"town":"東十四条南六丁目","koaza":"","lat":42.927937,"lng":143.230301},{"town":"東十五条南三丁目","koaza":"","lat":42.931092,"lng":143.232622},{"town":"東十五条南四丁目","koaza":"","lat":42.929893,"lng":143.232648},{"town":"東十五条南五丁目","koaza":"","lat":42.928805,"lng":143.232479},{"town":"東一条北一丁目","koaza":"","lat":42.932298,"lng":143.205624},{"town":"東一条北二丁目","koaza":"","lat":42.934649,"lng":143.205281},{"town":"東一条南一丁目","koaza":"","lat":42.931269,"lng":143.205763},{"town":"東一条南十丁目","koaza":"","lat":42.921147,"lng":143.207091},{"town":"東一条南十一丁目","koaza":"","lat":42.919983,"lng":143.207249},{"town":"東一条南十二丁目","koaza":"","lat":42.918819,"lng":143.20741},{"town":"東一条南十三丁目","koaza":"","lat":42.917657,"lng":143.207564},{"town":"東一条南十四丁目","koaza":"","lat":42.916495,"lng":143.207713},{"town":"東一条南十五丁目","koaza":"","lat":42.91534,"lng":143.207862},{"town":"東一条南十六丁目","koaza":"","lat":42.914179,"lng":143.208002},{"town":"東一条南十七丁目","koaza":"","lat":42.913028,"lng":143.208149},{"town":"東一条南十八丁目","koaza":"","lat":42.911877,"lng":143.208303},{"town":"東一条南十九丁目","koaza":"","lat":42.910672,"lng":143.208463},{"town":"東一条南二丁目","koaza":"","lat":42.930395,"lng":143.205862},{"town":"東一条南二十丁目","koaza":"","lat":42.909443,"lng":143.208628},{"town":"東一条南二十一丁目","koaza":"","lat":42.908251,"lng":143.208793},{"town":"東一条南二十二丁目","koaza":"","lat":42.907085,"lng":143.208952},{"town":"東一条南二十三丁目","koaza":"","lat":42.905929,"lng":143.209108},{"town":"東一条南二十四丁目","koaza":"","lat":42.904778,"lng":143.209263},{"town":"東一条南二十五丁目","koaza":"","lat":42.903624,"lng":143.209421},{"town":"東一条南二十六丁目","koaza":"","lat":42.902471,"lng":143.209577},{"town":"東一条南二十七丁目","koaza":"","lat":42.90132,"lng":143.20974},{"town":"東一条南二十八丁目","koaza":"","lat":42.900146,"lng":143.209884},{"town":"東一条南二十九丁目","koaza":"","lat":42.898951,"lng":143.210028},{"town":"東一条南三丁目","koaza":"","lat":42.929252,"lng":143.206002},{"town":"東一条南三十丁目","koaza":"","lat":42.897853,"lng":143.210212},{"town":"東一条南四丁目","koaza":"","lat":42.928094,"lng":143.20616},{"town":"東一条南五丁目","koaza":"","lat":42.926933,"lng":143.206316},{"town":"東一条南六丁目","koaza":"","lat":42.925781,"lng":143.206472},{"town":"東一条南七丁目","koaza":"","lat":42.924624,"lng":143.206627},{"town":"東一条南八丁目","koaza":"","lat":42.923459,"lng":143.206779},{"town":"東一条南九丁目","koaza":"","lat":42.9223,"lng":143.206937},{"town":"東二条北一丁目","koaza":"","lat":42.932299,"lng":143.206743},{"town":"東二条北二丁目","koaza":"","lat":42.934456,"lng":143.20693},{"town":"東二条北三丁目","koaza":"","lat":42.935582,"lng":143.206755},{"town":"東二条南一丁目","koaza":"","lat":42.931715,"lng":143.207288},{"town":"東二条南十丁目","koaza":"","lat":42.921261,"lng":143.208681},{"town":"東二条南十一丁目","koaza":"","lat":42.920098,"lng":143.208834},{"town":"東二条南十二丁目","koaza":"","lat":42.919019,"lng":143.208985},{"town":"東二条南十三丁目","koaza":"","lat":42.917772,"lng":143.209134},{"town":"東二条南十四丁目","koaza":"","lat":42.916614,"lng":143.209278},{"town":"東二条南十五丁目","koaza":"","lat":42.915332,"lng":143.209452},{"town":"東二条南十六丁目","koaza":"","lat":42.914292,"lng":143.20958},{"town":"東二条南十七丁目","koaza":"","lat":42.913141,"lng":143.209722},{"town":"東二条南十八丁目","koaza":"","lat":42.911985,"lng":143.209881},{"town":"東二条南十九丁目","koaza":"","lat":42.910784,"lng":143.210046},{"town":"東二条南二丁目","koaza":"","lat":42.930494,"lng":143.207437},{"town":"東二条南二十丁目","koaza":"","lat":42.909555,"lng":143.21021},{"town":"東二条南二十一丁目","koaza":"","lat":42.908363,"lng":143.210372},{"town":"東二条南二十二丁目","koaza":"","lat":42.907198,"lng":143.210533},{"town":"東二条南二十三丁目","koaza":"","lat":42.906041,"lng":143.210689},{"town":"東二条南二十四丁目","koaza":"","lat":42.904882,"lng":143.210838},{"town":"東二条南二十五丁目","koaza":"","lat":42.903726,"lng":143.210986},{"town":"東二条南二十六丁目","koaza":"","lat":42.902577,"lng":143.211133},{"town":"東二条南二十七丁目","koaza":"","lat":42.901427,"lng":143.211332},{"town":"東二条南二十八丁目","koaza":"","lat":42.900259,"lng":143.211502},{"town":"東二条南二十九丁目","koaza":"","lat":42.899051,"lng":143.211603},{"town":"東二条南三丁目","koaza":"","lat":42.929364,"lng":143.207582},{"town":"東二条南三十丁目","koaza":"","lat":42.897034,"lng":143.21242},{"town":"東二条南四丁目","koaza":"","lat":42.92821,"lng":143.207741},{"town":"東二条南五丁目","koaza":"","lat":42.927144,"lng":143.207881},{"town":"東二条南六丁目","koaza":"","lat":42.925896,"lng":143.208054},{"town":"東二条南七丁目","koaza":"","lat":42.924735,"lng":143.208207},{"town":"東二条南八丁目","koaza":"","lat":42.923568,"lng":143.208362},{"town":"東二条南九丁目","koaza":"","lat":42.922412,"lng":143.208522},{"town":"東三条北一丁目","koaza":"","lat":42.933039,"lng":143.20871},{"town":"東三条北二丁目","koaza":"","lat":42.934299,"lng":143.208545},{"town":"東三条北三丁目","koaza":"","lat":42.935959,"lng":143.20828},{"town":"東三条南一丁目","koaza":"","lat":42.931819,"lng":143.208847},{"town":"東三条南十丁目","koaza":"","lat":42.921373,"lng":143.210254},{"town":"東三条南十一丁目","koaza":"","lat":42.92021,"lng":143.210404},{"town":"東三条南十二丁目","koaza":"","lat":42.919044,"lng":143.210571},{"town":"東三条南十三丁目","koaza":"","lat":42.917883,"lng":143.210702},{"town":"東三条南十四丁目","koaza":"","lat":42.916723,"lng":143.210847},{"town":"東三条南十五丁目","koaza":"","lat":42.915562,"lng":143.211003},{"town":"東三条南十六丁目","koaza":"","lat":42.914399,"lng":143.211149},{"town":"東三条南十七丁目","koaza":"","lat":42.913243,"lng":143.211297},{"town":"東三条南十八丁目","koaza":"","lat":42.912094,"lng":143.211456},{"town":"東三条南十九丁目","koaza":"","lat":42.910894,"lng":143.211618},{"town":"東三条南二丁目","koaza":"","lat":42.930603,"lng":143.209012},{"town":"東三条南二十丁目","koaza":"","lat":42.909661,"lng":143.211782},{"town":"東三条南二十一丁目","koaza":"","lat":42.908474,"lng":143.211944},{"town":"東三条南二十二丁目","koaza":"","lat":42.907309,"lng":143.212104},{"town":"東三条南二十三丁目","koaza":"","lat":42.906149,"lng":143.212262},{"town":"東三条南二十四丁目","koaza":"","lat":42.904988,"lng":143.212417},{"town":"東三条南二十五丁目","koaza":"","lat":42.903832,"lng":143.212573},{"town":"東三条南二十六丁目","koaza":"","lat":42.902684,"lng":143.21275},{"town":"東三条南二十七丁目","koaza":"","lat":42.901522,"lng":143.212948},{"town":"東三条南二十八丁目","koaza":"","lat":42.900355,"lng":143.213087},{"town":"東三条南二十九丁目","koaza":"","lat":42.899157,"lng":143.213197},{"town":"東三条南三丁目","koaza":"","lat":42.929463,"lng":143.209174},{"town":"東三条南四丁目","koaza":"","lat":42.928239,"lng":143.209348},{"town":"東三条南五丁目","koaza":"","lat":42.927105,"lng":143.209493},{"town":"東三条南六丁目","koaza":"","lat":42.926002,"lng":143.209633},{"town":"東三条南七丁目","koaza":"","lat":42.924843,"lng":143.209785},{"town":"東三条南八丁目","koaza":"","lat":42.923679,"lng":143.209937},{"town":"東三条南九丁目","koaza":"","lat":42.922524,"lng":143.210096},{"town":"東四条北一丁目","koaza":"","lat":42.9332,"lng":143.210296},{"town":"東四条北二丁目","koaza":"","lat":42.934348,"lng":143.210138},{"town":"東四条北三丁目","koaza":"","lat":42.93594,"lng":143.209915},{"town":"東四条南一丁目","koaza":"","lat":42.93194,"lng":143.210456},{"town":"東四条南十丁目","koaza":"","lat":42.921484,"lng":143.211814},{"town":"東四条南十一丁目","koaza":"","lat":42.920316,"lng":143.211968},{"town":"東四条南十二丁目","koaza":"","lat":42.919153,"lng":143.212129},{"town":"東四条南十三丁目","koaza":"","lat":42.917926,"lng":143.21245},{"town":"東四条南十四丁目","koaza":"","lat":42.91683,"lng":143.212403},{"town":"東四条南十五丁目","koaza":"","lat":42.915663,"lng":143.212557},{"town":"東四条南十六丁目","koaza":"","lat":42.914501,"lng":143.21271},{"town":"東四条南十七丁目","koaza":"","lat":42.913324,"lng":143.212869},{"town":"東四条南十八丁目","koaza":"","lat":42.912189,"lng":143.213025},{"town":"東四条南十九丁目","koaza":"","lat":42.910992,"lng":143.213186},{"town":"東四条南二丁目","koaza":"","lat":42.930699,"lng":143.210608},{"town":"東四条南二十丁目","koaza":"","lat":42.909744,"lng":143.213355},{"town":"東四条南二十一丁目","koaza":"","lat":42.908567,"lng":143.213517},{"town":"東四条南二十二丁目","koaza":"","lat":42.90746,"lng":143.213827},{"town":"東四条南二十三丁目","koaza":"","lat":42.906231,"lng":143.213837},{"town":"東四条南二十四丁目","koaza":"","lat":42.905095,"lng":143.213995},{"town":"東四条南二十五丁目","koaza":"","lat":42.903946,"lng":143.214156},{"town":"東四条南二十六丁目","koaza":"","lat":42.902788,"lng":143.214343},{"town":"東四条南二十七丁目","koaza":"","lat":42.901612,"lng":143.214513},{"town":"東四条南二十八丁目","koaza":"","lat":42.90045,"lng":143.214624},{"town":"東四条南二十九丁目","koaza":"","lat":42.897975,"lng":143.214943},{"town":"東四条南三丁目","koaza":"","lat":42.929514,"lng":143.210745},{"town":"東四条南四丁目","koaza":"","lat":42.928456,"lng":143.210926},{"town":"東四条南五丁目","koaza":"","lat":42.927209,"lng":143.211066},{"town":"東四条南六丁目","koaza":"","lat":42.926113,"lng":143.211203},{"town":"東四条南七丁目","koaza":"","lat":42.924952,"lng":143.211351},{"town":"東四条南八丁目","koaza":"","lat":42.92379,"lng":143.2115},{"town":"東四条南九丁目","koaza":"","lat":42.922639,"lng":143.211658},{"town":"東五条南一丁目","koaza":"","lat":42.932043,"lng":143.212033},{"town":"東五条南十丁目","koaza":"","lat":42.921596,"lng":143.213383},{"town":"東五条南十一丁目","koaza":"","lat":42.920426,"lng":143.21355},{"town":"東五条南十二丁目","koaza":"","lat":42.91927,"lng":143.213708},{"town":"東五条南十三丁目","koaza":"","lat":42.918101,"lng":143.213857},{"town":"東五条南十四丁目","koaza":"","lat":42.916896,"lng":143.213985},{"town":"東五条南十五丁目","koaza":"","lat":42.915772,"lng":143.214148},{"town":"東五条南十六丁目","koaza":"","lat":42.914616,"lng":143.214336},{"town":"東五条南十七丁目","koaza":"","lat":42.913347,"lng":143.214676},{"town":"東五条南十八丁目","koaza":"","lat":42.912299,"lng":143.214623},{"town":"東五条南十九丁目","koaza":"","lat":42.911016,"lng":143.214799},{"town":"東五条南二丁目","koaza":"","lat":42.930759,"lng":143.212137},{"town":"東五条南二十丁目","koaza":"","lat":42.909735,"lng":143.214965},{"town":"東五条南二十一丁目","koaza":"","lat":42.908497,"lng":143.215121},{"town":"東五条南二十二丁目","koaza":"","lat":42.907321,"lng":143.215301},{"town":"東五条南二十三丁目","koaza":"","lat":42.90643,"lng":143.215585},{"town":"東五条南二十四丁目","koaza":"","lat":42.905205,"lng":143.215611},{"town":"東五条南二十五丁目","koaza":"","lat":42.90407,"lng":143.215772},{"town":"東五条南二十六丁目","koaza":"","lat":42.902895,"lng":143.215939},{"town":"東五条南二十七丁目","koaza":"","lat":42.899971,"lng":143.216342},{"town":"東五条南三丁目","koaza":"","lat":42.929559,"lng":143.212417},{"town":"東五条南四丁目","koaza":"","lat":42.928423,"lng":143.212442},{"town":"東五条南五丁目","koaza":"","lat":42.927305,"lng":143.212598},{"town":"東五条南六丁目","koaza":"","lat":42.926329,"lng":143.212897},{"town":"東五条南七丁目","koaza":"","lat":42.925064,"lng":143.212916},{"town":"東五条南八丁目","koaza":"","lat":42.923901,"lng":143.213073},{"town":"東五条南九丁目","koaza":"","lat":42.922756,"lng":143.213231},{"town":"東六条南一丁目","koaza":"","lat":42.932141,"lng":143.213619},{"town":"東六条南十丁目","koaza":"","lat":42.921708,"lng":143.214958},{"town":"東六条南十一丁目","koaza":"","lat":42.920541,"lng":143.215126},{"town":"東六条南十二丁目","koaza":"","lat":42.919384,"lng":143.215306},{"town":"東六条南十三丁目","koaza":"","lat":42.918186,"lng":143.215493},{"town":"東六条南十四丁目","koaza":"","lat":42.917089,"lng":143.215816},{"town":"東六条南十五丁目","koaza":"","lat":42.915888,"lng":143.21579},{"town":"東六条南十六丁目","koaza":"","lat":42.914737,"lng":143.215968},{"town":"東六条南十七丁目","koaza":"","lat":42.913544,"lng":143.216148},{"town":"東六条南十八丁目","koaza":"","lat":42.91243,"lng":143.216218},{"town":"東六条南十九丁目","koaza":"","lat":42.911192,"lng":143.216533},{"town":"東六条南二丁目","koaza":"","lat":42.930826,"lng":143.213725},{"town":"東六条南二十丁目","koaza":"","lat":42.909936,"lng":143.216745},{"town":"東六条南二十一丁目","koaza":"","lat":42.908617,"lng":143.216764},{"town":"東六条南二十二丁目","koaza":"","lat":42.907434,"lng":143.21693},{"town":"東六条南二十三丁目","koaza":"","lat":42.906408,"lng":143.217069},{"town":"東六条南二十四丁目","koaza":"","lat":42.905317,"lng":143.217216},{"town":"東六条南二十五丁目","koaza":"","lat":42.904183,"lng":143.217393},{"town":"東六条南二十六丁目","koaza":"","lat":42.901379,"lng":143.21782},{"town":"東六条南三丁目","koaza":"","lat":42.929651,"lng":143.213927},{"town":"東六条南四丁目","koaza":"","lat":42.92911,"lng":143.214621},{"town":"東六条南五丁目","koaza":"","lat":42.927081,"lng":143.214056},{"town":"東六条南六丁目","koaza":"","lat":42.926342,"lng":143.214323},{"town":"東六条南七丁目","koaza":"","lat":42.925177,"lng":143.214484},{"town":"東六条南八丁目","koaza":"","lat":42.924018,"lng":143.214646},{"town":"東六条南九丁目","koaza":"","lat":42.922869,"lng":143.214804},{"town":"東七条南一丁目","koaza":"","lat":42.93228,"lng":143.215236},{"town":"東七条南十丁目","koaza":"","lat":42.921821,"lng":143.216537},{"town":"東七条南十一丁目","koaza":"","lat":42.920653,"lng":143.216691},{"town":"東七条南十二丁目","koaza":"","lat":42.919491,"lng":143.216856},{"town":"東七条南十三丁目","koaza":"","lat":42.918293,"lng":143.217081},{"town":"東七条南十四丁目","koaza":"","lat":42.917111,"lng":143.21727},{"town":"東七条南十五丁目","koaza":"","lat":42.916097,"lng":143.217654},{"town":"東七条南十六丁目","koaza":"","lat":42.914856,"lng":143.217566},{"town":"東七条南十七丁目","koaza":"","lat":42.91366,"lng":143.217662},{"town":"東七条南十八丁目","koaza":"","lat":42.912548,"lng":143.217783},{"town":"東七条南十九丁目","koaza":"","lat":42.911258,"lng":143.217988},{"town":"東七条南二丁目","koaza":"","lat":42.930936,"lng":143.215367},{"town":"東七条南二十丁目","koaza":"","lat":42.909998,"lng":143.218181},{"town":"東七条南二十一丁目","koaza":"","lat":42.908733,"lng":143.21835},{"town":"東七条南二十二丁目","koaza":"","lat":42.907544,"lng":143.218412},{"town":"東七条南二十三丁目","koaza":"","lat":42.906538,"lng":143.2186},{"town":"東七条南二十四丁目","koaza":"","lat":42.905414,"lng":143.218745},{"town":"東七条南二十五丁目","koaza":"","lat":42.90322,"lng":143.218958},{"town":"東七条南三丁目","koaza":"","lat":42.929806,"lng":143.215462},{"town":"東七条南四丁目","koaza":"","lat":42.929001,"lng":143.215588},{"town":"東七条南五丁目","koaza":"","lat":42.9272,"lng":143.216364},{"town":"東七条南六丁目","koaza":"","lat":42.926452,"lng":143.215905},{"town":"東七条南七丁目","koaza":"","lat":42.925291,"lng":143.216063},{"town":"東七条南八丁目","koaza":"","lat":42.924134,"lng":143.21622},{"town":"東七条南九丁目","koaza":"","lat":42.922982,"lng":143.216378},{"town":"東八条南一丁目","koaza":"","lat":42.932428,"lng":143.216823},{"town":"東八条南十丁目","koaza":"","lat":42.921916,"lng":143.218141},{"town":"東八条南十一丁目","koaza":"","lat":42.920749,"lng":143.218308},{"town":"東八条南十二丁目","koaza":"","lat":42.919471,"lng":143.218467},{"town":"東八条南十三丁目","koaza":"","lat":42.918411,"lng":143.218619},{"town":"東八条南十四丁目","koaza":"","lat":42.917239,"lng":143.218673},{"town":"東八条南十五丁目","koaza":"","lat":42.916119,"lng":143.219075},{"town":"東八条南十六丁目","koaza":"","lat":42.914964,"lng":143.21915},{"town":"東八条南十七丁目","koaza":"","lat":42.913777,"lng":143.219227},{"town":"東八条南十八丁目","koaza":"","lat":42.912668,"lng":143.219387},{"town":"東八条南十九丁目","koaza":"","lat":42.911398,"lng":143.219564},{"town":"東八条南二丁目","koaza":"","lat":42.931066,"lng":143.21697},{"town":"東八条南二十丁目","koaza":"","lat":42.910082,"lng":143.219732},{"town":"東八条南二十一丁目","koaza":"","lat":42.908839,"lng":143.219904},{"town":"東八条南二十二丁目","koaza":"","lat":42.907694,"lng":143.21997},{"town":"東八条南二十三丁目","koaza":"","lat":42.906666,"lng":143.220198},{"town":"東八条南二十四丁目","koaza":"","lat":42.904548,"lng":143.220361},{"town":"東八条南三丁目","koaza":"","lat":42.929851,"lng":143.217113},{"town":"東八条南四丁目","koaza":"","lat":42.928655,"lng":143.217269},{"town":"東八条南五丁目","koaza":"","lat":42.927634,"lng":143.217764},{"town":"東八条南六丁目","koaza":"","lat":42.926559,"lng":143.2175},{"town":"東八条南七丁目","koaza":"","lat":42.925396,"lng":143.217654},{"town":"東八条南八丁目","koaza":"","lat":42.924245,"lng":143.217808},{"town":"東八条南九丁目","koaza":"","lat":42.923094,"lng":143.217966},{"town":"東九条南一丁目","koaza":"","lat":42.932576,"lng":143.218714},{"town":"東九条南十丁目","koaza":"","lat":42.922043,"lng":143.220131},{"town":"東九条南十一丁目","koaza":"","lat":42.920914,"lng":143.220304},{"town":"東九条南十二丁目","koaza":"","lat":42.919762,"lng":143.220455},{"town":"東九条南十三丁目","koaza":"","lat":42.918693,"lng":143.22059},{"town":"東九条南十四丁目","koaza":"","lat":42.917496,"lng":143.220711},{"town":"東九条南十五丁目","koaza":"","lat":42.916233,"lng":143.220895},{"town":"東九条南十六丁目","koaza":"","lat":42.915088,"lng":143.221044},{"town":"東九条南十七丁目","koaza":"","lat":42.913909,"lng":143.221198},{"town":"東九条南十八丁目","koaza":"","lat":42.912604,"lng":143.221621},{"town":"東九条南十九丁目","koaza":"","lat":42.911411,"lng":143.221536},{"town":"東九条南二丁目","koaza":"","lat":42.931221,"lng":143.218885},{"town":"東九条南二十丁目","koaza":"","lat":42.910158,"lng":143.221679},{"town":"東九条南二十一丁目","koaza":"","lat":42.908894,"lng":143.221874},{"town":"東九条南二十二丁目","koaza":"","lat":42.9078,"lng":143.222054},{"town":"東九条南二十三丁目","koaza":"","lat":42.905541,"lng":143.222319},{"town":"東九条南三丁目","koaza":"","lat":42.929993,"lng":143.219081},{"town":"東九条南四丁目","koaza":"","lat":42.928768,"lng":143.219229},{"town":"東九条南五丁目","koaza":"","lat":42.927677,"lng":143.219378},{"town":"東九条南六丁目","koaza":"","lat":42.926783,"lng":143.219496},{"town":"東九条南七丁目","koaza":"","lat":42.925516,"lng":143.219645},{"town":"東九条南八丁目","koaza":"","lat":42.924386,"lng":143.219796},{"town":"東九条南九丁目","koaza":"","lat":42.923236,"lng":143.219951},{"town":"広野町","koaza":"","lat":42.766427,"lng":143.043668},{"town":"美栄町","koaza":"","lat":42.783932,"lng":143.094593},{"town":"富士町","koaza":"","lat":42.795701,"lng":143.147884},{"town":"別府町","koaza":"","lat":42.863959,"lng":143.156267},{"town":"緑ケ丘","koaza":"","lat":42.904384,"lng":143.186214},{"town":"緑ケ丘七丁目","koaza":"","lat":42.904755,"lng":143.180959},{"town":"緑ケ丘八丁目","koaza":"","lat":42.90426,"lng":143.182038},{"town":"緑ケ丘九丁目","koaza":"","lat":42.901913,"lng":143.181309},{"town":"緑ケ丘一条通一丁目","koaza":"","lat":42.910525,"lng":143.184066},{"town":"緑ケ丘一条通二丁目","koaza":"","lat":42.909825,"lng":143.184151},{"town":"緑ケ丘一条通三丁目","koaza":"","lat":42.908989,"lng":143.184267},{"town":"緑ケ丘一条通四丁目","koaza":"","lat":42.908139,"lng":143.184415},{"town":"緑ケ丘一条通五丁目","koaza":"","lat":42.907293,"lng":143.184219},{"town":"緑ケ丘一条通六丁目","koaza":"","lat":42.906305,"lng":143.184069},{"town":"緑ケ丘二条通一丁目","koaza":"","lat":42.910277,"lng":143.181337},{"town":"緑ケ丘二条通二丁目","koaza":"","lat":42.909698,"lng":143.181209},{"town":"緑ケ丘二条通三丁目","koaza":"","lat":42.908694,"lng":143.181322},{"town":"緑ケ丘二条通四丁目","koaza":"","lat":42.907962,"lng":143.181915},{"town":"緑ケ丘二条通五丁目","koaza":"","lat":42.907222,"lng":143.18224},{"town":"緑ケ丘二条通六丁目","koaza":"","lat":42.906114,"lng":143.182816},{"town":"緑ケ丘三条通一丁目","koaza":"","lat":42.910156,"lng":143.179778},{"town":"緑ケ丘三条通二丁目","koaza":"","lat":42.909513,"lng":143.179863},{"town":"緑ケ丘三条通三丁目","koaza":"","lat":42.908695,"lng":143.179972},{"town":"緑ケ丘三条通四丁目","koaza":"","lat":42.907851,"lng":143.180386},{"town":"緑ケ丘三条通五丁目","koaza":"","lat":42.907048,"lng":143.180771},{"town":"緑ケ丘三条通六丁目","koaza":"","lat":42.906016,"lng":143.181256},{"town":"緑ケ丘東通西","koaza":"","lat":42.909495,"lng":143.185785},{"town":"緑ケ丘東通東","koaza":"","lat":42.909869,"lng":143.18643},{"town":"南の森西一丁目","koaza":"","lat":42.88356,"lng":143.171916},{"town":"南の森西十丁目","koaza":"","lat":42.884997,"lng":143.161207},{"town":"南の森西二丁目","koaza":"","lat":42.882736,"lng":143.169313},{"town":"南の森西三丁目","koaza":"","lat":42.881365,"lng":143.167684},{"town":"南の森西四丁目","koaza":"","lat":42.88031,"lng":143.166377},{"town":"南の森西五丁目","koaza":"","lat":42.883005,"lng":143.16666},{"town":"南の森西六丁目","koaza":"","lat":42.88156,"lng":143.164588},{"town":"南の森西七丁目","koaza":"","lat":42.883283,"lng":143.164639},{"town":"南の森西八丁目","koaza":"","lat":42.882997,"lng":143.161643},{"town":"南の森西九丁目","koaza":"","lat":42.882148,"lng":143.159761},{"town":"南の森東一丁目","koaza":"","lat":42.883907,"lng":143.17507},{"town":"南の森東二丁目","koaza":"","lat":42.882037,"lng":143.174226},