[{"town":"字姉茶","koaza":"","lat":42.23358,"lng":142.734241},{"town":"字井寒台","koaza":"","lat":42.183531,"lng":142.747956},{"town":"字絵笛","koaza":"","lat":42.200577,"lng":142.739153},{"town":"字上絵笛","koaza":"","lat":42.232064,"lng":142.767219},{"town":"字上杵臼","koaza":"","lat":42.254759,"lng":143.01765},{"town":"字上西舎","koaza":"","lat":42.339394,"lng":142.940897},{"town":"字上向別","koaza":"","lat":42.236923,"lng":142.82396},{"town":"字杵臼","koaza":"","lat":42.186187,"lng":142.878162},{"town":"字月寒","koaza":"","lat":42.162268,"lng":142.813828},{"town":"字東栄","koaza":"","lat":42.201161,"lng":142.706574},{"town":"字富里","koaza":"","lat":42.217893,"lng":142.714138},{"town":"字西舎","koaza":"","lat":42.236363,"lng":142.883785},{"town":"字西幌別","koaza":"","lat":42.159106,"lng":142.837816},{"town":"字野深","koaza":"","lat":42.356256,"lng":142.827529},{"town":"字東幌別","koaza":"","lat":42.147905,"lng":142.85976},{"town":"字瑞穂","koaza":"","lat":42.239194,"lng":142.71763},{"town":"字向別","koaza":"","lat":42.200996,"lng":142.784454},{"town":"栄丘西通","koaza":"","lat":42.173873,"lng":142.767344},{"town":"栄丘東通","koaza":"","lat":42.17176,"lng":142.769202},{"town":"昌平町駅通","koaza":"","lat":42.169611,"lng":142.770373},{"town":"昌平町西通","koaza":"","lat":42.169901,"lng":142.773698},{"town":"昌平町東通","koaza":"","lat":42.169544,"lng":142.775897},{"town":"字白泉","koaza":"","lat":42.149223,"lng":142.822549},{"town":"旭町","koaza":"","lat":42.164226,"lng":142.784204},{"town":"入船町","koaza":"","lat":42.15941,"lng":142.780275},{"town":"大通一丁目","koaza":"","lat":42.165683,"lng":142.772267},{"town":"大通二丁目","koaza":"","lat":42.163369,"lng":142.774175},{"town":"大通三丁目","koaza":"","lat":42.161724,"lng":142.775263},{"town":"大通四丁目","koaza":"","lat":42.16047,"lng":142.776994},{"town":"大通五丁目","koaza":"","lat":42.159654,"lng":142.782037},{"town":"荻伏町","koaza":"","lat":42.216457,"lng":142.674224},{"town":"堺町西一丁目","koaza":"","lat":42.177399,"lng":142.759376},{"town":"堺町西二丁目","koaza":"","lat":42.178641,"lng":142.756974},{"town":"堺町西三丁目","koaza":"","lat":42.181323,"lng":142.760135},{"town":"堺町西四丁目","koaza":"","lat":42.184333,"lng":142.760888},{"town":"堺町西五丁目","koaza":"","lat":42.187033,"lng":142.76107},{"town":"堺町西六丁目","koaza":"","lat":42.187094,"lng":142.765196},{"town":"堺町東一丁目","koaza":"","lat":42.176288,"lng":142.761608},{"town":"堺町東二丁目","koaza":"","lat":42.175155,"lng":142.764069},{"town":"堺町東三丁目","koaza":"","lat":42.18121,"lng":142.763861},{"town":"堺町東四丁目","koaza":"","lat":42.17793,"lng":142.766153},{"town":"堺町東五丁目","koaza":"","lat":42.1825,"lng":142.766959},{"town":"堺町東六丁目","koaza":"","lat":42.185344,"lng":142.767848},{"town":"潮見町","koaza":"","lat":42.165278,"lng":142.776214},{"town":"築地一丁目","koaza":"","lat":42.16742,"lng":142.767918},{"town":"築地二丁目","koaza":"","lat":42.169576,"lng":142.766274},{"town":"築地三丁目","koaza":"","lat":42.172344,"lng":142.765211},{"town":"常盤町","koaza":"","lat":42.174255,"lng":142.785947},{"town":"浜町","koaza":"","lat":42.161173,"lng":142.773689},{"town":"東町うしお一丁目","koaza":"","lat":42.156557,"lng":142.78924},{"town":"東町うしお二丁目","koaza":"","lat":42.159157,"lng":142.799821},{"town":"東町かしわ一丁目","koaza":"","lat":42.160934,"lng":142.796316},{"town":"東町かしわ二丁目","koaza":"","lat":42.161955,"lng":142.793378},{"town":"東町かしわ三丁目","koaza":"","lat":42.164604,"lng":142.796102},{"town":"東町かしわ四丁目","koaza":"","lat":42.169364,"lng":142.802424},{"town":"東町ちのみ一丁目","koaza":"","lat":42.160788,"lng":142.786913},{"town":"東町ちのみ二丁目","koaza":"","lat":42.163091,"lng":142.789312},{"town":"東町ちのみ三丁目","koaza":"","lat":42.16636,"lng":142.791179},{"town":"東町ちのみ四丁目","koaza":"","lat":42.171632,"lng":142.797016},{"town":"緑町","koaza":"","lat":42.18199,"lng":142.779211},{"town":"向が丘西一丁目","koaza":"","lat":42.189542,"lng":142.765516},{"town":"向が丘西二丁目","koaza":"","lat":42.19354,"lng":142.76926},{"town":"向が丘西三丁目","koaza":"","lat":42.190892,"lng":142.758122},{"town":"向が丘西四丁目","koaza":"","lat":42.193782,"lng":142.761402},{"town":"向が丘西五丁目","koaza":"","lat":42.201404,"lng":142.764101},{"town":"向が丘西六丁目","koaza":"","lat":42.200678,"lng":142.773856},{"town":"向が丘東一丁目","koaza":"","lat":42.187439,"lng":142.769561},{"town":"向が丘東二丁目","koaza":"","lat":42.191375,"lng":142.772161}]