[{"town":"字臼谷","koaza":"","lat":44.000511,"lng":141.666528},{"town":"字大椴","koaza":"","lat":44.074705,"lng":141.705341},{"town":"字沖内","koaza":"","lat":43.986514,"lng":141.791763},{"town":"字鬼鹿千松","koaza":"","lat":44.183968,"lng":141.692923},{"town":"字鬼鹿田代","koaza":"","lat":44.144757,"lng":141.727827},{"town":"字鬼鹿富岡","koaza":"","lat":44.106396,"lng":141.716997},{"town":"字鬼鹿豊浜","koaza":"","lat":44.200389,"lng":141.684842},{"town":"字鬼鹿秀浦","koaza":"","lat":44.119459,"lng":141.672687},{"town":"字鬼鹿広富","koaza":"","lat":44.137954,"lng":141.676584},{"town":"字鬼鹿港町","koaza":"","lat":44.153607,"lng":141.657404},{"town":"字鬼鹿元浜","koaza":"","lat":44.168296,"lng":141.672133},{"town":"字小平町","koaza":"","lat":44.015633,"lng":141.678003},{"town":"字川上","koaza":"","lat":44.089534,"lng":141.994147},{"town":"字菊岡","koaza":"","lat":43.960151,"lng":141.741646},{"town":"字岐富","koaza":"","lat":43.949981,"lng":141.773959},{"town":"字住吉","koaza":"","lat":44.049758,"lng":141.809233},{"town":"字桑園","koaza":"","lat":43.967601,"lng":141.723894},{"town":"字滝下","koaza":"","lat":44.053937,"lng":141.943277},{"town":"字達布","koaza":"","lat":44.030718,"lng":141.877036},{"town":"字富里","koaza":"","lat":44.019099,"lng":141.719096},{"town":"字豊岡","koaza":"","lat":43.949174,"lng":141.748539},{"town":"字豊平","koaza":"","lat":43.977427,"lng":141.687825},{"town":"字寧楽","koaza":"","lat":44.055857,"lng":141.772713},{"town":"字花岡","koaza":"","lat":44.03977,"lng":141.697453},{"town":"字平和","koaza":"","lat":44.026712,"lng":141.757567},{"town":"字本郷","koaza":"","lat":44.001126,"lng":141.693266}]