[{"town":"相泊","koaza":"","lat":44.186819,"lng":145.317394},{"town":"麻布町","koaza":"","lat":43.967969,"lng":145.133767},{"town":"海岸町","koaza":"","lat":44.056747,"lng":145.234096},{"town":"春日町","koaza":"","lat":43.949572,"lng":145.117791},{"town":"化石浜","koaza":"","lat":44.238668,"lng":145.346718},{"town":"北浜","koaza":"","lat":44.135754,"lng":145.253377},{"town":"共栄町","koaza":"","lat":44.027624,"lng":145.200678},{"town":"崩浜","koaza":"","lat":44.208649,"lng":145.333125},{"town":"昆布浜","koaza":"","lat":44.160387,"lng":145.293087},{"town":"栄町","koaza":"","lat":44.025103,"lng":145.189285},{"town":"知床岬","koaza":"","lat":44.323109,"lng":145.342761},{"town":"瀬石","koaza":"","lat":44.175536,"lng":145.308194},{"town":"滝ノ下","koaza":"","lat":44.28816,"lng":145.352926},{"town":"知昭町","koaza":"","lat":43.984974,"lng":145.15426},{"town":"富士見町","koaza":"","lat":44.019397,"lng":145.19333},{"town":"船泊","koaza":"","lat":44.261088,"lng":145.364258},{"town":"船見町","koaza":"","lat":44.022902,"lng":145.19599},{"town":"幌萌町","koaza":"","lat":43.921424,"lng":145.107307},{"town":"本町","koaza":"","lat":44.017895,"lng":145.186691},{"town":"松法町","koaza":"","lat":43.993416,"lng":145.163304},{"town":"岬町","koaza":"","lat":44.102412,"lng":145.238844},{"town":"緑町","koaza":"","lat":44.02225,"lng":145.18413},{"town":"峯浜町","koaza":"","lat":43.883193,"lng":145.070641},{"town":"八木浜町","koaza":"","lat":43.980493,"lng":145.14103},{"town":"湯ノ沢町","koaza":"","lat":44.030945,"lng":145.167716},{"town":"礼文町","koaza":"","lat":44.007692,"lng":145.176837}]