[{"town":"字奥興部","koaza":"","lat":44.383986,"lng":142.843144,"zip":"0981500"},{"town":"字忍路子","koaza":"","lat":44.29287,"lng":142.918191,"zip":"0981500"},{"town":"字上興部","koaza":"","lat":44.36069,"lng":142.858835,"zip":"0981500"},{"town":"字上藻","koaza":"","lat":44.264443,"lng":142.972503,"zip":"0981500"},{"town":"字札滑","koaza":"","lat":44.293982,"lng":142.856586,"zip":"0981500"},{"town":"字東興","koaza":"","lat":44.356345,"lng":142.894777,"zip":"0981500"},{"town":"字中興部","koaza":"","lat":44.376639,"lng":142.940275,"zip":"0981500"},{"town":"字中藻","koaza":"","lat":44.344171,"lng":143.004455,"zip":"0981500"},{"town":"字西興部","koaza":"","lat":44.328609,"lng":142.949258,"zip":"0981500"},{"town":"字六興","koaza":"","lat":44.355803,"lng":142.964185,"zip":"0981500"},{"town":"七重","koaza":"","lat":44.336279,"lng":142.941331,"zip":"0981500"}]