[{"town":"字一条通","koaza":"","lat":43.707604,"lng":144.020358},{"town":"字相生","koaza":"","lat":43.513921,"lng":144.017001},{"town":"字旭町","koaza":"","lat":43.708988,"lng":144.02847},{"town":"字岩富","koaza":"","lat":43.750274,"lng":144.046522},{"town":"字大通","koaza":"","lat":43.70768,"lng":144.023196},{"town":"字恩根","koaza":"","lat":43.600399,"lng":144.075241},{"town":"字柏町","koaza":"","lat":43.713547,"lng":144.024137},{"town":"字活汲","koaza":"","lat":43.741852,"lng":144.067802},{"town":"字上里","koaza":"","lat":43.577583,"lng":144.162392},{"town":"字木樋","koaza":"","lat":43.600449,"lng":143.945947},{"town":"字共和","koaza":"","lat":43.67744,"lng":144.014472},{"town":"字幸町","koaza":"","lat":43.706,"lng":144.026221},{"town":"字高台","koaza":"","lat":43.711671,"lng":144.050515},{"town":"字大昭","koaza":"","lat":43.619207,"lng":143.997147},{"town":"字豊永","koaza":"","lat":43.690157,"lng":144.065377},{"town":"字新町","koaza":"","lat":43.711649,"lng":144.022323},{"town":"字西三条","koaza":"","lat":43.706348,"lng":144.019282},{"town":"字西四条","koaza":"","lat":43.705878,"lng":144.018818},{"town":"字布川","koaza":"","lat":43.562013,"lng":143.961906},{"town":"字沼沢","koaza":"","lat":43.628772,"lng":143.917096},{"town":"字東二条","koaza":"","lat":43.708225,"lng":144.020593},{"town":"字東三条","koaza":"","lat":43.708732,"lng":144.020935},{"town":"字東四条","koaza":"","lat":43.709406,"lng":144.021123},{"town":"字東岡","koaza":"","lat":43.697381,"lng":144.094833},{"town":"字双葉","koaza":"","lat":43.657637,"lng":144.005138},{"town":"字二又","koaza":"","lat":43.593056,"lng":143.844136},{"town":"字本岐","koaza":"","lat":43.647056,"lng":143.984333},{"town":"字本町","koaza":"","lat":43.704695,"lng":144.022568},{"town":"字美都","koaza":"","lat":43.647863,"lng":144.094509},{"town":"字緑町","koaza":"","lat":43.70763,"lng":144.01723},{"town":"字最上","koaza":"","lat":43.690256,"lng":143.917565},{"town":"字西二条","koaza":"","lat":43.706962,"lng":144.01988},{"town":"字達美","koaza":"","lat":43.718729,"lng":144.016402},{"town":"字栄","koaza":"","lat":43.575038,"lng":144.045309}]