[{"town":"字曙","koaza":"","lat":"44.365690","lng":"141.854673"},{"town":"字朝日","koaza":"","lat":"44.350136","lng":"141.771792"},{"town":"字上築","koaza":"","lat":"44.379717","lng":"141.787887"},{"town":"字上羽幌","koaza":"","lat":"44.284979","lng":"141.944429"},{"town":"字汐見","koaza":"","lat":"44.390721","lng":"141.715351"},{"town":"字平","koaza":"","lat":"44.294718","lng":"141.806681"},{"town":"字高台","koaza":"","lat":"44.386358","lng":"141.735515"},{"town":"字築別","koaza":"","lat":"44.409712","lng":"141.756194"},{"town":"字築別炭砿","koaza":"","lat":"44.409958","lng":"141.940652"},{"town":"字中央","koaza":"","lat":"44.323894","lng":"141.751181"},{"town":"字羽幌砿","koaza":"","lat":"44.350430","lng":"141.917874"},{"town":"大字天売","koaza":"","lat":"44.427689","lng":"141.320501"},{"town":"大字焼尻","koaza":"","lat":"44.436902","lng":"141.406818"},{"town":"北一条一丁目","koaza":"","lat":"44.370228","lng":"141.704350"},{"town":"北一条二丁目","koaza":"","lat":"44.371192","lng":"141.705540"},{"town":"北一条三丁目","koaza":"","lat":"44.372097","lng":"141.706603"},{"town":"北一条四丁目","koaza":"","lat":"44.373305","lng":"141.707689"},{"town":"北二条一丁目","koaza":"","lat":"44.369651","lng":"141.705079"},{"town":"北二条二丁目","koaza":"","lat":"44.370663","lng":"141.706348"},{"town":"北二条三丁目","koaza":"","lat":"44.371580","lng":"141.707487"},{"town":"北二条四丁目","koaza":"","lat":"44.372328","lng":"141.708411"},{"town":"北三条一丁目","koaza":"","lat":"44.368127","lng":"141.707064"},{"town":"北三条二丁目","koaza":"","lat":"44.369169","lng":"141.708399"},{"town":"北三条三丁目","koaza":"","lat":"44.370105","lng":"141.709596"},{"town":"北三条四丁目","koaza":"","lat":"44.370991","lng":"141.710713"},{"town":"北四条一丁目","koaza":"","lat":"44.367231","lng":"141.708069"},{"town":"北四条二丁目","koaza":"","lat":"44.368574","lng":"141.709578"},{"town":"北四条三丁目","koaza":"","lat":"44.369426","lng":"141.710652"},{"town":"北四条四丁目","koaza":"","lat":"44.370307","lng":"141.711752"},{"town":"北五条一丁目","koaza":"","lat":"44.366664","lng":"141.709101"},{"town":"北五条二丁目","koaza":"","lat":"44.367904","lng":"141.710637"},{"town":"北五条三丁目","koaza":"","lat":"44.368749","lng":"141.711745"},{"town":"北五条四丁目","koaza":"","lat":"44.369582","lng":"141.712882"},{"town":"北六条一丁目","koaza":"","lat":"44.365948","lng":"141.709659"},{"town":"北六条二丁目","koaza":"","lat":"44.367391","lng":"141.711446"},{"town":"北六条三丁目","koaza":"","lat":"44.368252","lng":"141.712566"},{"town":"北六条四丁目","koaza":"","lat":"44.369088","lng":"141.713673"},{"town":"北大通一丁目","koaza":"","lat":"44.368893","lng":"141.705969"},{"town":"北大通二丁目","koaza":"","lat":"44.369956","lng":"141.707427"},{"town":"北大通三丁目","koaza":"","lat":"44.370809","lng":"141.708512"},{"town":"北大通四丁目","koaza":"","lat":"44.371686","lng":"141.709638"},{"town":"北町","koaza":"","lat":"44.373490","lng":"141.711577"},{"town":"寿町","koaza":"","lat":"44.351566","lng":"141.724509"},{"town":"幸町","koaza":"","lat":"44.362051","lng":"141.693303"},{"town":"栄町","koaza":"","lat":"44.346289","lng":"141.702082"},{"town":"浜町一丁目","koaza":"","lat":"44.371051","lng":"141.703534"},{"town":"浜町二丁目","koaza":"","lat":"44.372972","lng":"141.702991"},{"town":"浜町三丁目","koaza":"","lat":"44.373046","lng":"141.704950"},{"town":"浜町四丁目","koaza":"","lat":"44.374276","lng":"141.705823"},{"town":"浜町五丁目","koaza":"","lat":"44.375909","lng":"141.706365"},{"town":"緑町","koaza":"","lat":"44.359574","lng":"141.707959"},{"town":"港町一丁目","koaza":"","lat":"44.369887","lng":"141.702359"},{"town":"港町二丁目","koaza":"","lat":"44.367857","lng":"141.698555"},{"town":"港町三丁目","koaza":"","lat":"44.367457","lng":"141.696916"},{"town":"港町四丁目","koaza":"","lat":"44.366857","lng":"141.695401"},{"town":"港町五丁目","koaza":"","lat":"44.365737","lng":"141.694718"},{"town":"港町六丁目","koaza":"","lat":"44.364880","lng":"141.693746"},{"town":"南一条一丁目","koaza":"","lat":"44.368446","lng":"141.702118"},{"town":"南一条二丁目","koaza":"","lat":"44.366853","lng":"141.700137"},{"town":"南一条三丁目","koaza":"","lat":"44.366011","lng":"141.699094"},{"town":"南一条四丁目","koaza":"","lat":"44.365161","lng":"141.698016"},{"town":"南一条五丁目","koaza":"","lat":"44.364325","lng":"141.696958"},{"town":"南一条六丁目","koaza":"","lat":"44.363482","lng":"141.695908"},{"town":"南二条一丁目","koaza":"","lat":"44.367929","lng":"141.703049"},{"town":"南二条二丁目","koaza":"","lat":"44.366340","lng":"141.700940"},{"town":"南二条三丁目","koaza":"","lat":"44.365497","lng":"141.699900"},{"town":"南二条四丁目","koaza":"","lat":"44.364646","lng":"141.698821"},{"town":"南二条五丁目","koaza":"","lat":"44.363805","lng":"141.697767"},{"town":"南二条六丁目","koaza":"","lat":"44.362966","lng":"141.696708"},{"town":"南三条一丁目","koaza":"","lat":"44.366455","lng":"141.705008"},{"town":"南三条二丁目","koaza":"","lat":"44.364946","lng":"141.703112"},{"town":"南三条三丁目","koaza":"","lat":"44.364095","lng":"141.702047"},{"town":"南三条四丁目","koaza":"","lat":"44.363242","lng":"141.700973"},{"town":"南三条五丁目","koaza":"","lat":"44.362395","lng":"141.699911"},{"town":"南三条六丁目","koaza":"","lat":"44.361550","lng":"141.698851"},{"town":"南四条一丁目","koaza":"","lat":"44.365738","lng":"141.706019"},{"town":"南四条二丁目","koaza":"","lat":"44.364274","lng":"141.704164"},{"town":"南四条三丁目","koaza":"","lat":"44.363419","lng":"141.703090"},{"town":"南四条四丁目","koaza":"","lat":"44.362407","lng":"141.701963"},{"town":"南四条五丁目","koaza":"","lat":"44.361550","lng":"141.701350"},{"town":"南四条六丁目","koaza":"","lat":"44.360912","lng":"141.699887"},{"town":"南五条一丁目","koaza":"","lat":"44.365017","lng":"141.706821"},{"town":"南五条二丁目","koaza":"","lat":"44.363596","lng":"141.705210"},{"town":"南五条三丁目","koaza":"","lat":"44.362740","lng":"141.704133"},{"town":"南五条四丁目","koaza":"","lat":"44.361899","lng":"141.703225"},{"town":"南五条五丁目","koaza":"","lat":"44.360846","lng":"141.702285"},{"town":"南五条六丁目","koaza":"","lat":"44.360223","lng":"141.700954"},{"town":"南六条一丁目","koaza":"","lat":"44.364253","lng":"141.708012"},{"town":"南六条二丁目","koaza":"","lat":"44.362905","lng":"141.706300"},{"town":"南六条三丁目","koaza":"","lat":"44.362124","lng":"141.705325"},{"town":"南六条四丁目","koaza":"","lat":"44.361077","lng":"141.704065"},{"town":"南六条五丁目","koaza":"","lat":"44.360330","lng":"141.703179"},{"town":"南六条六丁目","koaza":"","lat":"44.359658","lng":"141.702131"},{"town":"南七条一丁目","koaza":"","lat":"44.363499","lng":"141.708901"},{"town":"南七条二丁目","koaza":"","lat":"44.362241","lng":"141.707300"},{"town":"南七条三丁目","koaza":"","lat":"44.361372","lng":"141.706233"},{"town":"南七条四丁目","koaza":"","lat":"44.360504","lng":"141.705201"},{"town":"南七条五丁目","koaza":"","lat":"44.359667","lng":"141.704132"},{"town":"南七条六丁目","koaza":"","lat":"44.359082","lng":"141.703367"},{"town":"南大通一丁目","koaza":"","lat":"44.367215","lng":"141.704009"},{"town":"南大通二丁目","koaza":"","lat":"44.365645","lng":"141.702030"},{"town":"南大通三丁目","koaza":"","lat":"44.364884","lng":"141.701087"},{"town":"南大通四丁目","koaza":"","lat":"44.363945","lng":"141.699898"},{"town":"南大通五丁目","koaza":"","lat":"44.363111","lng":"141.698864"},{"town":"南大通六丁目","koaza":"","lat":"44.362268","lng":"141.697756"},{"town":"南町","koaza":"","lat":"44.358303","lng":"141.698449"}]