[{"town":"字大岩","koaza":"","lat":41.998462,"lng":140.838273},{"town":"字駒見","koaza":"","lat":42.010435,"lng":140.751607},{"town":"字鹿部","koaza":"","lat":42.011153,"lng":140.81967},{"town":"字本別","koaza":"","lat":42.06302,"lng":140.74037},{"town":"字宮浜","koaza":"","lat":42.016837,"lng":140.787058}]