[{"town":"字相川","koaza":"","lat":42.787224,"lng":140.919017},{"town":"字金山","koaza":"","lat":42.724794,"lng":141.02162},{"town":"字川上","koaza":"","lat":42.856793,"lng":141.052958},{"town":"字喜茂別","koaza":"","lat":42.795901,"lng":140.936994},{"town":"字栄","koaza":"","lat":42.812357,"lng":140.999473},{"town":"字尻別","koaza":"","lat":42.771224,"lng":140.935274},{"town":"字鈴川","koaza":"","lat":42.765315,"lng":140.99234},{"town":"字壮園","koaza":"","lat":42.73925,"lng":141.02676},{"town":"字知来別","koaza":"","lat":42.784201,"lng":141.006769},{"town":"字中里","koaza":"","lat":42.755457,"lng":141.017639},{"town":"字比羅岡","koaza":"","lat":42.804753,"lng":140.870346},{"town":"字花丘","koaza":"","lat":42.781321,"lng":141.050666},{"town":"字福丘","koaza":"","lat":42.754116,"lng":140.961088},{"town":"字福島","koaza":"","lat":42.824587,"lng":141.036625},{"town":"字伏見","koaza":"","lat":42.800899,"lng":140.967834},{"town":"字富士見台","koaza":"","lat":42.781593,"lng":140.971643},{"town":"字双葉","koaza":"","lat":42.764931,"lng":141.071897},{"town":"字御園","koaza":"","lat":42.740722,"lng":140.995187},{"town":"字留産","koaza":"","lat":42.795167,"lng":140.90159}]