[{"town":"字雨煙別","koaza":"","lat":44.073632,"lng":142.143148},{"town":"字雨煙内","koaza":"","lat":44.00579,"lng":142.165856},{"town":"字上幌加内","koaza":"","lat":44.041372,"lng":142.147318},{"town":"字共栄","koaza":"","lat":44.260655,"lng":142.148517},{"town":"字下幌加内","koaza":"","lat":43.945336,"lng":142.162179},{"town":"字朱鞠内","koaza":"","lat":44.289097,"lng":142.160635},{"town":"字振興","koaza":"","lat":44.02938,"lng":142.144612},{"town":"字新富","koaza":"","lat":44.170129,"lng":142.14966},{"town":"字新成生","koaza":"","lat":43.976529,"lng":142.144855},{"town":"字親和","koaza":"","lat":43.999896,"lng":142.164665},{"town":"字清月","koaza":"","lat":44.015858,"lng":142.148892},{"town":"字政和第一","koaza":"","lat":44.121402,"lng":142.151116},{"town":"字政和第二","koaza":"","lat":44.135685,"lng":142.148432},{"town":"字政和第三","koaza":"","lat":44.155261,"lng":142.144641},{"town":"字添牛内","koaza":"","lat":44.206308,"lng":142.135405},{"town":"字東栄","koaza":"","lat":44.024629,"lng":142.163209},{"town":"字沼牛","koaza":"","lat":43.976647,"lng":142.205146},{"town":"字蕗の台","koaza":"","lat":44.378505,"lng":142.13909},{"town":"字平和","koaza":"","lat":43.993081,"lng":142.148101},{"town":"字北星","koaza":"","lat":44.208139,"lng":142.182465},{"town":"字幌加内","koaza":"","lat":44.012485,"lng":142.15599},{"town":"字母子里","koaza":"","lat":44.361607,"lng":142.268595},{"town":"字弥運内","koaza":"","lat":43.986468,"lng":142.176524},{"town":"字長留内","koaza":"","lat":44.003983,"lng":142.128574},{"town":"字大曲","koaza":"","lat":44.235159,"lng":142.166381}]