[{"town":"百目木","lat":"37.541324","lng":"140.613203"},{"town":"杉沢","lat":"37.514564","lng":"140.570473"},{"town":"初森","lat":"37.514895","lng":"140.525769"},{"town":"茂原","lat":"37.537151","lng":"140.640832"},{"town":"戸沢","lat":"37.573642","lng":"140.605152"},{"town":"下長折","lat":"37.580757","lng":"140.508524"},{"town":"成田","lat":"37.535770","lng":"140.498635"},{"town":"西勝田","lat":"37.549402","lng":"140.517830"},{"town":"作","lat":"37.568873","lng":"140.492437"},{"town":"明主内","lat":"37.574024","lng":"140.495983"},{"town":"大平中井","lat":"37.578854","lng":"140.493786"},{"town":"原セ山口","lat":"37.582037","lng":"140.379278"},{"town":"苗松","lat":"37.563652","lng":"140.364157"},{"town":"三雄山","lat":"37.571654","lng":"140.368587"},{"town":"大石ヶ作","lat":"37.576681","lng":"140.368520"},{"town":"箕輪三丁目","lat":"37.572304","lng":"140.377276"},{"town":"大坂","lat":"37.582811","lng":"140.366119"},{"town":"原セ上平","lat":"37.580620","lng":"140.375330"},{"town":"田沢","lat":"37.564784","lng":"140.651392"},{"town":"長折","lat":"37.577046","lng":"140.527452"},{"town":"太田","lat":"37.582610","lng":"140.554889"},{"town":"長下","lat":"37.588826","lng":"140.500636"},{"town":"小沢","lat":"37.621662","lng":"140.488820"},{"town":"下川崎","lat":"37.630126","lng":"140.516796"},{"town":"原セ才木","lat":"37.588852","lng":"140.374471"},{"town":"原セ仲谷地","lat":"37.585481","lng":"140.380800"},{"town":"原セ天ヶ作","lat":"37.587394","lng":"140.386491"},{"town":"原セ堰下","lat":"37.590393","lng":"140.388754"},{"town":"原セ日照田","lat":"37.586123","lng":"140.392488"},{"town":"高平","lat":"37.583368","lng":"140.401638"},{"town":"硯石","lat":"37.586536","lng":"140.409071"},{"town":"高越松ヶ作","lat":"37.584511","lng":"140.414177"},{"town":"成田日向","lat":"37.586274","lng":"140.419884"},{"town":"大壇","lat":"37.586108","lng":"140.423970"},{"town":"向原","lat":"37.585032","lng":"140.426642"},{"town":"金色","lat":"37.586640","lng":"140.431144"},{"town":"市海道","lat":"37.587663","lng":"140.435246"},{"town":"作田","lat":"37.585804","lng":"140.440643"},{"town":"冠木","lat":"37.586921","lng":"140.445604"},{"town":"上竹一丁目","lat":"37.588358","lng":"140.449409"},{"town":"上竹二丁目","lat":"37.587004","lng":"140.452974"},{"town":"平石高田一丁目","lat":"37.581693","lng":"140.458340"},{"town":"安達ヶ原二丁目","lat":"37.589028","lng":"140.460127"},{"town":"安達ヶ原一丁目","lat":"37.587241","lng":"140.463872"},{"town":"諸越谷","lat":"37.583495","lng":"140.463734"},{"town":"三合内","lat":"37.584385","lng":"140.468325"},{"town":"丑子内","lat":"37.588296","lng":"140.470087"},{"town":"西光内","lat":"37.585332","lng":"140.473434"},{"town":"上蓬田","lat":"37.586444","lng":"140.477108"},{"town":"蓬田","lat":"37.589724","lng":"140.481730"},{"town":"浅川","lat":"37.588890","lng":"140.487478"},{"town":"谷和子","lat":"37.584215","lng":"140.489639"},{"town":"中森","lat":"37.588084","lng":"140.490506"},{"town":"上川崎","lat":"37.604580","lng":"140.494935"},{"town":"上葉木坂","lat":"37.616664","lng":"140.373655"},{"town":"岳東町","lat":"37.616604","lng":"140.363331"},{"town":"大根畑","lat":"37.629235","lng":"140.377033"},{"town":"沢松倉","lat":"37.640296","lng":"140.369403"},{"town":"休石原","lat":"37.634590","lng":"140.378020"},{"town":"萩坂","lat":"37.607758","lng":"140.372101"},{"town":"立石","lat":"37.600507","lng":"140.368411"},{"town":"才木山","lat":"37.591847","lng":"140.370700"},{"town":"岳温泉横森","lat":"37.586753","lng":"140.358893"},{"town":"小関","lat":"37.588799","lng":"140.350745"},{"town":"渋川","lat":"37.631459","lng":"140.445689"},{"town":"東新殿","lat":"37.533529","lng":"140.595883"},{"town":"西新殿","lat":"37.534661","lng":"140.561832"},{"town":"小浜","lat":"37.543141","lng":"140.504270"},{"town":"上太田","lat":"37.554890","lng":"140.559873"},{"town":"上長折","lat":"37.550248","lng":"140.535696"},{"town":"式部内","lat":"37.572431","lng":"140.499395"},{"town":"水上","lat":"37.580104","lng":"140.500428"},{"town":"大久保一丁目","lat":"37.533308","lng":"140.482761"},{"town":"五月町二丁目","lat":"37.533563","lng":"140.474327"},{"town":"鈴石東町三丁目","lat":"37.546271","lng":"140.486628"},{"town":"大久保二丁目","lat":"37.540104","lng":"140.482588"},{"town":"鈴石東町二丁目","lat":"37.546006","lng":"140.478309"},{"town":"五月町一丁目","lat":"37.535027","lng":"140.468931"},{"town":"芹沢","lat":"37.538492","lng":"140.466918"},{"town":"五月町三丁目","lat":"37.539893","lng":"140.475229"},{"town":"鈴石東町一丁目","lat":"37.548732","lng":"140.480035"},{"town":"昭和町","lat":"37.545287","lng":"140.470155"},{"town":"南町","lat":"37.542374","lng":"140.459109"},{"town":"田町","lat":"37.549104","lng":"140.459565"},{"town":"錦町二丁目","lat":"37.546206","lng":"140.452479"},{"town":"菅田","lat":"37.550934","lng":"140.430552"},{"town":"瀬ノ上","lat":"37.547410","lng":"140.425347"},{"town":"坊主滝","lat":"37.541202","lng":"140.419343"},{"town":"在師","lat":"37.542712","lng":"140.416618"},{"town":"竹柄","lat":"37.542000","lng":"140.413846"},{"town":"隠里","lat":"37.547491","lng":"140.414972"},{"town":"峠","lat":"37.545023","lng":"140.410264"},{"town":"八坂町","lat":"37.555377","lng":"140.481838"},{"town":"遠山","lat":"37.562035","lng":"140.484868"},{"town":"堀越","lat":"37.564840","lng":"140.478281"},{"town":"米五町","lat":"37.556991","lng":"140.475574"},{"town":"鈴石町","lat":"37.551194","lng":"140.469635"},{"town":"新生町","lat":"37.560553","lng":"140.469209"},{"town":"岡ノ内","lat":"37.566624","lng":"140.471652"},{"town":"錦町一丁目","lat":"37.547688","lng":"140.446446"},{"town":"平石町","lat":"37.553992","lng":"140.463123"},{"town":"平石三丁目","lat":"37.555878","lng":"140.453127"},{"town":"小高内","lat":"37.561493","lng":"140.462416"},{"town":"沖三丁目","lat":"37.565996","lng":"140.461762"},{"town":"大町","lat":"37.552881","lng":"140.443252"},{"town":"中町","lat":"37.561358","lng":"140.453973"},{"town":"江口","lat":"37.557355","lng":"140.443254"},{"town":"南トロミ","lat":"37.563703","lng":"140.444784"},{"town":"水神","lat":"37.554256","lng":"140.434895"},{"town":"十神","lat":"37.554332","lng":"140.430632"},{"town":"前田","lat":"37.560204","lng":"140.437789"},{"town":"落合","lat":"37.559836","lng":"140.434265"},{"town":"杉田仲之内","lat":"37.557652","lng":"140.432576"},{"town":"諏訪原","lat":"37.562096","lng":"140.433701"},{"town":"岩崎","lat":"37.564660","lng":"140.431693"},{"town":"七ツ段","lat":"37.556144","lng":"140.427255"},{"town":"借宿","lat":"37.559967","lng":"140.429967"},{"town":"下町","lat":"37.561645","lng":"140.428371"},{"town":"石ノ花","lat":"37.563525","lng":"140.427789"},{"town":"反返","lat":"37.566456","lng":"140.428154"},{"town":"片岸","lat":"37.565385","lng":"140.425272"},{"town":"向陽台","lat":"37.556701","lng":"140.423714"},{"town":"大沢","lat":"37.551201","lng":"140.420560"},{"town":"上平内","lat":"37.554466","lng":"140.415700"},{"town":"長者宮","lat":"37.560723","lng":"140.424313"},{"town":"反田","lat":"37.563097","lng":"140.422914"},{"town":"郡山台","lat":"37.557640","lng":"140.420798"},{"town":"成上","lat":"37.556204","lng":"140.417858"},{"town":"姫子松","lat":"37.560017","lng":"140.416805"},{"town":"中江","lat":"37.563193","lng":"140.416985"},{"town":"社前","lat":"37.566019","lng":"140.419083"},{"town":"薬師","lat":"37.552964","lng":"140.411816"},{"town":"西町","lat":"37.555087","lng":"140.408751"},{"town":"東町","lat":"37.559378","lng":"140.413297"},{"town":"住吉","lat":"37.554605","lng":"140.405038"},{"town":"杉田町一丁目","lat":"37.562202","lng":"140.410301"},{"town":"杉田町二丁目","lat":"37.564945","lng":"140.411517"},{"town":"長命","lat":"37.559768","lng":"140.405106"},{"town":"舘野四丁目","lat":"37.563735","lng":"140.396032"},{"town":"舘野原","lat":"37.565384","lng":"140.393066"},{"town":"箕輪二丁目","lat":"37.563818","lng":"140.384020"},{"town":"橋本","lat":"37.576350","lng":"140.489680"},{"town":"松林","lat":"37.568511","lng":"140.482343"},{"town":"沼ヶ作","lat":"37.570476","lng":"140.475635"},{"town":"神明石","lat":"37.573656","lng":"140.481069"},{"town":"宮本","lat":"37.578197","lng":"140.484138"},{"town":"竹ノ内","lat":"37.579294","lng":"140.477561"},{"town":"太子堂","lat":"37.579374","lng":"140.473849"},{"town":"沖二丁目","lat":"37.570990","lng":"140.462999"},{"town":"大稲場","lat":"37.571704","lng":"140.469665"},{"town":"木ノ崎","lat":"37.577075","lng":"140.466842"},{"town":"島ノ内","lat":"37.580556","lng":"140.470221"},{"town":"沖一丁目","lat":"37.569977","lng":"140.456492"},{"town":"赤井沢","lat":"37.566907","lng":"140.452206"},{"town":"平石高田三丁目","lat":"37.575321","lng":"140.453235"},{"town":"平石高田二丁目","lat":"37.578528","lng":"140.456209"},{"town":"北トロミ","lat":"37.569855","lng":"140.444522"},{"town":"舟石","lat":"37.566967","lng":"140.436899"},{"town":"平石高田四丁目","lat":"37.576387","lng":"140.447726"},{"town":"高田","lat":"37.582648","lng":"140.448341"},{"town":"宮戸","lat":"37.574264","lng":"140.443760"},{"town":"八万舘","lat":"37.577492","lng":"140.442734"},{"town":"下平","lat":"37.577261","lng":"140.438436"},{"town":"鐙摺石","lat":"37.580632","lng":"140.442927"},{"town":"向作田","lat":"37.583533","lng":"140.439440"},{"town":"舟形石","lat":"37.569519","lng":"140.434607"},{"town":"関","lat":"37.572703","lng":"140.440409"},{"town":"袋内","lat":"37.568195","lng":"140.431152"},{"town":"新林","lat":"37.569702","lng":"140.426162"},{"town":"遠西","lat":"37.571732","lng":"140.431185"},{"town":"舟形石山","lat":"37.573386","lng":"140.433421"},{"town":"下ノ内","lat":"37.577593","lng":"140.434907"},{"town":"唐谷山","lat":"37.573717","lng":"140.429022"},{"town":"不動","lat":"37.578475","lng":"140.433075"},{"town":"木藤次郎内","lat":"37.581583","lng":"140.437034"},{"town":"金色久保","lat":"37.584208","lng":"140.434149"},{"town":"高西","lat":"37.577859","lng":"140.430256"},{"town":"原田","lat":"37.577256","lng":"140.427140"},{"town":"中里","lat":"37.577112","lng":"140.424164"},{"town":"羽石","lat":"37.582016","lng":"140.428930"},{"town":"西池","lat":"37.572420","lng":"140.424279"},{"town":"杉田駄子内","lat":"37.569703","lng":"140.421600"},{"town":"大平山","lat":"37.570555","lng":"140.416772"},{"town":"槻木","lat":"37.576263","lng":"140.420476"},{"town":"東裏","lat":"37.580863","lng":"140.423680"},{"town":"新座","lat":"37.576016","lng":"140.416873"},{"town":"藤之前","lat":"37.578181","lng":"140.415247"},{"town":"藤太郎内","lat":"37.584249","lng":"140.418956"},{"town":"正法寺町","lat":"37.580697","lng":"140.418617"},{"town":"杉田町三丁目","lat":"37.569909","lng":"140.412644"},{"town":"下山田","lat":"37.573950","lng":"140.413955"},{"town":"舘野一丁目","lat":"37.566651","lng":"140.405915"},{"town":"舘野二丁目","lat":"37.568734","lng":"140.400164"},{"town":"大作","lat":"37.573404","lng":"140.409818"},{"town":"高越屋戸","lat":"37.579594","lng":"140.412262"},{"town":"中山田","lat":"37.577927","lng":"140.407450"},{"town":"井戸神","lat":"37.581967","lng":"140.412732"},{"town":"屋戸入","lat":"37.581955","lng":"140.407734"},{"town":"山田","lat":"37.576176","lng":"140.403110"},{"town":"舘野三丁目","lat":"37.565836","lng":"140.398654"},{"town":"原セ諏訪","lat":"37.575755","lng":"140.397465"},{"town":"原セ上ノ内","lat":"37.573698","lng":"140.391839"},{"town":"箕輪一丁目","lat":"37.567707","lng":"140.386719"},{"town":"乳母沢","lat":"37.566046","lng":"140.377315"},{"town":"原セ笠張","lat":"37.575937","lng":"140.384773"},{"town":"原セ大畑","lat":"37.579795","lng":"140.389313"},{"town":"雄平台","lat":"37.577239","lng":"140.360451"},{"town":"馬場平","lat":"37.576538","lng":"140.349949"},{"town":"小セ川","lat":"37.593235","lng":"140.513644"},{"town":"島寺","lat":"37.590668","lng":"140.504434"},{"town":"針道","lat":"37.601955","lng":"140.593531"},{"town":"木幡","lat":"37.622133","lng":"140.551407"},{"town":"智恵子の森二丁目","lat":"37.599060","lng":"140.455609"},{"town":"智恵子の森五丁目","lat":"37.597316","lng":"140.453987"},{"town":"智恵子の森三丁目","lat":"37.598216","lng":"140.455737"},{"town":"智恵子の森四丁目","lat":"37.598707","lng":"140.453416"},{"town":"智恵子の森一丁目","lat":"37.600144","lng":"140.455817"},{"town":"石畑","lat":"37.592666","lng":"140.476479"},{"town":"矢ノ戸","lat":"37.595693","lng":"140.475494"},{"town":"安達ヶ原五丁目","lat":"37.590791","lng":"140.467535"},{"town":"安達ヶ原六丁目","lat":"37.593348","lng":"140.469551"},{"town":"安達ヶ原七丁目","lat":"37.597411","lng":"140.467729"},{"town":"安達ヶ原三丁目","lat":"37.590311","lng":"140.458997"},{"town":"安達ヶ原四丁目","lat":"37.595327","lng":"140.464126"},{"town":"茶園一丁目","lat":"37.588670","lng":"140.438586"},{"town":"茶園二丁目","lat":"37.589085","lng":"140.443287"},{"town":"榎戸二丁目","lat":"37.592423","lng":"140.457140"},{"town":"榎戸一丁目","lat":"37.593566","lng":"140.450063"},{"town":"亀谷二丁目","lat":"37.594043","lng":"140.444965"},{"town":"根崎一丁目","lat":"37.597475","lng":"140.448918"},{"town":"根崎二丁目","lat":"37.600962","lng":"140.449664"},{"town":"竹田一丁目","lat":"37.597986","lng":"140.444164"},{"town":"竹田二丁目","lat":"37.601310","lng":"140.445495"},{"town":"本町二丁目","lat":"37.590463","lng":"140.436135"},{"town":"若宮二丁目","lat":"37.589440","lng":"140.427423"},{"town":"三保内","lat":"37.588459","lng":"140.416194"},{"town":"亀谷一丁目","lat":"37.593424","lng":"140.440675"},{"town":"郭内一丁目","lat":"37.597189","lng":"140.438159"},{"town":"郭内二丁目","lat":"37.600708","lng":"140.438165"},{"town":"本町一丁目","lat":"37.593199","lng":"140.436332"},{"town":"松岡","lat":"37.592015","lng":"140.432403"},{"town":"表一丁目","lat":"37.606447","lng":"140.441831"},{"town":"表二丁目","lat":"37.607179","lng":"140.434979"},{"town":"若宮一丁目","lat":"37.593198","lng":"140.427541"},{"town":"郭内三丁目","lat":"37.597542","lng":"140.429190"},{"town":"二伊滝一丁目","lat":"37.598935","lng":"140.421991"},{"town":"郭内四丁目","lat":"37.601874","lng":"140.430280"},{"town":"成田町一丁目","lat":"37.592101","lng":"140.419414"},{"town":"細野","lat":"37.606468","lng":"140.428692"},{"town":"永田一丁目","lat":"37.590399","lng":"140.408369"},{"town":"二伊滝二丁目","lat":"37.602436","lng":"140.418765"},{"town":"伊佐沼町一丁目","lat":"37.609263","lng":"140.419908"},{"town":"永田鍛治内","lat":"37.595057","lng":"140.410540"},{"town":"永田馬保内","lat":"37.597142","lng":"140.409661"},{"town":"成田町二丁目","lat":"37.599062","lng":"140.416042"},{"town":"永田才木","lat":"37.600192","lng":"140.407143"},{"town":"二伊滝三丁目","lat":"37.606692","lng":"140.409838"},{"town":"永田積内","lat":"37.601040","lng":"140.400993"},{"town":"永田御堂内","lat":"37.603285","lng":"140.403575"},{"town":"永田二丁目","lat":"37.593246","lng":"140.402451"},{"town":"永田三丁目","lat":"37.590171","lng":"140.397775"},{"town":"永田四丁目","lat":"37.594423","lng":"140.394796"},{"town":"永田五丁目","lat":"37.598214","lng":"140.393918"},{"town":"大森沢","lat":"37.608073","lng":"140.398651"},{"town":"永田六丁目","lat":"37.603744","lng":"140.389067"},{"town":"原セ川原","lat":"37.593916","lng":"140.383206"},{"town":"毘沙門堂","lat":"37.599030","lng":"140.382205"},{"town":"前原","lat":"37.607290","lng":"140.390341"},{"town":"毘沙門堂山","lat":"37.605111","lng":"140.382329"},{"town":"幸町","lat":"37.627505","lng":"140.452195"},{"town":"油井","lat":"37.610614","lng":"140.460044"},{"town":"塩沢町一丁目","lat":"37.612579","lng":"140.428051"},{"town":"三原町","lat":"37.623418","lng":"140.442401"},{"town":"末広町","lat":"37.620898","lng":"140.435290"},{"town":"坦子内","lat":"37.627056","lng":"140.439436"},{"town":"上原","lat":"37.622154","lng":"140.428325"},{"town":"中ノ目","lat":"37.621993","lng":"140.421673"},{"town":"塩沢町二丁目","lat":"37.614348","lng":"140.417927"},{"town":"伊佐沼町二丁目","lat":"37.613956","lng":"140.407206"},{"town":"湯川町","lat":"37.619122","lng":"140.412539"},{"town":"古家","lat":"37.625534","lng":"140.408900"},{"town":"鉄扇町","lat":"37.627313","lng":"140.416856"},{"town":"新田","lat":"37.611478","lng":"140.386836"},{"town":"笹屋","lat":"37.627640","lng":"140.398907"},{"town":"板目沢","lat":"37.618564","lng":"140.393851"},{"town":"二又","lat":"37.632831","lng":"140.397373"},{"town":"休石","lat":"37.629733","lng":"140.386255"},{"town":"上新田","lat":"37.617511","lng":"140.388671"},{"town":"米沢","lat":"37.642185","lng":"140.474572"},{"town":"吉倉","lat":"37.642090","lng":"140.428901"},{"town":"宮沢","lat":"37.637982","lng":"140.383595"},{"town":"岳温泉大和","lat":"37.595333","lng":"140.356652"},{"town":"岳温泉西大和","lat":"37.597458","lng":"140.346894"},{"town":"岳温泉二丁目","lat":"37.602176","lng":"140.358478"},{"town":"岳温泉一丁目","lat":"37.606015","lng":"140.356452"},{"town":"岳温泉深堀","lat":"37.603655","lng":"140.349883"},{"town":"岳温泉三丁目","lat":"37.606629","lng":"140.350371"},{"town":"岳温泉四丁目","lat":"37.615594","lng":"140.354410"},{"town":"栄町","lat":"37.627659","lng":"140.362214"},{"town":"大関","lat":"37.627609","lng":"140.352743"},{"town":"永田","lat":"37.619862","lng":"140.330144"},{"town":"不動平","lat":"37.637178","lng":"140.356800"},{"town":"木ノ根坂","lat":"37.643911","lng":"140.346877"},{"town":"塩沢","lat":"37.642445","lng":"140.330254"}]