[{"town":"大字成田","lat":"37.844661","lng":"140.493773"},{"town":"大字松原","lat":"37.836914","lng":"140.485410"},{"town":"大字上郡　","lat":"37.844380","lng":"140.532048"},{"town":"字狐崎","lat":"37.834861","lng":"140.531823"},{"town":"字砂子沢四","lat":"37.837217","lng":"140.529984"},{"town":"字砂子沢三","lat":"37.837148","lng":"140.526844"},{"town":"字砂子沢二","lat":"37.837087","lng":"140.523994"},{"town":"字落合","lat":"37.837937","lng":"140.521301"},{"town":"字杉ノ前","lat":"37.837931","lng":"140.518883"},{"town":"字鳥居田","lat":"37.836011","lng":"140.515568"},{"town":"字白銀","lat":"37.836143","lng":"140.511025"},{"town":"字金原","lat":"37.836447","lng":"140.512801"},{"town":"字興福寺","lat":"37.835612","lng":"140.509737"},{"town":"大字平沢","lat":"37.850881","lng":"140.498021"},{"town":"大字南半田","lat":"37.873410","lng":"140.492449"},{"town":"大字北半田","lat":"37.883060","lng":"140.497320"},{"town":"字西八串","lat":"37.835575","lng":"140.534306"},{"town":"字東八串","lat":"37.834851","lng":"140.536267"},{"town":"字下川原","lat":"37.831168","lng":"140.533719"},{"town":"字砂子沢五","lat":"37.835237","lng":"140.528021"},{"town":"字新川原","lat":"37.834225","lng":"140.521860"},{"town":"字砂子沢一","lat":"37.834162","lng":"140.524427"},{"town":"字中島","lat":"37.832123","lng":"140.512846"},{"town":"字苅又","lat":"37.834622","lng":"140.513535"},{"town":"字界","lat":"37.829151","lng":"140.509349"},{"town":"字三角","lat":"37.830915","lng":"140.511133"},{"town":"字台下","lat":"37.833149","lng":"140.510965"},{"town":"字蒲田","lat":"37.830383","lng":"140.507631"},{"town":"字赤坂","lat":"37.830140","lng":"140.505583"},{"town":"字台","lat":"37.833438","lng":"140.509774"},{"town":"字一里壇","lat":"37.828638","lng":"140.504137"},{"town":"字和尚堂","lat":"37.841646","lng":"140.517234"},{"town":"字赤川原","lat":"37.838042","lng":"140.531533"},{"town":"字佐野","lat":"37.840440","lng":"140.523450"},{"town":"字堰下","lat":"37.850131","lng":"140.523257"},{"town":"字仮屋","lat":"37.840572","lng":"140.520770"},{"town":"字六角","lat":"37.838573","lng":"140.516169"},{"town":"字新和町","lat":"37.840369","lng":"140.516577"},{"town":"字藪内","lat":"37.838792","lng":"140.513263"},{"town":"字下釜","lat":"37.841023","lng":"140.522451"},{"town":"字庫場","lat":"37.840582","lng":"140.519544"},{"town":"字陣屋","lat":"37.842897","lng":"140.520085"},{"town":"字舘","lat":"37.844711","lng":"140.521860"},{"town":"字沢","lat":"37.845742","lng":"140.520037"},{"town":"字町裏","lat":"37.848626","lng":"140.519983"},{"town":"字堰合","lat":"37.850375","lng":"140.520978"},{"town":"字南町","lat":"37.840745","lng":"140.518258"},{"town":"字新吉町二丁目","lat":"37.841864","lng":"140.516261"},{"town":"字道場前","lat":"37.843001","lng":"140.517574"},{"town":"字新吉町一丁目","lat":"37.842790","lng":"140.516288"},{"town":"字寺坂二","lat":"37.842947","lng":"140.516829"},{"town":"字寺坂一","lat":"37.842040","lng":"140.515311"},{"town":"字諏訪","lat":"37.841113","lng":"140.513736"},{"town":"字本町","lat":"37.845131","lng":"140.518524"},{"town":"字桑島三","lat":"37.845667","lng":"140.516578"},{"town":"字西町","lat":"37.843906","lng":"140.516127"},{"town":"字新町","lat":"37.843041","lng":"140.513865"},{"town":"字桑島四","lat":"37.845311","lng":"140.514407"},{"town":"字桑島二","lat":"37.848323","lng":"140.516568"},{"town":"字北町","lat":"37.848043","lng":"140.518457"},{"town":"字東大隅","lat":"37.850096","lng":"140.516431"},{"town":"字桑島一","lat":"37.847568","lng":"140.514817"},{"town":"字桑島五","lat":"37.847562","lng":"140.512398"},{"town":"字西大隅","lat":"37.850139","lng":"140.514850"},{"town":"字芝堤","lat":"37.852097","lng":"140.515294"},{"town":"字田植","lat":"37.837388","lng":"140.509154"},{"town":"大字伊達崎","lat":"37.849496","lng":"140.553922"},{"town":"大字下郡　","lat":"37.850544","lng":"140.537474"},{"town":"字東段","lat":"37.852038","lng":"140.519976"},{"town":"字西段","lat":"37.852150","lng":"140.516844"},{"town":"字上町","lat":"37.851561","lng":"140.518358"},{"town":"大字谷地","lat":"37.860902","lng":"140.530714"},{"town":"大字万正寺","lat":"37.848263","lng":"140.508320"},{"town":"大字上郡常水","lat":"37.852741","lng":"140.524792"},{"town":"大字下郡新田","lat":"37.851477","lng":"140.531754"}]