[{"town":"大字泉田","lat":"37.887465","lng":"140.505805"},{"town":"大字小坂","lat":"37.895471","lng":"140.514199"},{"town":"大字貝田","lat":"37.908375","lng":"140.571341"},{"town":"新内谷","lat":"37.887932","lng":"140.531114"},{"town":"新鳥取","lat":"37.889547","lng":"140.527429"},{"town":"小坂南","lat":"37.887062","lng":"140.528709"},{"town":"新小坂","lat":"37.883964","lng":"140.526863"},{"town":"板橋南","lat":"37.874912","lng":"140.536012"},{"town":"新泉田","lat":"37.879485","lng":"140.523331"},{"town":"大字川内","lat":"37.869889","lng":"140.587413"},{"town":"大字徳江","lat":"37.863143","lng":"140.566599"},{"town":"大字塚野目","lat":"37.867270","lng":"140.547091"},{"town":"大字藤田","lat":"37.875182","lng":"140.548986"},{"town":"大字西大枝","lat":"37.876228","lng":"140.583523"},{"town":"大字森山","lat":"37.877988","lng":"140.564235"},{"town":"大字大木戸","lat":"37.891164","lng":"140.569921"},{"town":"大字山崎","lat":"37.881755","lng":"140.544281"},{"town":"大字光明寺","lat":"37.897151","lng":"140.587910"},{"town":"大字高城","lat":"37.890011","lng":"140.579239"},{"town":"大字石母田","lat":"37.896128","lng":"140.554396"},{"town":"大字内谷","lat":"37.895356","lng":"140.536674"},{"town":"大字鳥取","lat":"37.899312","lng":"140.523906"}]