[{"town":"原町区江井","lat":"37.589291","lng":"141.001775"},{"town":"小高区南小高","lat":"37.562081","lng":"140.998007"},{"town":"小高区下浦","lat":"37.514172","lng":"141.008643"},{"town":"小高区行津","lat":"37.519193","lng":"141.000609"},{"town":"小高区水谷","lat":"37.537860","lng":"140.994366"},{"town":"小高区蛯沢","lat":"37.534095","lng":"141.009989"},{"town":"小高区耳谷","lat":"37.530407","lng":"140.982528"},{"town":"小高区泉沢","lat":"37.544034","lng":"140.990495"},{"town":"小高区福岡","lat":"37.553860","lng":"141.012181"},{"town":"小高区岡田","lat":"37.555973","lng":"140.999510"},{"town":"小高区東町三丁目","lat":"37.566365","lng":"140.995230"},{"town":"原町区小木迫","lat":"37.580961","lng":"140.984245"},{"town":"小高区大井","lat":"37.568432","lng":"141.003505"},{"town":"小高区女場","lat":"37.542618","lng":"141.009379"},{"town":"原町区","lat":"37.607693","lng":"140.861605"},{"town":"原町区小浜","lat":"37.595149","lng":"141.019696"},{"town":"原町区下江井","lat":"37.584894","lng":"141.012499"},{"town":"原町区金沢","lat":"37.668523","lng":"141.001881"},{"town":"原町区片倉","lat":"37.579884","lng":"140.890265"},{"town":"原町区馬場","lat":"37.597467","lng":"140.896152"},{"town":"小高区羽倉","lat":"37.582438","lng":"140.928592"},{"town":"小高区北鳩原","lat":"37.580810","lng":"140.954059"},{"town":"原町区鶴谷","lat":"37.591089","lng":"140.963734"},{"town":"原町区高","lat":"37.601467","lng":"140.994279"},{"town":"原町区大甕","lat":"37.605746","lng":"141.004740"},{"town":"原町区雫","lat":"37.610182","lng":"141.018326"},{"town":"原町区北原","lat":"37.625217","lng":"140.990211"},{"town":"原町区萱浜","lat":"37.625583","lng":"141.011417"},{"town":"原町区上渋佐","lat":"37.639165","lng":"141.000142"},{"town":"原町区泉","lat":"37.647555","lng":"141.008519"},{"town":"原町区北泉","lat":"37.655027","lng":"141.012635"},{"town":"原町区高倉","lat":"37.639266","lng":"140.874838"},{"town":"原町区大原","lat":"37.668838","lng":"140.886108"},{"town":"原町区深野","lat":"37.670799","lng":"140.925791"},{"town":"原町区上北高平","lat":"37.665641","lng":"140.959771"},{"town":"鹿島区塩崎","lat":"37.680302","lng":"140.959294"},{"town":"鹿島区川子","lat":"37.674973","lng":"140.978601"},{"town":"鹿島区大内","lat":"37.679893","lng":"140.993622"},{"town":"鹿島区南右田","lat":"37.689909","lng":"141.000074"},{"town":"鹿島区北右田","lat":"37.699958","lng":"140.988944"},{"town":"鹿島区南海老","lat":"37.705047","lng":"141.004014"},{"town":"鹿島区北海老","lat":"37.713583","lng":"140.996872"},{"town":"鹿島区北屋形","lat":"37.724201","lng":"140.988520"},{"town":"鹿島区上栃窪","lat":"37.721817","lng":"140.864286"},{"town":"鹿島区橲原","lat":"37.690990","lng":"140.874112"},{"town":"小高区浦尻","lat":"37.519978","lng":"141.025702"},{"town":"小高区井田川","lat":"37.527063","lng":"141.019563"},{"town":"小高区角部内","lat":"37.541317","lng":"141.021660"},{"town":"小高区村上","lat":"37.560305","lng":"141.024897"},{"town":"原町区小沢","lat":"37.579969","lng":"141.021836"},{"town":"小高区塚原","lat":"37.568079","lng":"141.017892"},{"town":"原町区堤谷","lat":"37.578793","lng":"141.006985"},{"town":"小高区上浦","lat":"37.518670","lng":"140.986678"},{"town":"小高区神山","lat":"37.525746","lng":"140.962488"},{"town":"小高区上根沢","lat":"37.540663","lng":"140.964530"},{"town":"小高区大田和","lat":"37.545552","lng":"140.949250"},{"town":"小高区川房","lat":"37.530651","lng":"140.917016"},{"town":"小高区南町二丁目","lat":"37.559615","lng":"140.995290"},{"town":"小高区東町二丁目","lat":"37.564401","lng":"140.994868"},{"town":"小高区南町一丁目","lat":"37.560318","lng":"140.993184"},{"town":"小高区東町一丁目","lat":"37.562751","lng":"140.994589"},{"town":"小高区田町二丁目","lat":"37.561460","lng":"140.991352"},{"town":"小高区田町一丁目","lat":"37.561675","lng":"140.989555"},{"town":"小高区本町一丁目","lat":"37.563508","lng":"140.992206"},{"town":"小高区本町二丁目","lat":"37.565889","lng":"140.992737"},{"town":"小高区大町一丁目","lat":"37.563977","lng":"140.990098"},{"town":"小高区大町二丁目","lat":"37.565914","lng":"140.990817"},{"town":"小高区仲町一丁目","lat":"37.564418","lng":"140.987879"},{"town":"小高区仲町二丁目","lat":"37.566295","lng":"140.988579"},{"town":"小高区関場二丁目","lat":"37.560749","lng":"140.986151"},{"town":"小高区関場一丁目","lat":"37.562352","lng":"140.986502"},{"town":"小高区吉名","lat":"37.551891","lng":"140.985261"},{"town":"小高区西町二丁目","lat":"37.561476","lng":"140.981823"},{"town":"小高区藤木二丁目","lat":"37.561320","lng":"140.979825"},{"town":"小高区西町一丁目","lat":"37.563731","lng":"140.983863"},{"town":"小高区上町二丁目","lat":"37.566561","lng":"140.985638"},{"town":"小高区上町一丁目","lat":"37.565050","lng":"140.985274"},{"town":"小高区藤木一丁目","lat":"37.563987","lng":"140.980054"},{"town":"小高区小屋木","lat":"37.548760","lng":"140.963288"},{"town":"小高区飯崎","lat":"37.556849","lng":"140.960389"},{"town":"小高区小高","lat":"37.570138","lng":"140.987414"},{"town":"小高区片草","lat":"37.575768","lng":"140.972786"},{"town":"小高区小谷","lat":"37.568818","lng":"140.963589"},{"town":"小高区南鳩原","lat":"37.572733","lng":"140.952710"},{"town":"小高区大富","lat":"37.566297","lng":"140.923872"},{"town":"原町区米々沢","lat":"37.597160","lng":"141.006329"},{"town":"原町区下渋佐","lat":"37.637157","lng":"141.016175"},{"town":"原町区益田","lat":"37.602733","lng":"140.976722"},{"town":"原町区矢川原","lat":"37.598711","lng":"140.949785"},{"town":"原町区上太田","lat":"37.604649","lng":"140.950551"},{"town":"原町区下太田","lat":"37.615478","lng":"140.985105"},{"town":"原町区日の出町","lat":"37.631897","lng":"140.986938"},{"town":"原町区青葉町三丁目","lat":"37.631118","lng":"140.976987"},{"town":"原町区青葉町二丁目","lat":"37.632050","lng":"140.974077"},{"town":"原町区青葉町四丁目","lat":"37.628565","lng":"140.974078"},{"town":"原町区二見町三丁目","lat":"37.632958","lng":"140.970477"},{"town":"原町区二見町四丁目","lat":"37.629417","lng":"140.967339"},{"town":"原町区二見町二丁目","lat":"37.634268","lng":"140.968940"},{"town":"原町区二見町一丁目","lat":"37.634293","lng":"140.965855"},{"town":"原町区本陣前二丁目","lat":"37.621778","lng":"140.952748"},{"town":"原町区橋本町四丁目","lat":"37.626665","lng":"140.961040"},{"town":"原町区牛来","lat":"37.621756","lng":"140.969409"},{"town":"原町区中太田","lat":"37.614875","lng":"140.962063"},{"town":"原町区橋本町三丁目","lat":"37.629304","lng":"140.961259"},{"town":"原町区本陣前一丁目","lat":"37.624322","lng":"140.954700"},{"town":"原町区南町四丁目","lat":"37.627878","lng":"140.956750"},{"town":"原町区橋本町二丁目","lat":"37.631893","lng":"140.962628"},{"town":"原町区橋本町一丁目","lat":"37.634833","lng":"140.962663"},{"town":"原町区南町三丁目","lat":"37.631930","lng":"140.957206"},{"town":"原町区南町二丁目","lat":"37.634956","lng":"140.958008"},{"town":"原町区国見町二丁目","lat":"37.627590","lng":"140.953142"},{"town":"原町区国見町一丁目","lat":"37.631560","lng":"140.954308"},{"town":"原町区国見町三丁目","lat":"37.626462","lng":"140.949192"},{"town":"原町区上町一丁目","lat":"37.632195","lng":"140.951995"},{"town":"原町区本陣前三丁目","lat":"37.619139","lng":"140.949984"},{"town":"原町区上町三丁目","lat":"37.628346","lng":"140.947879"},{"town":"原町区上町二丁目","lat":"37.631586","lng":"140.948241"},{"town":"原町区押釜","lat":"37.625126","lng":"140.916501"},{"town":"原町区高見町二丁目","lat":"37.636154","lng":"140.985022"},{"town":"原町区青葉町一丁目","lat":"37.633384","lng":"140.978526"},{"town":"原町区桜井町一丁目","lat":"37.637854","lng":"140.978526"},{"town":"原町区高見町一丁目","lat":"37.640178","lng":"140.986292"},{"town":"原町区桜井町二丁目","lat":"37.640502","lng":"140.979359"},{"town":"原町区下高平","lat":"37.646395","lng":"140.987726"},{"town":"原町区旭町四丁目","lat":"37.635440","lng":"140.972774"},{"town":"原町区旭町二丁目","lat":"37.637694","lng":"140.970344"},{"town":"原町区錦町一丁目","lat":"37.638598","lng":"140.973016"},{"town":"原町区旭町三丁目","lat":"37.635887","lng":"140.969179"},{"town":"原町区旭町一丁目","lat":"37.637781","lng":"140.967183"},{"town":"原町区大町三丁目","lat":"37.639640","lng":"140.968021"},{"town":"原町区栄町三丁目","lat":"37.637125","lng":"140.964763"},{"town":"原町区栄町二丁目","lat":"37.637586","lng":"140.962338"},{"town":"原町区大町二丁目","lat":"37.640047","lng":"140.963967"},{"town":"原町区錦町二丁目","lat":"37.641953","lng":"140.970575"},{"town":"原町区東町三丁目","lat":"37.642559","lng":"140.966199"},{"town":"原町区錦町三丁目","lat":"37.644106","lng":"140.969025"},{"town":"原町区東町二丁目","lat":"37.642680","lng":"140.963527"},{"town":"原町区栄町一丁目","lat":"37.637707","lng":"140.960584"},{"town":"原町区大町一丁目","lat":"37.640097","lng":"140.961261"},{"town":"原町区南町一丁目","lat":"37.637526","lng":"140.958463"},{"town":"原町区本町一丁目","lat":"37.639380","lng":"140.958306"},{"town":"原町区三島町一丁目","lat":"37.635717","lng":"140.954885"},{"town":"原町区三島町二丁目","lat":"37.639958","lng":"140.954245"},{"town":"原町区西町二丁目","lat":"37.635228","lng":"140.951036"},{"town":"原町区西町一丁目","lat":"37.637432","lng":"140.949918"},{"town":"原町区仲町二丁目","lat":"37.639479","lng":"140.949828"},{"town":"原町区東町一丁目","lat":"37.642871","lng":"140.961295"},{"town":"原町区本町二丁目","lat":"37.641816","lng":"140.958653"},{"town":"原町区本町三丁目","lat":"37.644178","lng":"140.958252"},{"town":"原町区三島町三丁目","lat":"37.642832","lng":"140.955544"},{"town":"原町区小川町","lat":"37.647397","lng":"140.959862"},{"town":"原町区北町","lat":"37.646352","lng":"140.951941"},{"town":"原町区西町三丁目","lat":"37.633610","lng":"140.945553"},{"town":"原町区仲町一丁目","lat":"37.641891","lng":"140.949640"},{"town":"原町区仲町三丁目","lat":"37.639405","lng":"140.946949"},{"town":"原町区牛越","lat":"37.642742","lng":"140.944134"},{"town":"原町区大木戸","lat":"37.624932","lng":"140.940985"},{"town":"原町区石神","lat":"37.639941","lng":"140.922216"},{"town":"原町区下北高平","lat":"37.655430","lng":"140.987920"},{"town":"原町区上高平","lat":"37.649823","lng":"140.965432"},{"town":"原町区北新田","lat":"37.657472","lng":"140.952889"},{"town":"原町区長野","lat":"37.650936","lng":"140.939193"},{"town":"原町区北長野","lat":"37.656016","lng":"140.938293"},{"town":"原町区信田沢","lat":"37.650886","lng":"140.919931"},{"town":"原町区大谷","lat":"37.649336","lng":"140.898677"},{"town":"鹿島区烏崎","lat":"37.678957","lng":"141.006918"},{"town":"鹿島区西町三丁目","lat":"37.709897","lng":"140.958760"},{"town":"鹿島区あさひ","lat":"37.699529","lng":"140.970642"},{"town":"鹿島区小島田","lat":"37.690456","lng":"140.984439"},{"town":"鹿島区江垂","lat":"37.691004","lng":"140.969110"},{"town":"鹿島区小池","lat":"37.691800","lng":"140.926931"},{"town":"鹿島区西町一丁目","lat":"37.703485","lng":"140.964824"},{"town":"鹿島区南屋形","lat":"37.712483","lng":"140.973597"},{"town":"鹿島区西町二丁目","lat":"37.707061","lng":"140.962000"},{"town":"鹿島区鹿島","lat":"37.701819","lng":"140.974803"},{"town":"鹿島区寺内","lat":"37.692757","lng":"140.949607"},{"town":"鹿島区牛河内","lat":"37.706636","lng":"140.950805"},{"town":"鹿島区岡和田","lat":"37.712199","lng":"140.947141"},{"town":"鹿島区小山田","lat":"37.707724","lng":"140.916784"},{"town":"鹿島区永田","lat":"37.718584","lng":"140.961860"},{"town":"鹿島区角川原","lat":"37.725791","lng":"140.934925"},{"town":"鹿島区浮田","lat":"37.716380","lng":"140.927777"},{"town":"鹿島区山下","lat":"37.726044","lng":"140.917477"},{"town":"鹿島区南柚木","lat":"37.730130","lng":"140.967014"},{"town":"鹿島区永渡","lat":"37.734239","lng":"140.949933"},{"town":"鹿島区横手","lat":"37.724582","lng":"140.945957"},{"town":"鹿島区御山","lat":"37.737527","lng":"140.912475"},{"town":"鹿島区栃窪","lat":"37.729758","lng":"140.895778"},{"town":"小高区","lat":"37.555263","lng":"140.893728"},{"town":"小高区金谷","lat":"37.549636","lng":"140.922315"},{"town":"原町区陣ケ崎","lat":"37.613205","lng":"140.944931"}]