[{"town":"大字上浅見川","lat":"37.226901","lng":"140.926015"},{"town":"大字夕筋","lat":"37.189496","lng":"140.991504"},{"town":"大字折木","lat":"37.198650","lng":"140.974400"},{"town":"大字下浅見川","lat":"37.208477","lng":"141.000021"},{"town":"大字下北迫","lat":"37.228363","lng":"141.006765"},{"town":"大字上北迫","lat":"37.232484","lng":"140.970001"},{"town":"広洋台一丁目","lat":"37.230717","lng":"141.000887"},{"town":"広洋台二丁目","lat":"37.229959","lng":"140.999220"},{"town":"中央台二丁目","lat":"37.211329","lng":"140.992768"},{"town":"中央台三丁目","lat":"37.214625","lng":"140.991802"},{"town":"中央台一丁目","lat":"37.212557","lng":"140.991660"}]