[{"town":"大字夫沢","lat":"37.414404","lng":"141.002975"},{"town":"大字熊","lat":"37.389841","lng":"140.991729"},{"town":"大字小入野","lat":"37.400215","lng":"141.005864"},{"town":"大字野上","lat":"37.407287","lng":"140.911520"},{"town":"大字小良浜","lat":"37.377504","lng":"141.022838"},{"town":"大字熊川","lat":"37.386380","lng":"141.024719"},{"town":"大字大川原","lat":"37.387418","lng":"140.928689"},{"town":"大字下野上","lat":"37.405289","lng":"140.974849"}]