[{"town":"大字太田輪","lat":"37.087919","lng":"140.398386"},{"town":"大字小貫","lat":"37.079363","lng":"140.384662"},{"town":"大字滝輪","lat":"37.091750","lng":"140.413999"},{"town":"大字浅川","lat":"37.083091","lng":"140.416720"},{"town":"大字畑田","lat":"37.082193","lng":"140.432836"},{"town":"大字里白石","lat":"37.100370","lng":"140.429465"},{"town":"大字山白石","lat":"37.094309","lng":"140.450091"},{"town":"大字松野入","lat":"37.060728","lng":"140.435652"},{"town":"大字中根","lat":"37.062653","lng":"140.423054"},{"town":"大字大草","lat":"37.039860","lng":"140.438808"},{"town":"大字根岸","lat":"37.063098","lng":"140.419709"},{"town":"大字中里","lat":"37.064572","lng":"140.428563"},{"town":"大字袖山","lat":"37.063056","lng":"140.411288"},{"town":"大字東大畑","lat":"37.075392","lng":"140.423235"},{"town":"大字簑輪","lat":"37.070865","lng":"140.407513"},{"town":"大字染","lat":"37.100526","lng":"140.406778"},{"town":"大字福貴作","lat":"37.114260","lng":"140.422893"}]