[{"town":"御前南五丁目","lat":"37.384863","lng":"140.328639"},{"town":"御前南四丁目","lat":"37.383386","lng":"140.328952"},{"town":"御前南三丁目","lat":"37.381028","lng":"140.329662"},{"town":"御前南二丁目","lat":"37.381483","lng":"140.333184"},{"town":"御前南一丁目","lat":"37.384607","lng":"140.333866"},{"town":"南二丁目","lat":"37.367407","lng":"140.371978"},{"town":"南一丁目","lat":"37.372968","lng":"140.373299"},{"town":"田村町川曲","lat":"37.331662","lng":"140.498014"},{"town":"田村町栃本","lat":"37.292260","lng":"140.495930"},{"town":"田村町糠塚","lat":"37.297194","lng":"140.518569"},{"town":"田村町栃山神","lat":"37.321785","lng":"140.482553"},{"town":"三穂田町下守屋","lat":"37.354567","lng":"140.225219"},{"town":"湖南町三代","lat":"37.356517","lng":"140.115461"},{"town":"中田町中津川","lat":"37.345897","lng":"140.522136"},{"town":"中田町牛縊本郷","lat":"37.378324","lng":"140.496633"},{"town":"中田町下枝","lat":"37.352797","lng":"140.484544"},{"town":"田村町上道渡","lat":"37.330377","lng":"140.471037"},{"town":"田村町下道渡","lat":"37.332523","lng":"140.452484"},{"town":"田村町金沢","lat":"37.340808","lng":"140.441401"},{"town":"田村町東山二丁目","lat":"37.339353","lng":"140.420919"},{"town":"田村町東山一丁目","lat":"37.338921","lng":"140.417099"},{"town":"田村町山中","lat":"37.336165","lng":"140.396716"},{"town":"田村町守山","lat":"37.327226","lng":"140.402652"},{"town":"田村町正直","lat":"37.338725","lng":"140.389906"},{"town":"田村町御代田","lat":"37.338421","lng":"140.381528"},{"town":"富田町","lat":"37.414993","lng":"140.345014"},{"town":"長者一丁目","lat":"37.398158","lng":"140.368247"},{"town":"長者二丁目","lat":"37.401842","lng":"140.370125"},{"town":"桃見台","lat":"37.404332","lng":"140.370182"},{"town":"西ノ内一丁目","lat":"37.406774","lng":"140.371339"},{"town":"麓山二丁目","lat":"37.395209","lng":"140.369985"},{"town":"池ノ台","lat":"37.391687","lng":"140.374447"},{"town":"深沢二丁目","lat":"37.389546","lng":"140.369704"},{"town":"深沢一丁目","lat":"37.388981","lng":"140.372537"},{"town":"七ッ池町","lat":"37.384178","lng":"140.371628"},{"town":"香久池一丁目","lat":"37.380716","lng":"140.372127"},{"town":"富久山町久保田","lat":"37.411007","lng":"140.389378"},{"town":"字川向","lat":"37.372444","lng":"140.371541"},{"town":"字名倉","lat":"37.374815","lng":"140.368364"},{"town":"字城清水","lat":"37.375943","lng":"140.372336"},{"town":"字山崎","lat":"37.380100","lng":"140.362504"},{"town":"香久池二丁目","lat":"37.378597","lng":"140.371476"},{"town":"安積町荒井","lat":"37.371718","lng":"140.358696"},{"town":"笹川三丁目","lat":"37.355191","lng":"140.369940"},{"town":"笹川二丁目","lat":"37.358586","lng":"140.372002"},{"town":"笹川一丁目","lat":"37.362346","lng":"140.373233"},{"town":"田村町徳定","lat":"37.357091","lng":"140.379819"},{"town":"三穂田町鍋山","lat":"37.344831","lng":"140.288691"},{"town":"三穂田町富岡","lat":"37.353940","lng":"140.257724"},{"town":"桜木一丁目","lat":"37.408711","lng":"140.373936"},{"town":"桜木二丁目","lat":"37.410512","lng":"140.369768"},{"town":"逢瀬町河内","lat":"37.426120","lng":"140.260524"},{"town":"湖南町中野","lat":"37.365719","lng":"140.158635"},{"town":"三穂田町山口","lat":"37.371884","lng":"140.262940"},{"town":"逢瀬町多田野","lat":"37.407439","lng":"140.228682"},{"town":"湖南町赤津","lat":"37.379595","lng":"140.062395"},{"town":"湖南町福良","lat":"37.385002","lng":"140.092873"},{"town":"湖南町舟津","lat":"37.404057","lng":"140.117756"},{"town":"舞木町","lat":"37.417371","lng":"140.432196"},{"town":"富久山町南小泉","lat":"37.418370","lng":"140.419466"},{"town":"富久山町福原","lat":"37.424265","lng":"140.401271"},{"town":"片平町","lat":"37.423555","lng":"140.310206"},{"town":"町東三丁目","lat":"37.420900","lng":"140.347879"},{"town":"新屋敷二丁目","lat":"37.418703","lng":"140.354524"},{"town":"町東一丁目","lat":"37.420398","lng":"140.351958"},{"town":"不動前一丁目","lat":"37.420146","lng":"140.357763"},{"town":"名郷田二丁目","lat":"37.418793","lng":"140.360260"},{"town":"八山田二丁目","lat":"37.426773","lng":"140.374520"},{"town":"中ノ目一丁目","lat":"37.420764","lng":"140.333740"},{"town":"富久山町八山田","lat":"37.434042","lng":"140.367910"},{"town":"八山田三丁目","lat":"37.430651","lng":"140.373862"},{"town":"日和田町","lat":"37.447575","lng":"140.386446"},{"town":"喜久田町割田二丁目","lat":"37.469205","lng":"140.369060"},{"town":"熱海町高玉","lat":"37.507567","lng":"140.272169"},{"town":"湖南町浜路","lat":"37.438920","lng":"140.169196"},{"town":"熱海町安子島","lat":"37.478293","lng":"140.233680"},{"town":"熱海町中山","lat":"37.514724","lng":"140.203338"},{"town":"湖南町横沢","lat":"37.419586","lng":"140.153824"},{"town":"湖南町舘","lat":"37.405420","lng":"140.143940"},{"town":"熱海町玉川","lat":"37.498722","lng":"140.311959"},{"town":"熱海町石筵","lat":"37.570606","lng":"140.260121"},{"town":"田村町田母神","lat":"37.300334","lng":"140.540641"},{"town":"田村町谷田川","lat":"37.311855","lng":"140.450385"},{"town":"田村町細田","lat":"37.325411","lng":"140.441288"},{"town":"田村町大供","lat":"37.324651","lng":"140.426774"},{"town":"田村町岩作","lat":"37.321161","lng":"140.413552"},{"town":"中田町柳橋","lat":"37.364313","lng":"140.536467"},{"town":"中田町駒板","lat":"37.385833","lng":"140.522649"},{"town":"中田町木目沢","lat":"37.376092","lng":"140.519499"},{"town":"中田町黒木","lat":"37.381039","lng":"140.505804"},{"town":"昭和二丁目","lat":"37.385828","lng":"140.392068"},{"town":"昭和一丁目","lat":"37.386344","lng":"140.388515"},{"town":"山根町","lat":"37.384156","lng":"140.375485"},{"town":"小原田一丁目","lat":"37.384229","lng":"140.382030"},{"town":"愛宕町","lat":"37.388513","lng":"140.375839"},{"town":"栄町","lat":"37.388307","lng":"140.379740"},{"town":"菱田町","lat":"37.386828","lng":"140.384670"},{"town":"松木町","lat":"37.390003","lng":"140.389803"},{"town":"本町二丁目","lat":"37.388951","lng":"140.382938"},{"town":"本町一丁目","lat":"37.392617","lng":"140.384304"},{"town":"堤下町","lat":"37.391600","lng":"140.379608"},{"town":"堂前町","lat":"37.394998","lng":"140.379647"},{"town":"清水台一丁目","lat":"37.397920","lng":"140.381377"},{"town":"中町","lat":"37.396385","lng":"140.383530"},{"town":"駅前一丁目","lat":"37.396061","lng":"140.386156"},{"town":"麓山一丁目","lat":"37.395010","lng":"140.374559"},{"town":"細沼町","lat":"37.397317","lng":"140.375996"},{"town":"駅前二丁目","lat":"37.399532","lng":"140.387201"},{"town":"字燧田","lat":"37.395915","lng":"140.388308"},{"town":"字東宿","lat":"37.403994","lng":"140.390366"},{"town":"大町一丁目","lat":"37.400208","lng":"140.385251"},{"town":"清水台二丁目","lat":"37.400153","lng":"140.382110"},{"town":"大町二丁目","lat":"37.404100","lng":"140.386739"},{"town":"赤木町","lat":"37.403275","lng":"140.382422"},{"town":"咲田二丁目","lat":"37.403987","lng":"140.378910"},{"town":"咲田一丁目","lat":"37.404746","lng":"140.375340"},{"town":"神明町","lat":"37.401507","lng":"140.376012"},{"town":"虎丸町","lat":"37.399255","lng":"140.375760"},{"town":"緑ケ丘東八丁目","lat":"37.390461","lng":"140.432596"},{"town":"田村町小川","lat":"37.350659","lng":"140.425823"},{"town":"田村町手代木","lat":"37.361402","lng":"140.421009"},{"town":"田村町桜ケ丘二丁目","lat":"37.357392","lng":"140.406292"},{"town":"田村町桜ケ丘一丁目","lat":"37.359543","lng":"140.404317"},{"town":"田村町大善寺","lat":"37.351343","lng":"140.401424"},{"town":"安積町日出山","lat":"37.365868","lng":"140.382970"},{"town":"中田町海老根","lat":"37.361103","lng":"140.470402"},{"town":"緑ケ丘東五丁目","lat":"37.381723","lng":"140.441256"},{"town":"緑ケ丘東四丁目","lat":"37.381469","lng":"140.437941"},{"town":"中田町高倉","lat":"37.367391","lng":"140.439956"},{"town":"緑ケ丘東一丁目","lat":"37.376271","lng":"140.434422"},{"town":"緑ケ丘東二丁目","lat":"37.378480","lng":"140.436305"},{"town":"緑ケ丘東三丁目","lat":"37.381771","lng":"140.435495"},{"town":"緑ケ丘西二丁目","lat":"37.379970","lng":"140.433144"},{"town":"緑ケ丘西三丁目","lat":"37.381858","lng":"140.432915"},{"town":"緑ケ丘東六丁目","lat":"37.384719","lng":"140.438293"},{"town":"緑ケ丘西一丁目","lat":"37.377553","lng":"140.430966"},{"town":"中田町赤沼","lat":"37.372637","lng":"140.423200"},{"town":"田村町上行合","lat":"37.366052","lng":"140.407120"},{"town":"田村町下行合","lat":"37.377149","lng":"140.410017"},{"town":"字船場向","lat":"37.378999","lng":"140.402538"},{"town":"字外河原","lat":"37.376859","lng":"140.400423"},{"town":"字十貫河原","lat":"37.381959","lng":"140.403510"},{"town":"字大河原","lat":"37.374305","lng":"140.401298"},{"town":"字道場","lat":"37.382830","lng":"140.398396"},{"town":"字古川","lat":"37.383771","lng":"140.394782"},{"town":"字石塚","lat":"37.378920","lng":"140.395379"},{"town":"字八作内","lat":"37.376880","lng":"140.386673"},{"town":"田村町金屋","lat":"37.366325","lng":"140.392993"},{"town":"安積町日出山四丁目","lat":"37.369342","lng":"140.381595"},{"town":"安積町日出山三丁目","lat":"37.368710","lng":"140.378022"},{"town":"安積町日出山二丁目","lat":"37.373801","lng":"140.383843"},{"town":"字八木橋","lat":"37.377120","lng":"140.384581"},{"town":"安積町日出山一丁目","lat":"37.374471","lng":"140.380776"},{"town":"小原田二丁目","lat":"37.382399","lng":"140.388181"},{"town":"小原田三丁目","lat":"37.379225","lng":"140.386778"},{"town":"字深田台","lat":"37.373868","lng":"140.376841"},{"town":"小原田五丁目","lat":"37.377324","lng":"140.380436"},{"town":"小原田四丁目","lat":"37.380202","lng":"140.380848"},{"town":"図景一丁目","lat":"37.383877","lng":"140.378443"},{"town":"図景二丁目","lat":"37.378510","lng":"140.376492"},{"town":"中田町上石","lat":"37.381444","lng":"140.475152"},{"town":"荒井町","lat":"37.387382","lng":"140.444256"},{"town":"緑ケ丘西四丁目","lat":"37.388390","lng":"140.432817"},{"town":"緑ケ丘東七丁目","lat":"37.388640","lng":"140.437875"},{"town":"蒲倉町","lat":"37.394024","lng":"140.434426"},{"town":"大平町","lat":"37.383990","lng":"140.422427"},{"town":"あぶくま台二丁目","lat":"37.396555","lng":"140.422452"},{"town":"あぶくま台一丁目","lat":"37.398237","lng":"140.417184"},{"town":"字上野山","lat":"37.388083","lng":"140.408372"},{"town":"水門町","lat":"37.385224","lng":"140.404436"},{"town":"石渕町","lat":"37.388761","lng":"140.402544"},{"town":"横川町","lat":"37.390183","lng":"140.417073"},{"town":"字下舘野","lat":"37.395232","lng":"140.407392"},{"town":"字佐野良","lat":"37.396371","lng":"140.409487"},{"town":"横塚六丁目","lat":"37.391465","lng":"140.404127"},{"town":"横塚五丁目","lat":"37.393562","lng":"140.406202"},{"town":"字古屋敷","lat":"37.396149","lng":"140.403691"},{"town":"字北畑","lat":"37.397150","lng":"140.404034"},{"town":"方八町一丁目","lat":"37.392018","lng":"140.389848"},{"town":"芳賀三丁目","lat":"37.388037","lng":"140.397310"},{"town":"芳賀二丁目","lat":"37.390110","lng":"140.397635"},{"town":"方八町二丁目","lat":"37.392993","lng":"140.392873"},{"town":"芳賀一丁目","lat":"37.392538","lng":"140.397689"},{"town":"横塚一丁目","lat":"37.395336","lng":"140.398875"},{"town":"谷島町","lat":"37.397602","lng":"140.392966"},{"town":"横塚二丁目","lat":"37.398873","lng":"140.402118"},{"town":"白岩町","lat":"37.404915","lng":"140.440563"},{"town":"下白岩町","lat":"37.402582","lng":"140.427486"},{"town":"安原町","lat":"37.399160","lng":"140.411956"},{"town":"阿久津町","lat":"37.407020","lng":"140.418091"},{"town":"向河原町","lat":"37.402610","lng":"140.393205"},{"town":"横塚三丁目","lat":"37.402308","lng":"140.401804"},{"town":"若葉町","lat":"37.406742","lng":"140.380278"},{"town":"町東二丁目","lat":"37.417784","lng":"140.348112"},{"town":"新屋敷一丁目","lat":"37.417824","lng":"140.357439"},{"town":"備前舘二丁目","lat":"37.416748","lng":"140.360714"},{"town":"名郷田一丁目","lat":"37.416498","lng":"140.365100"},{"town":"長者三丁目","lat":"37.401166","lng":"140.366396"},{"town":"緑町","lat":"37.402763","lng":"140.364225"},{"town":"朝日一丁目","lat":"37.401549","lng":"140.360736"},{"town":"朝日二丁目","lat":"37.404337","lng":"140.360030"},{"town":"朝日三丁目","lat":"37.406672","lng":"140.359435"},{"town":"鶴見坦二丁目","lat":"37.391467","lng":"140.364924"},{"town":"鶴見坦三丁目","lat":"37.391604","lng":"140.359699"},{"town":"豊田町","lat":"37.397568","lng":"140.366191"},{"town":"鶴見坦一丁目","lat":"37.394522","lng":"140.365187"},{"town":"字五百渕西","lat":"37.384962","lng":"140.356292"},{"town":"字台東","lat":"37.383752","lng":"140.358701"},{"town":"字五百渕山","lat":"37.384151","lng":"140.357807"},{"town":"菜根四丁目","lat":"37.383622","lng":"140.364336"},{"town":"菜根一丁目","lat":"37.388778","lng":"140.364474"},{"town":"菜根二丁目","lat":"37.388347","lng":"140.359657"},{"town":"字菜根屋敷","lat":"37.384062","lng":"140.359585"},{"town":"菜根五丁目","lat":"37.384433","lng":"140.361348"},{"town":"開成四丁目","lat":"37.389255","lng":"140.356352"},{"town":"字桑野清水台","lat":"37.385227","lng":"140.357083"},{"town":"開成二丁目","lat":"37.394924","lng":"140.358513"},{"town":"開成一丁目","lat":"37.397814","lng":"140.358581"},{"town":"開成三丁目","lat":"37.395470","lng":"140.352535"},{"town":"桑野一丁目","lat":"37.400148","lng":"140.355410"},{"town":"桑野二丁目","lat":"37.403396","lng":"140.354537"},{"town":"桑野三丁目","lat":"37.406016","lng":"140.353811"},{"town":"安積町大森町","lat":"37.344165","lng":"140.344928"},{"town":"安積町吉田二丁目","lat":"37.346698","lng":"140.343198"},{"town":"安積町牛庭三丁目","lat":"37.344725","lng":"140.336476"},{"town":"安積町牛庭一丁目","lat":"37.349146","lng":"140.335380"},{"town":"安積町牛庭四丁目","lat":"37.343802","lng":"140.329221"},{"town":"安積町牛庭五丁目","lat":"37.346827","lng":"140.325460"},{"town":"安積町牛庭六丁目","lat":"37.342926","lng":"140.320506"},{"town":"安積町牛庭","lat":"37.347013","lng":"140.316381"},{"town":"三穂田町野田","lat":"37.345506","lng":"140.303978"},{"town":"安積四丁目","lat":"37.352891","lng":"140.364022"},{"town":"安積三丁目","lat":"37.356325","lng":"140.365399"},{"town":"安積二丁目","lat":"37.360711","lng":"140.366975"},{"town":"安積一丁目","lat":"37.363623","lng":"140.368245"},{"town":"安積町長久保五丁目","lat":"37.353308","lng":"140.359565"},{"town":"安積町南長久保二丁目","lat":"37.353226","lng":"140.356537"},{"town":"安積町南長久保一丁目","lat":"37.356370","lng":"140.355569"},{"town":"安積町長久保三丁目","lat":"37.356734","lng":"140.360280"},{"town":"安積町長久保四丁目","lat":"37.358526","lng":"140.356627"},{"town":"安積町長久保一丁目","lat":"37.361615","lng":"140.361273"},{"town":"安積町長久保二丁目","lat":"37.360450","lng":"140.356667"},{"town":"成山町","lat":"37.364662","lng":"140.361460"},{"town":"安積町牛庭二丁目","lat":"37.350148","lng":"140.329153"},{"town":"安積町成田一丁目","lat":"37.363401","lng":"140.329342"},{"town":"三穂田町川田四丁目","lat":"37.356825","lng":"140.319076"},{"town":"三穂田町川田三丁目","lat":"37.359665","lng":"140.326696"},{"town":"三穂田町川田","lat":"37.354652","lng":"140.318234"},{"town":"三穂田町駒屋三丁目","lat":"37.362183","lng":"140.305162"},{"town":"三穂田町川田二丁目","lat":"37.365465","lng":"140.323277"},{"town":"三穂田町川田一丁目","lat":"37.364740","lng":"140.309087"},{"town":"三穂田町駒屋二丁目","lat":"37.366802","lng":"140.299146"},{"town":"三穂田町八幡","lat":"37.361684","lng":"140.289968"},{"town":"字賀庄","lat":"37.371613","lng":"140.368108"},{"town":"菜根三丁目","lat":"37.382842","lng":"140.367340"},{"town":"久留米一丁目","lat":"37.376386","lng":"140.362908"},{"town":"久留米二丁目","lat":"37.378062","lng":"140.359152"},{"town":"久留米三丁目","lat":"37.377440","lng":"140.354998"},{"town":"久留米五丁目","lat":"37.376814","lng":"140.350889"},{"town":"久留米四丁目","lat":"37.380316","lng":"140.352852"},{"town":"久留米六丁目","lat":"37.378906","lng":"140.346950"},{"town":"安積町成田","lat":"37.360369","lng":"140.340200"},{"town":"三穂田町駒屋一丁目","lat":"37.367200","lng":"140.303520"},{"town":"三穂田町駒屋","lat":"37.361290","lng":"140.300664"},{"town":"三穂田町大谷","lat":"37.373675","lng":"140.287215"},{"town":"開成六丁目","lat":"37.387820","lng":"140.351511"},{"town":"開成五丁目","lat":"37.390179","lng":"140.351870"},{"town":"台新二丁目","lat":"37.389391","lng":"140.344831"},{"town":"台新一丁目","lat":"37.393652","lng":"140.345112"},{"town":"鳴神二丁目","lat":"37.393421","lng":"140.338577"},{"town":"島二丁目","lat":"37.396607","lng":"140.346120"},{"town":"島一丁目","lat":"37.399665","lng":"140.347051"},{"town":"亀田一丁目","lat":"37.402451","lng":"140.347008"},{"town":"鳴神一丁目","lat":"37.396925","lng":"140.339503"},{"town":"中野一丁目","lat":"37.392820","lng":"140.332378"},{"town":"堤二丁目","lat":"37.397356","lng":"140.335866"},{"town":"堤一丁目","lat":"37.399453","lng":"140.337991"},{"town":"柏山町","lat":"37.400963","lng":"140.339569"},{"town":"堤三丁目","lat":"37.396953","lng":"140.332280"},{"town":"土瓜二丁目","lat":"37.401610","lng":"140.330308"},{"town":"土瓜一丁目","lat":"37.400856","lng":"140.332045"},{"town":"西ノ内二丁目","lat":"37.406403","lng":"140.365076"},{"town":"並木一丁目","lat":"37.409843","lng":"140.363497"},{"town":"備前舘一丁目","lat":"37.415515","lng":"140.364311"},{"town":"並木二丁目","lat":"37.413083","lng":"140.364856"},{"town":"並木三丁目","lat":"37.408753","lng":"140.358956"},{"town":"並木四丁目","lat":"37.410680","lng":"140.358721"},{"town":"並木五丁目","lat":"37.413364","lng":"140.359023"},{"town":"字原中","lat":"37.411452","lng":"140.351777"},{"town":"桑野四丁目","lat":"37.408028","lng":"140.353489"},{"town":"桑野五丁目","lat":"37.410859","lng":"140.354301"},{"town":"亀田二丁目","lat":"37.405946","lng":"140.346699"},{"town":"字亀田西","lat":"37.403520","lng":"140.342372"},{"town":"字下亀田","lat":"37.409586","lng":"140.349058"},{"town":"希望ヶ丘","lat":"37.409406","lng":"140.340675"},{"town":"字上亀田","lat":"37.409288","lng":"140.344905"},{"town":"うねめ町","lat":"37.413006","lng":"140.335671"},{"town":"湖南町馬入新田","lat":"37.363363","lng":"140.082573"},{"town":"富久山町北小泉","lat":"37.426451","lng":"140.418996"},{"town":"八山田七丁目","lat":"37.421589","lng":"140.383243"},{"town":"八山田一丁目","lat":"37.424115","lng":"140.374920"},{"town":"八山田六丁目","lat":"37.424638","lng":"140.380253"},{"town":"八山田五丁目","lat":"37.427673","lng":"140.380279"},{"town":"八山田四丁目","lat":"37.430645","lng":"140.379265"},{"town":"西田町木村","lat":"37.443383","lng":"140.445444"},{"town":"西田町芹沢","lat":"37.440803","lng":"140.429278"},{"town":"富久山町堂坂","lat":"37.431714","lng":"140.422737"},{"town":"西田町根木屋","lat":"37.431953","lng":"140.438726"},{"town":"西田町大田","lat":"37.441693","lng":"140.461645"},{"town":"西田町高柴","lat":"37.459122","lng":"140.464105"},{"town":"日和田町八丁目","lat":"37.443857","lng":"140.414415"},{"town":"日和田町梅沢","lat":"37.460091","lng":"140.409404"},{"town":"西田町板橋","lat":"37.467329","lng":"140.459387"},{"town":"西田町土棚","lat":"37.471285","lng":"140.450277"},{"town":"西田町阿広木一丁目","lat":"37.471521","lng":"140.424468"},{"town":"西田町大網一丁目","lat":"37.468585","lng":"140.416824"},{"town":"西田町丹伊田","lat":"37.476778","lng":"140.470721"},{"town":"喜久田町卸三丁目","lat":"37.441181","lng":"140.345354"},{"town":"喜久田町卸二丁目","lat":"37.437543","lng":"140.342601"},{"town":"喜久田町卸一丁目","lat":"37.442553","lng":"140.339980"},{"town":"喜久田町","lat":"37.434100","lng":"140.341948"},{"town":"待池台二丁目","lat":"37.449658","lng":"140.310171"},{"town":"待池台一丁目","lat":"37.444529","lng":"140.306807"},{"town":"喜久田町赤坂一丁目","lat":"37.462013","lng":"140.362042"},{"town":"喜久田町赤坂二丁目","lat":"37.466150","lng":"140.363077"},{"town":"喜久田町坪沢四丁目","lat":"37.464303","lng":"140.357890"},{"town":"喜久田町前田沢二丁目","lat":"37.466680","lng":"140.358960"},{"town":"喜久田町早稲原","lat":"37.450731","lng":"140.357093"},{"town":"喜久田町坪沢三丁目","lat":"37.461428","lng":"140.355591"},{"town":"喜久田町坪沢二丁目","lat":"37.464040","lng":"140.352083"},{"town":"喜久田町原二丁目","lat":"37.465785","lng":"140.351832"},{"town":"喜久田町坪沢一丁目","lat":"37.462951","lng":"140.347047"},{"town":"熱海町下伊豆島","lat":"37.451523","lng":"140.321276"},{"town":"熱海町上伊豆島","lat":"37.459571","lng":"140.293889"},{"town":"逢瀬町夏出","lat":"37.449283","lng":"140.271873"},{"town":"熱海町長橋","lat":"37.456678","lng":"140.277686"},{"town":"喜久田町割田一丁目","lat":"37.469961","lng":"140.364413"},{"town":"喜久田町前田沢一丁目","lat":"37.469487","lng":"140.357862"},{"town":"喜久田町原三丁目","lat":"37.468602","lng":"140.352216"},{"town":"喜久田町原一丁目","lat":"37.467362","lng":"140.347776"},{"town":"喜久田町前田沢","lat":"37.471461","lng":"140.343280"},{"town":"喜久田町堀之内","lat":"37.457487","lng":"140.336373"},{"town":"熱海町熱海二丁目","lat":"37.480369","lng":"140.274466"},{"town":"熱海町熱海一丁目","lat":"37.482354","lng":"140.273503"},{"town":"熱海町熱海三丁目","lat":"37.479624","lng":"140.271843"},{"town":"熱海町熱海四丁目","lat":"37.483280","lng":"140.266820"},{"town":"熱海町熱海六丁目","lat":"37.486949","lng":"140.274556"},{"town":"熱海町熱海五丁目","lat":"37.489117","lng":"140.260135"},{"town":"字榧ノ木","lat":"37.387134","lng":"140.396806"},{"town":"字桑野北町","lat":"37.407311","lng":"140.349974"},{"town":"字大名艮","lat":"37.403862","lng":"140.389490"},{"town":"字小関谷地","lat":"37.408057","lng":"140.348558"},{"town":"鳴神三丁目","lat":"37.393772","lng":"140.335168"},{"town":"静町","lat":"37.388726","lng":"140.337047"},{"town":"谷地本町","lat":"37.388196","lng":"140.332497"},{"town":"中野二丁目","lat":"37.389908","lng":"140.330803"},{"town":"静西一丁目","lat":"37.387840","lng":"140.330187"},{"town":"大槻町","lat":"37.388058","lng":"140.308032"},{"town":"静西二丁目","lat":"37.388923","lng":"140.327016"},{"town":"日和田町高倉","lat":"37.473640","lng":"140.394095"},{"town":"西田町大網三丁目","lat":"37.475497","lng":"140.418406"},{"town":"西田町大網二丁目","lat":"37.474079","lng":"140.414381"},{"town":"西田町鬼生田","lat":"37.471043","lng":"140.435019"},{"town":"西田町三町目","lat":"37.452639","lng":"140.441902"},{"town":"安積町笹川","lat":"37.347930","lng":"140.360523"},{"town":"御前南六丁目","lat":"37.386112","lng":"140.328724"},{"town":"安積荒井本町","lat":"37.366131","lng":"140.368158"},{"town":"巳六段","lat":"37.371622","lng":"140.352052"},{"town":"安積荒井一丁目","lat":"37.369441","lng":"140.354146"},{"town":"安積荒井二丁目","lat":"37.368235","lng":"140.360141"},{"town":"安積荒井三丁目","lat":"37.369785","lng":"140.360598"},{"town":"安積北井一丁目","lat":"37.370904","lng":"140.355675"},{"town":"安積北井二丁目","lat":"37.372665","lng":"140.363307"},{"town":"富田東一丁目","lat":"37.419231","lng":"140.364972"},{"town":"富田東二丁目","lat":"37.422715","lng":"140.364910"},{"town":"富田東三丁目","lat":"37.425426","lng":"140.365829"},{"town":"富田東四丁目","lat":"37.423916","lng":"140.368619"},{"town":"富田東五丁目","lat":"37.422790","lng":"140.372547"},{"town":"富田東六丁目","lat":"37.421539","lng":"140.375540"},{"town":"八山田西五丁目","lat":"37.427041","lng":"140.370393"},{"town":"上伊豆島一丁目","lat":"37.461310","lng":"140.300903"},{"town":"八山田西二丁目","lat":"37.429892","lng":"140.359712"},{"town":"八山田西四丁目","lat":"37.429747","lng":"140.368989"},{"town":"八山田西三丁目","lat":"37.428126","lng":"140.365435"},{"town":"八山田西一丁目","lat":"37.427706","lng":"140.359849"}]