[{"town":"三良坂町大谷","koaza":"","lat":34.77434,"lng":133.020423},{"town":"三良坂町棗原","koaza":"","lat":34.767283,"lng":133.008849},{"town":"青河町","koaza":"","lat":34.754748,"lng":132.82285},{"town":"秋町","koaza":"","lat":34.7482,"lng":132.794462},{"town":"穴笠町","koaza":"","lat":34.839631,"lng":132.878756},{"town":"有原町","koaza":"","lat":34.696865,"lng":132.870972},{"town":"粟屋町","koaza":"","lat":34.783424,"lng":132.803928},{"town":"石原町","koaza":"","lat":34.723477,"lng":132.909372},{"town":"糸井町","koaza":"","lat":34.743268,"lng":132.891045},{"town":"上田町","koaza":"","lat":34.698043,"lng":132.919886},{"town":"後山町","koaza":"","lat":34.834745,"lng":132.89722},{"town":"海渡町","koaza":"","lat":34.732301,"lng":132.893051},{"town":"江田川之内町","koaza":"","lat":34.780806,"lng":132.907763},{"town":"大田幸町","koaza":"","lat":34.746474,"lng":132.929555},{"town":"小文町","koaza":"","lat":34.833757,"lng":132.84869},{"town":"上川立町","koaza":"","lat":34.711713,"lng":132.786871},{"town":"上志和地町","koaza":"","lat":34.731485,"lng":132.796235},{"town":"吉舎町雲通","koaza":"","lat":34.688371,"lng":133.002479},{"town":"吉舎町海田原","koaza":"","lat":34.737719,"lng":132.977859},{"town":"吉舎町上安田","koaza":"","lat":34.73903,"lng":133.05231},{"town":"吉舎町吉舎","koaza":"","lat":34.710719,"lng":133.012109},{"town":"吉舎町吉舎川之内","koaza":"","lat":34.697426,"lng":132.976206},{"town":"吉舎町清綱","koaza":"","lat":34.704243,"lng":132.993503},{"town":"吉舎町敷地","koaza":"","lat":34.739441,"lng":132.958459},{"town":"吉舎町知和","koaza":"","lat":34.754151,"lng":133.025062},{"town":"吉舎町辻","koaza":"","lat":34.68132,"lng":132.96965},{"town":"吉舎町徳市","koaza":"","lat":34.664341,"lng":132.954988},{"town":"吉舎町檜","koaza":"","lat":34.704647,"lng":132.96099},{"town":"吉舎町丸田","koaza":"","lat":34.6961,"lng":132.990443},{"town":"吉舎町三玉","koaza":"","lat":34.728218,"lng":133.003244},{"town":"吉舎町矢井","koaza":"","lat":34.725126,"lng":132.974814},{"town":"吉舎町安田","koaza":"","lat":34.733364,"lng":133.030936},{"town":"吉舎町矢野地","koaza":"","lat":34.742949,"lng":132.992934},{"town":"木乗町","koaza":"","lat":34.738525,"lng":132.916173},{"town":"君田町石原","koaza":"","lat":34.888997,"lng":132.825803},{"town":"君田町泉吉田","koaza":"","lat":34.905889,"lng":132.863738},{"town":"君田町西入君","koaza":"","lat":34.892204,"lng":132.845833},{"town":"君田町東入君","koaza":"","lat":34.873379,"lng":132.860963},{"town":"君田町櫃田","koaza":"","lat":34.952118,"lng":132.810544},{"town":"君田町藤兼","koaza":"","lat":34.864105,"lng":132.83077},{"town":"君田町茂田","koaza":"","lat":34.912669,"lng":132.811107},{"town":"甲奴町有田","koaza":"","lat":34.738988,"lng":133.080392},{"town":"甲奴町宇賀","koaza":"","lat":34.695321,"lng":133.038616},{"town":"甲奴町梶田","koaza":"","lat":34.710204,"lng":133.065523},{"town":"甲奴町太郎丸","koaza":"","lat":34.763086,"lng":133.08368},{"town":"甲奴町西野","koaza":"","lat":34.699012,"lng":133.072555},{"town":"甲奴町抜湯","koaza":"","lat":34.751176,"lng":133.073906},{"town":"甲奴町小童","koaza":"","lat":34.676342,"lng":133.063502},{"town":"甲奴町福田","koaza":"","lat":34.730864,"lng":133.093433},{"town":"甲奴町本郷","koaza":"","lat":34.70497,"lng":133.088026},{"town":"小田幸町","koaza":"","lat":34.762432,"lng":132.902557},{"town":"作木町伊賀和志","koaza":"","lat":34.906405,"lng":132.65699},{"town":"作木町大津","koaza":"","lat":34.894169,"lng":132.686321},{"town":"作木町大畠","koaza":"","lat":34.917911,"lng":132.73157},{"town":"作木町大山","koaza":"","lat":34.832151,"lng":132.761162},{"town":"作木町岡三渕","koaza":"","lat":34.940065,"lng":132.704454},{"town":"作木町上作木","koaza":"","lat":34.893142,"lng":132.75226},{"town":"作木町香淀","koaza":"","lat":34.833052,"lng":132.731706},{"town":"作木町下作木","koaza":"","lat":34.872925,"lng":132.725211},{"town":"作木町西野","koaza":"","lat":34.898792,"lng":132.737542},{"town":"作木町光守","koaza":"","lat":34.902254,"lng":132.723909},{"town":"作木町森山中","koaza":"","lat":34.917177,"lng":132.692711},{"town":"作木町森山西","koaza":"","lat":34.919575,"lng":132.672961},{"town":"作木町森山東","koaza":"","lat":34.902025,"lng":132.70448},{"town":"作木町門田","koaza":"","lat":34.822559,"lng":132.70712},{"town":"塩町","koaza":"","lat":34.775264,"lng":132.912891},{"town":"志幸町","koaza":"","lat":34.764566,"lng":132.925233},{"town":"四拾貫町","koaza":"","lat":34.803745,"lng":132.901895},{"town":"下川立町","koaza":"","lat":34.730095,"lng":132.786618},{"town":"下志和地町","koaza":"","lat":34.728872,"lng":132.832195},{"town":"高杉町","koaza":"","lat":34.769757,"lng":132.89802},{"town":"十日市中一丁目","koaza":"","lat":34.805141,"lng":132.84808},{"town":"十日市中二丁目","koaza":"","lat":34.805087,"lng":132.852956},{"town":"十日市中三丁目","koaza":"","lat":34.806593,"lng":132.853411},{"town":"十日市中四丁目","koaza":"","lat":34.808647,"lng":132.854042},{"town":"十日市西一丁目","koaza":"","lat":34.802572,"lng":132.849466},{"town":"十日市西二丁目","koaza":"","lat":34.800518,"lng":132.84848},{"town":"十日市西三丁目","koaza":"","lat":34.797786,"lng":132.846607},{"town":"十日市西四丁目","koaza":"","lat":34.798446,"lng":132.841133},{"town":"十日市西五丁目","koaza":"","lat":34.800403,"lng":132.844094},{"town":"十日市西六丁目","koaza":"","lat":34.803539,"lng":132.843549},{"town":"十日市東一丁目","koaza":"","lat":34.805189,"lng":132.857424},{"town":"十日市東二丁目","koaza":"","lat":34.808752,"lng":132.858604},{"town":"十日市東三丁目","koaza":"","lat":34.808612,"lng":132.86125},{"town":"十日市東四丁目","koaza":"","lat":34.805096,"lng":132.861007},{"town":"十日市東五丁目","koaza":"","lat":34.807107,"lng":132.864813},{"town":"十日市東六丁目","koaza":"","lat":34.801726,"lng":132.864493},{"town":"十日市町","koaza":"","lat":34.790699,"lng":132.840624},{"town":"十日市南一丁目","koaza":"","lat":34.803104,"lng":132.857183},{"town":"十日市南二丁目","koaza":"","lat":34.801227,"lng":132.861512},{"town":"十日市南三丁目","koaza":"","lat":34.797678,"lng":132.862057},{"town":"十日市南四丁目","koaza":"","lat":34.799956,"lng":132.858123},{"town":"十日市南五丁目","koaza":"","lat":34.800931,"lng":132.855327},{"town":"十日市南六丁目","koaza":"","lat":34.798103,"lng":132.851307},{"town":"十日市南七丁目","koaza":"","lat":34.801014,"lng":132.852192},{"town":"西河内町","koaza":"","lat":34.849989,"lng":132.859379},{"town":"西酒屋町","koaza":"","lat":34.779082,"lng":132.845635},{"town":"畠敷町","koaza":"","lat":34.813664,"lng":132.884291},{"town":"東河内町","koaza":"","lat":34.835091,"lng":132.863543},{"town":"東酒屋町","koaza":"","lat":34.774928,"lng":132.866747},{"town":"日下町","koaza":"","lat":34.815952,"lng":132.799763},{"town":"布野町上布野","koaza":"","lat":34.902148,"lng":132.782056},{"town":"布野町下布野","koaza":"","lat":34.852341,"lng":132.777347},{"town":"布野町戸河内","koaza":"","lat":34.874338,"lng":132.807914},{"town":"布野町横谷","koaza":"","lat":34.949914,"lng":132.755261},{"town":"南畑敷町","koaza":"","lat":34.79682,"lng":132.882916},{"town":"三原町","koaza":"","lat":34.832438,"lng":132.809077},{"town":"三次町","koaza":"","lat":34.819317,"lng":132.850383},{"town":"三良坂町岡田","koaza":"","lat":34.767126,"lng":132.935258},{"town":"三良坂町皆瀬","koaza":"","lat":34.779724,"lng":132.958957},{"town":"三良坂町田利","koaza":"","lat":34.790104,"lng":132.958153},{"town":"三良坂町長田","koaza":"","lat":34.740332,"lng":132.938802},{"town":"三良坂町仁賀","koaza":"","lat":34.798278,"lng":132.977095},{"town":"三良坂町灰塚","koaza":"","lat":34.770974,"lng":132.985961},{"town":"三良坂町光清","koaza":"","lat":34.801721,"lng":132.990359},{"town":"三良坂町三良坂","koaza":"","lat":34.763681,"lng":132.967268},{"town":"三若町","koaza":"","lat":34.708932,"lng":132.890775},{"town":"三和町有原","koaza":"","lat":34.684406,"lng":132.869887},{"town":"三和町飯田","koaza":"","lat":34.613743,"lng":132.84364},{"town":"三和町上板木","koaza":"","lat":34.642028,"lng":132.831331},{"town":"三和町上壱","koaza":"","lat":34.633745,"lng":132.852626},{"town":"三和町敷名","koaza":"","lat":34.666151,"lng":132.863566},{"town":"三和町下板木","koaza":"","lat":34.692574,"lng":132.844879},{"town":"三和町大力谷","koaza":"","lat":34.64469,"lng":132.814671},{"town":"三和町羽出庭","koaza":"","lat":34.662879,"lng":132.806602},{"town":"三和町福田","koaza":"","lat":34.698925,"lng":132.814944},{"town":"向江田町","koaza":"","lat":34.785346,"lng":132.93011},{"town":"廻神町","koaza":"","lat":34.759319,"lng":132.873971},{"town":"山家町","koaza":"","lat":34.844803,"lng":132.825915},{"town":"和知町","koaza":"","lat":34.805804,"lng":132.930527}]