[{"town":"大字三郎丸","koaza":"","lat":34.577394,"lng":133.024422},{"town":"大字上津田","koaza":"","lat":34.661151,"lng":132.891166},{"town":"大字下津田","koaza":"","lat":34.659562,"lng":132.916143},{"town":"大字中","koaza":"","lat":34.621603,"lng":132.88109},{"town":"大字中原","koaza":"","lat":34.581731,"lng":133.015565},{"town":"大字井折","koaza":"","lat":34.609124,"lng":133.04653},{"town":"大字京丸","koaza":"","lat":34.607525,"lng":132.994767},{"town":"大字伊尾","koaza":"","lat":34.630508,"lng":133.105232},{"town":"大字別迫","koaza":"","lat":34.640309,"lng":133.05809},{"town":"大字吉原","koaza":"","lat":34.605477,"lng":132.886422},{"town":"大字堀越","koaza":"","lat":34.590805,"lng":133.023793},{"town":"大字宇津戸","koaza":"","lat":34.558824,"lng":133.106966},{"town":"大字安田","koaza":"","lat":34.64238,"lng":133.018613},{"town":"大字寺町","koaza":"","lat":34.608016,"lng":133.01926},{"town":"大字寺町","koaza":"西福寺","lat":34.586287,"lng":133.040511},{"town":"大字小世良","koaza":"","lat":34.570037,"lng":133.073413},{"town":"大字小国","koaza":"","lat":34.61346,"lng":132.926726},{"town":"大字小谷","koaza":"","lat":34.61197,"lng":133.1388},{"town":"大字山中福田","koaza":"","lat":34.6391,"lng":132.949968},{"town":"大字川尻","koaza":"","lat":34.591292,"lng":133.105876},{"town":"大字徳市","koaza":"","lat":34.646622,"lng":132.984859},{"town":"大字戸張","koaza":"","lat":34.664519,"lng":133.009425},{"town":"大字本郷","koaza":"","lat":34.605415,"lng":133.036425},{"town":"大字東上原","koaza":"","lat":34.610972,"lng":133.080774},{"town":"大字東神崎","koaza":"","lat":34.569268,"lng":133.048262},{"town":"大字津口","koaza":"","lat":34.598778,"lng":132.956593},{"town":"大字田打","koaza":"","lat":34.559045,"lng":133.022185},{"town":"大字甲山","koaza":"","lat":34.582626,"lng":133.058096},{"town":"大字西上原","koaza":"","lat":34.594553,"lng":133.067738},{"town":"大字西神崎","koaza":"","lat":34.577332,"lng":133.038849},{"town":"大字賀茂","koaza":"","lat":34.570346,"lng":132.976264},{"town":"大字赤屋","koaza":"","lat":34.612957,"lng":133.065016},{"town":"大字重永","koaza":"","lat":34.575622,"lng":133.002804},{"town":"大字長田","koaza":"","lat":34.662266,"lng":132.936321},{"town":"大字青山","koaza":"","lat":34.56935,"lng":133.02811},{"town":"大字青水","koaza":"","lat":34.594093,"lng":132.97751},{"town":"大字青近","koaza":"","lat":34.642261,"lng":133.082553},{"town":"大字黒川","koaza":"","lat":34.614472,"lng":132.89605},{"town":"大字黒渕","koaza":"","lat":34.621481,"lng":132.976155}]