[{"town":"曙町","koaza":"","lat":"34.367164","lng":"132.539873"},{"town":"石原","koaza":"","lat":"34.375870","lng":"132.544818"},{"town":"稲葉","koaza":"","lat":"34.367966","lng":"132.553680"},{"town":"稲荷町","koaza":"","lat":"34.373467","lng":"132.532656"},{"town":"畝一丁目","koaza":"","lat":"34.377814","lng":"132.548411"},{"town":"畝二丁目","koaza":"","lat":"34.380539","lng":"132.552421"},{"town":"大立町","koaza":"","lat":"34.365666","lng":"132.545487"},{"town":"海田市","koaza":"","lat":"34.379874","lng":"132.541590"},{"town":"蟹原一丁目","koaza":"","lat":"34.372132","lng":"132.541586"},{"town":"蟹原二丁目","koaza":"","lat":"34.372781","lng":"132.545534"},{"town":"上市","koaza":"","lat":"34.373162","lng":"132.537524"},{"town":"国信一丁目","koaza":"","lat":"34.378440","lng":"132.553659"},{"town":"国信二丁目","koaza":"","lat":"34.380823","lng":"132.556770"},{"town":"窪町","koaza":"","lat":"34.370426","lng":"132.530177"},{"town":"寿町","koaza":"","lat":"34.361435","lng":"132.530435"},{"town":"幸町","koaza":"","lat":"34.368947","lng":"132.542924"},{"town":"栄町","koaza":"","lat":"34.362142","lng":"132.534297"},{"town":"昭和中町","koaza":"","lat":"34.369086","lng":"132.537733"},{"town":"昭和町","koaza":"","lat":"34.370355","lng":"132.536135"},{"town":"新町","koaza":"","lat":"34.373932","lng":"132.530966"},{"town":"砂走","koaza":"","lat":"34.382980","lng":"132.556347"},{"town":"曽田","koaza":"","lat":"34.375294","lng":"132.549686"},{"town":"大正町","koaza":"","lat":"34.369427","lng":"132.533019"},{"town":"月見町","koaza":"","lat":"34.361069","lng":"132.536668"},{"town":"つくも町","koaza":"","lat":"34.367334","lng":"132.528868"},{"town":"寺迫一丁目","koaza":"","lat":"34.371466","lng":"132.550718"},{"town":"寺迫二丁目","koaza":"","lat":"34.372451","lng":"132.552591"},{"town":"中店","koaza":"","lat":"34.372958","lng":"132.534349"},{"town":"成本","koaza":"","lat":"34.374520","lng":"132.540852"},{"town":"西浜","koaza":"","lat":"34.369287","lng":"132.545604"},{"town":"西明神町","koaza":"","lat":"34.357939","lng":"132.520980"},{"town":"浜角","koaza":"","lat":"34.369739","lng":"132.547940"},{"town":"東一丁目","koaza":"","lat":"34.365275","lng":"132.555325"},{"town":"東二丁目","koaza":"","lat":"34.366424","lng":"132.559813"},{"town":"東海田","koaza":"","lat":"34.363427","lng":"132.566567"},{"town":"東昭和町","koaza":"","lat":"34.369567","lng":"132.540370"},{"town":"日の出町","koaza":"","lat":"34.364881","lng":"132.537089"},{"town":"堀川町","koaza":"","lat":"34.368086","lng":"132.531387"},{"town":"三迫一丁目","koaza":"","lat":"34.366330","lng":"132.549317"},{"town":"三迫二丁目","koaza":"","lat":"34.363371","lng":"132.552559"},{"town":"三迫三丁目","koaza":"","lat":"34.357824","lng":"132.556705"},{"town":"南幸町","koaza":"","lat":"34.364934","lng":"132.541896"},{"town":"南昭和町","koaza":"","lat":"34.367414","lng":"132.536366"},{"town":"南大正町","koaza":"","lat":"34.366791","lng":"132.534289"},{"town":"南つくも町","koaza":"","lat":"34.364730","lng":"132.530458"},{"town":"南堀川町","koaza":"","lat":"34.365889","lng":"132.532413"},{"town":"南本町","koaza":"","lat":"34.362537","lng":"132.538727"},{"town":"南明神町","koaza":"","lat":"34.362714","lng":"132.526524"},{"town":"明神町","koaza":"","lat":"34.364524","lng":"132.524049"}]