[{"town":"因島大浜町","koaza":"","lat":34.345926,"lng":133.167003},{"town":"因島鏡浦町","koaza":"","lat":34.329095,"lng":133.195082},{"town":"因島洲江町","koaza":"","lat":34.295558,"lng":133.143776},{"town":"因島田熊町","koaza":"","lat":34.303848,"lng":133.166154},{"town":"因島外浦町","koaza":"","lat":34.325709,"lng":133.186487},{"town":"因島中庄町","koaza":"","lat":34.322329,"lng":133.169868},{"town":"因島原町","koaza":"","lat":34.286137,"lng":133.131166},{"town":"因島三庄町","koaza":"","lat":34.296787,"lng":133.192078},{"town":"因島椋浦町","koaza":"","lat":34.31756,"lng":133.20068},{"town":"浦崎町","koaza":"","lat":34.401394,"lng":133.270062},{"town":"沖側町","koaza":"","lat":34.402566,"lng":133.166153},{"town":"尾崎町","koaza":"","lat":34.414923,"lng":133.212465},{"town":"尾崎本町","koaza":"","lat":34.410585,"lng":133.21662},{"town":"神田町","koaza":"","lat":34.407211,"lng":133.171465},{"town":"木ノ庄町市原","koaza":"","lat":34.478308,"lng":133.170092},{"town":"木ノ庄町木梨","koaza":"","lat":34.479631,"lng":133.18834},{"town":"木ノ庄町木梨山方","koaza":"","lat":34.464592,"lng":133.19918},{"town":"木ノ庄町木門田","koaza":"","lat":34.469926,"lng":133.144533},{"town":"木ノ庄町畑","koaza":"","lat":34.489058,"lng":133.16031},{"town":"久保一丁目","koaza":"","lat":34.410329,"lng":133.204452},{"town":"久保二丁目","koaza":"","lat":34.410953,"lng":133.206052},{"town":"久保三丁目","koaza":"","lat":34.41127,"lng":133.208085},{"town":"久保町","koaza":"","lat":34.42396,"lng":133.205989},{"town":"栗原町","koaza":"","lat":34.430158,"lng":133.18164},{"town":"栗原西一丁目","koaza":"","lat":34.408613,"lng":133.188677},{"town":"栗原西二丁目","koaza":"","lat":34.412897,"lng":133.188096},{"town":"栗原東一丁目","koaza":"","lat":34.411075,"lng":133.190992},{"town":"栗原東二丁目","koaza":"","lat":34.415258,"lng":133.192264},{"town":"古浜町","koaza":"","lat":34.398859,"lng":133.172959},{"town":"桜町","koaza":"","lat":34.41371,"lng":133.185285},{"town":"三軒家町","koaza":"","lat":34.406875,"lng":133.192143},{"town":"山波町","koaza":"","lat":34.417717,"lng":133.225492},{"town":"潮見町","koaza":"","lat":34.409118,"lng":133.185833},{"town":"正徳町","koaza":"","lat":34.396213,"lng":133.163},{"town":"新高山一丁目","koaza":"","lat":34.415514,"lng":133.217346},{"town":"新高山二丁目","koaza":"","lat":34.419398,"lng":133.215369},{"town":"新高山三丁目","koaza":"","lat":34.424493,"lng":133.214781},{"town":"新浜一丁目","koaza":"","lat":34.401477,"lng":133.183444},{"town":"新浜二丁目","koaza":"","lat":34.400507,"lng":133.178364},{"town":"瀬戸田町荻","koaza":"","lat":34.265691,"lng":133.091951},{"town":"瀬戸田町高根","koaza":"","lat":34.317709,"lng":133.074092},{"town":"瀬戸田町沢","koaza":"","lat":34.309424,"lng":133.090482},{"town":"瀬戸田町鹿田原","koaza":"","lat":34.30141,"lng":133.090705},{"town":"瀬戸田町瀬戸田","koaza":"","lat":34.30497,"lng":133.087732},{"town":"瀬戸田町垂水","koaza":"","lat":34.27505,"lng":133.078305},{"town":"瀬戸田町中野","koaza":"","lat":34.292184,"lng":133.097771},{"town":"瀬戸田町林","koaza":"","lat":34.297758,"lng":133.112135},{"town":"瀬戸田町福田","koaza":"","lat":34.288444,"lng":133.088773},{"town":"瀬戸田町御寺","koaza":"","lat":34.283778,"lng":133.113509},{"town":"瀬戸田町宮原","koaza":"","lat":34.272828,"lng":133.107864},{"town":"瀬戸田町名荷","koaza":"","lat":34.304025,"lng":133.130519},{"town":"高須町","koaza":"","lat":34.436861,"lng":133.226535},{"town":"長者原一丁目","koaza":"","lat":34.43999,"lng":133.210257},{"town":"長者原二丁目","koaza":"","lat":34.444968,"lng":133.208107},{"town":"土堂一丁目","koaza":"","lat":34.406625,"lng":133.198499},{"town":"土堂二丁目","koaza":"","lat":34.408323,"lng":133.20176},{"town":"手崎町","koaza":"","lat":34.402503,"lng":133.176158},{"town":"天満町","koaza":"","lat":34.405429,"lng":133.189022},{"town":"十四日町","koaza":"","lat":34.427092,"lng":133.199551},{"town":"十四日元町","koaza":"","lat":34.409788,"lng":133.20265},{"town":"長江一丁目","koaza":"","lat":34.413223,"lng":133.200853},{"town":"長江二丁目","koaza":"","lat":34.41598,"lng":133.198673},{"town":"長江三丁目","koaza":"","lat":34.419949,"lng":133.196834},{"town":"西久保町","koaza":"","lat":34.415107,"lng":133.204189},{"town":"西御所町","koaza":"","lat":34.402702,"lng":133.18947},{"town":"西土堂町","koaza":"","lat":34.408606,"lng":133.195494},{"town":"西則末町","koaza":"","lat":34.419369,"lng":133.187234},{"town":"西藤町","koaza":"","lat":34.45715,"lng":133.217877},{"town":"原田町小原","koaza":"","lat":34.499361,"lng":133.22229},{"town":"原田町梶山田","koaza":"","lat":34.493067,"lng":133.204667},{"town":"東尾道","koaza":"","lat":34.4225,"lng":133.236749},{"town":"東久保町","koaza":"","lat":34.414691,"lng":133.208205},{"town":"東御所町","koaza":"","lat":34.40435,"lng":133.193082},{"town":"東土堂町","koaza":"","lat":34.409827,"lng":133.198765},{"town":"東則末町","koaza":"","lat":34.420101,"lng":133.190152},{"town":"東元町","koaza":"","lat":34.400282,"lng":133.170678},{"town":"久山田町","koaza":"","lat":34.423266,"lng":133.157369},{"town":"日比崎町","koaza":"","lat":34.409243,"lng":133.182597},{"town":"平原一丁目","koaza":"","lat":34.407454,"lng":133.176425},{"town":"平原二丁目","koaza":"","lat":34.410445,"lng":133.177711},{"town":"平原三丁目","koaza":"","lat":34.412984,"lng":133.177024},{"town":"平原四丁目","koaza":"","lat":34.416488,"lng":133.178333},{"town":"福地町","koaza":"","lat":34.398891,"lng":133.15965},{"town":"防地町","koaza":"","lat":34.41973,"lng":133.205084},{"town":"御調町綾目","koaza":"","lat":34.524692,"lng":133.116018},{"town":"御調町市","koaza":"","lat":34.50288,"lng":133.150595},{"town":"御調町今田","koaza":"","lat":34.511599,"lng":133.101796},{"town":"御調町岩根","koaza":"","lat":34.527966,"lng":133.158098},{"town":"御調町植野","koaza":"","lat":34.49741,"lng":133.097277},{"town":"御調町江田","koaza":"","lat":34.507934,"lng":133.168607},{"town":"御調町大田","koaza":"","lat":34.502734,"lng":133.134477},{"town":"御調町大原","koaza":"","lat":34.533881,"lng":133.102611},{"town":"御調町大町","koaza":"","lat":34.518519,"lng":133.166778},{"town":"御調町大山田","koaza":"","lat":34.556522,"lng":133.144},{"town":"御調町貝ケ原","koaza":"","lat":34.523832,"lng":133.146423},{"town":"御調町釜窪","koaza":"","lat":34.512422,"lng":133.159659},{"town":"御調町神","koaza":"","lat":34.513977,"lng":133.141534},{"town":"御調町国守","koaza":"","lat":34.49801,"lng":133.166919},{"town":"御調町公文","koaza":"","lat":34.530163,"lng":133.135352},{"town":"御調町三郎丸","koaza":"","lat":34.542124,"lng":133.175731},{"town":"御調町下山田","koaza":"","lat":34.540839,"lng":133.139667},{"town":"御調町菅","koaza":"","lat":34.513223,"lng":133.182827},{"town":"御調町千堂","koaza":"","lat":34.545361,"lng":133.15729},{"town":"御調町大蔵","koaza":"","lat":34.533314,"lng":133.182474},{"town":"御調町大塔","koaza":"","lat":34.521351,"lng":133.201636},{"town":"御調町高尾","koaza":"","lat":34.517431,"lng":133.139002},{"town":"御調町津蟹","koaza":"","lat":34.505149,"lng":133.071688},{"town":"御調町徳永","koaza":"","lat":34.508369,"lng":133.12364},{"town":"御調町中原","koaza":"","lat":34.523511,"lng":133.167198},{"town":"御調町仁野","koaza":"","lat":34.530429,"lng":133.215362},{"town":"御調町野間","koaza":"","lat":34.518727,"lng":133.080243},{"town":"御調町白太","koaza":"","lat":34.52649,"lng":133.178177},{"town":"御調町花尻","koaza":"","lat":34.51349,"lng":133.152728},{"town":"御調町平","koaza":"","lat":34.519931,"lng":133.160482},{"town":"御調町平木","koaza":"","lat":34.523581,"lng":133.208902},{"town":"御調町福井","koaza":"","lat":34.49125,"lng":133.079498},{"town":"御調町本","koaza":"","lat":34.539134,"lng":133.165164},{"town":"御調町丸河南","koaza":"","lat":34.489617,"lng":133.129687},{"town":"御調町丸門田","koaza":"","lat":34.490472,"lng":133.11598},{"town":"御調町山岡","koaza":"","lat":34.531219,"lng":133.087274},{"town":"美ノ郷町猪子迫","koaza":"","lat":34.458601,"lng":133.20502},{"town":"美ノ郷町白江","koaza":"","lat":34.455757,"lng":133.184346},{"town":"美ノ郷町中野","koaza":"","lat":34.450086,"lng":133.146594},{"town":"美ノ郷町本郷","koaza":"","lat":34.450121,"lng":133.17075},{"town":"美ノ郷町三成","koaza":"","lat":34.449026,"lng":133.19739},{"town":"向島町","koaza":"","lat":34.383035,"lng":133.194652},{"town":"向島町岩子島","koaza":"","lat":34.382343,"lng":133.16119},{"town":"向島町立花","koaza":"","lat":34.364274,"lng":133.202562},{"town":"向東町","koaza":"","lat":34.395509,"lng":133.222192},{"town":"百島町","koaza":"","lat":34.372646,"lng":133.269177},{"town":"門田町","koaza":"","lat":34.417266,"lng":133.183271},{"town":"吉浦町","koaza":"","lat":34.406492,"lng":133.180685},{"town":"吉和町","koaza":"","lat":34.411129,"lng":133.160184},{"town":"吉和西元町","koaza":"","lat":34.399323,"lng":133.166328},{"town":"因島重井町","koaza":"","lat":34.338084,"lng":133.151291},{"town":"因島土生町","koaza":"","lat":34.290317,"lng":133.180279},{"town":"因島重井町","koaza":"伊浜","lat":34.345665,"lng":133.15266},{"town":"因島田熊町","koaza":"西浦","lat":34.307844,"lng":133.153039},{"town":"御調町本","koaza":"柳原","lat":34.531209,"lng":133.172808},{"town":"栗原町","koaza":"大坪","lat":34.429287,"lng":133.189798},{"town":"栗原町","koaza":"向山","lat":34.430298,"lng":133.192209},{"town":"向島町","koaza":"川尻","lat":34.376166,"lng":133.197609},{"town":"向島町","koaza":"江ノ奥","lat":34.377558,"lng":133.20718},{"town":"向東町","koaza":"蔵本谷沖","lat":34.400762,"lng":133.206059},{"town":"高須町","koaza":"砂畑","lat":34.428782,"lng":133.227953},{"town":"高須町","koaza":"大新","lat":34.431528,"lng":133.228714},{"town":"高須町","koaza":"西新涯","lat":34.429008,"lng":133.230553},{"town":"高須町","koaza":"恋ノ水","lat":34.435852,"lng":133.230861}]