[{"town":"青崎一丁目","koaza":"","lat":34.372525,"lng":132.506174},{"town":"青崎二丁目","koaza":"","lat":34.372455,"lng":132.507946},{"town":"旭一丁目","koaza":"","lat":34.374588,"lng":132.478923},{"town":"旭二丁目","koaza":"","lat":34.373261,"lng":132.476948},{"town":"旭三丁目","koaza":"","lat":34.369723,"lng":132.475707},{"town":"稲荷町","koaza":"","lat":34.391905,"lng":132.470473},{"town":"宇品海岸一丁目","koaza":"","lat":34.353162,"lng":132.456147},{"town":"宇品海岸二丁目","koaza":"","lat":34.35448,"lng":132.4614},{"town":"宇品海岸三丁目","koaza":"","lat":34.354662,"lng":132.468719},{"town":"宇品神田一丁目","koaza":"","lat":34.367569,"lng":132.465948},{"town":"宇品神田二丁目","koaza":"","lat":34.365088,"lng":132.465994},{"town":"宇品神田三丁目","koaza":"","lat":34.363067,"lng":132.465823},{"town":"宇品神田四丁目","koaza":"","lat":34.361272,"lng":132.465659},{"town":"宇品神田五丁目","koaza":"","lat":34.358095,"lng":132.465369},{"town":"宇品西一丁目","koaza":"","lat":34.370437,"lng":132.46161},{"town":"宇品西二丁目","koaza":"","lat":34.365266,"lng":132.458594},{"town":"宇品西三丁目","koaza":"","lat":34.361543,"lng":132.459859},{"town":"宇品西四丁目","koaza":"","lat":34.357568,"lng":132.459475},{"town":"宇品西五丁目","koaza":"","lat":34.361427,"lng":132.458002},{"town":"宇品西六丁目","koaza":"","lat":34.357414,"lng":132.457646},{"town":"宇品東一丁目","koaza":"","lat":34.365683,"lng":132.468833},{"town":"宇品東二丁目","koaza":"","lat":34.365535,"lng":132.471233},{"town":"宇品東三丁目","koaza":"","lat":34.365416,"lng":132.473632},{"town":"宇品東四丁目","koaza":"","lat":34.362312,"lng":132.477094},{"town":"宇品東五丁目","koaza":"","lat":34.359898,"lng":132.472063},{"town":"宇品東六丁目","koaza":"","lat":34.362107,"lng":132.468526},{"town":"宇品東七丁目","koaza":"","lat":34.358692,"lng":132.468162},{"town":"宇品町","koaza":"","lat":34.338758,"lng":132.482896},{"town":"宇品御幸一丁目","koaza":"","lat":34.370164,"lng":132.462796},{"town":"宇品御幸二丁目","koaza":"","lat":34.365731,"lng":132.463157},{"town":"宇品御幸三丁目","koaza":"","lat":34.363479,"lng":132.462694},{"town":"宇品御幸四丁目","koaza":"","lat":34.359761,"lng":132.46228},{"town":"宇品御幸五丁目","koaza":"","lat":34.357338,"lng":132.462035},{"town":"黄金山町","koaza":"","lat":34.366948,"lng":132.49052},{"town":"大州一丁目","koaza":"","lat":34.387489,"lng":132.489307},{"town":"大州二丁目","koaza":"","lat":34.389978,"lng":132.489205},{"town":"大州三丁目","koaza":"","lat":34.389222,"lng":132.492555},{"town":"大州四丁目","koaza":"","lat":34.38802,"lng":132.496674},{"town":"大州五丁目","koaza":"","lat":34.383958,"lng":132.49717},{"town":"大須賀町","koaza":"","lat":34.400896,"lng":132.469696},{"town":"霞一丁目","koaza":"","lat":34.38092,"lng":132.48043},{"town":"霞二丁目","koaza":"","lat":34.378739,"lng":132.48153},{"town":"上東雲町","koaza":"","lat":34.385553,"lng":132.487093},{"town":"北大河町","koaza":"","lat":34.372436,"lng":132.481799},{"town":"京橋町","koaza":"","lat":34.394958,"lng":132.471686},{"town":"金屋町","koaza":"","lat":34.391437,"lng":132.47275},{"town":"楠那町","koaza":"","lat":34.363737,"lng":132.48667},{"town":"小磯町","koaza":"","lat":34.370263,"lng":132.503202},{"town":"荒神町","koaza":"","lat":34.394655,"lng":132.477843},{"town":"東雲一丁目","koaza":"","lat":34.383872,"lng":132.491214},{"town":"東雲二丁目","koaza":"","lat":34.381224,"lng":132.492327},{"town":"東雲三丁目","koaza":"","lat":34.377742,"lng":132.496967},{"town":"東雲本町一丁目","koaza":"","lat":34.381924,"lng":132.484312},{"town":"東雲本町二丁目","koaza":"","lat":34.381595,"lng":132.487},{"town":"東雲本町三丁目","koaza":"","lat":34.378351,"lng":132.48729},{"town":"丹那新町","koaza":"","lat":34.367868,"lng":132.485022},{"town":"丹那町","koaza":"","lat":34.36594,"lng":132.480741},{"town":"段原一丁目","koaza":"","lat":34.390507,"lng":132.475487},{"town":"段原二丁目","koaza":"","lat":34.388252,"lng":132.476049},{"town":"段原三丁目","koaza":"","lat":34.388323,"lng":132.478046},{"town":"段原四丁目","koaza":"","lat":34.388831,"lng":132.480213},{"town":"段原日出一丁目","koaza":"","lat":34.387436,"lng":132.482029},{"town":"段原日出二丁目","koaza":"","lat":34.38667,"lng":132.483799},{"town":"段原南一丁目","koaza":"","lat":34.383867,"lng":132.476067},{"town":"段原南二丁目","koaza":"","lat":34.38492,"lng":132.478108},{"town":"段原山崎一丁目","koaza":"","lat":34.384383,"lng":132.479297},{"town":"段原山崎二丁目","koaza":"","lat":34.384857,"lng":132.480814},{"town":"段原山崎三丁目","koaza":"","lat":34.384848,"lng":132.483086},{"town":"月見町","koaza":"","lat":34.363304,"lng":132.513331},{"town":"出汐一丁目","koaza":"","lat":34.379795,"lng":132.476016},{"town":"出汐二丁目","koaza":"","lat":34.376042,"lng":132.474295},{"town":"出汐三丁目","koaza":"","lat":34.376953,"lng":132.47786},{"town":"出汐四丁目","koaza":"","lat":34.377941,"lng":132.477769},{"town":"出島一丁目","koaza":"","lat":34.358887,"lng":132.454163},{"town":"出島二丁目","koaza":"","lat":34.352556,"lng":132.445964},{"town":"出島三丁目","koaza":"","lat":34.348637,"lng":132.440938},{"town":"出島四丁目","koaza":"","lat":34.349578,"lng":132.445773},{"town":"西旭町","koaza":"","lat":34.371416,"lng":132.474153},{"town":"西霞町","koaza":"","lat":34.375934,"lng":132.481846},{"town":"西蟹屋一丁目","koaza":"","lat":34.392596,"lng":132.477405},{"town":"西蟹屋二丁目","koaza":"","lat":34.393499,"lng":132.480035},{"town":"西蟹屋三丁目","koaza":"","lat":34.392579,"lng":132.481372},{"town":"西蟹屋四丁目","koaza":"","lat":34.391006,"lng":132.479743},{"town":"西荒神町","koaza":"","lat":34.393563,"lng":132.476961},{"town":"西本浦町","koaza":"","lat":34.375909,"lng":132.486274},{"town":"西翠町","koaza":"","lat":34.369937,"lng":132.464372},{"town":"仁保町","koaza":"","lat":34.313867,"lng":132.46253},{"town":"似島町","koaza":"","lat":34.311304,"lng":132.436899},{"town":"仁保一丁目","koaza":"","lat":34.371539,"lng":132.492914},{"town":"仁保二丁目","koaza":"","lat":34.371028,"lng":132.498312},{"town":"仁保三丁目","koaza":"","lat":34.368109,"lng":132.49658},{"town":"仁保四丁目","koaza":"","lat":34.363634,"lng":132.498267},{"town":"仁保沖町","koaza":"","lat":34.358159,"lng":132.489227},{"town":"仁保新町一丁目","koaza":"","lat":34.377245,"lng":132.492266},{"town":"仁保新町二丁目","koaza":"","lat":34.375792,"lng":132.495244},{"town":"仁保南一丁目","koaza":"","lat":34.36475,"lng":132.496612},{"town":"仁保南二丁目","koaza":"","lat":34.363841,"lng":132.494553},{"town":"日宇那町","koaza":"","lat":34.363486,"lng":132.492457},{"town":"東青崎町","koaza":"","lat":34.374018,"lng":132.509117},{"town":"東駅町","koaza":"","lat":34.392446,"lng":132.489869},{"town":"東霞町","koaza":"","lat":34.377137,"lng":132.484206},{"town":"東荒神町","koaza":"","lat":34.394227,"lng":132.479294},{"town":"東本浦町","koaza":"","lat":34.376306,"lng":132.489701},{"town":"比治山公園","koaza":"","lat":34.384012,"lng":132.472991},{"town":"比治山町","koaza":"","lat":34.38788,"lng":132.47191},{"town":"比治山本町","koaza":"","lat":34.382471,"lng":132.469492},{"town":"堀越一丁目","koaza":"","lat":34.373877,"lng":132.511203},{"town":"堀越二丁目","koaza":"","lat":34.373626,"lng":132.514594},{"town":"堀越三丁目","koaza":"","lat":34.370081,"lng":132.512892},{"town":"本浦町","koaza":"","lat":34.373284,"lng":132.488208},{"town":"松川町","koaza":"","lat":34.390236,"lng":132.47166},{"town":"的場町一丁目","koaza":"","lat":34.393779,"lng":132.474079},{"town":"的場町二丁目","koaza":"","lat":34.391701,"lng":132.474886},{"town":"翠一丁目","koaza":"","lat":34.371149,"lng":132.466284},{"town":"翠二丁目","koaza":"","lat":34.372124,"lng":132.46967},{"town":"翠三丁目","koaza":"","lat":34.371793,"lng":132.471927},{"town":"翠四丁目","koaza":"","lat":34.368568,"lng":132.472594},{"town":"翠五丁目","koaza":"","lat":34.368991,"lng":132.467885},{"town":"南大河町","koaza":"","lat":34.369833,"lng":132.482224},{"town":"南蟹屋一丁目","koaza":"","lat":34.389261,"lng":132.484148},{"town":"南蟹屋二丁目","koaza":"","lat":34.391159,"lng":132.486},{"town":"皆実町一丁目","koaza":"","lat":34.379137,"lng":132.468063},{"town":"皆実町二丁目","koaza":"","lat":34.37629,"lng":132.463586},{"town":"皆実町三丁目","koaza":"","lat":34.376029,"lng":132.466916},{"town":"皆実町四丁目","koaza":"","lat":34.375703,"lng":132.470419},{"town":"皆実町五丁目","koaza":"","lat":34.374014,"lng":132.466555},{"town":"皆実町六丁目","koaza":"","lat":34.372528,"lng":132.463412},{"town":"向洋大原町","koaza":"","lat":34.363813,"lng":132.501801},{"town":"向洋沖町","koaza":"","lat":34.358238,"lng":132.503954},{"town":"向洋新町一丁目","koaza":"","lat":34.366869,"lng":132.511679},{"town":"向洋新町二丁目","koaza":"","lat":34.363946,"lng":132.509993},{"town":"向洋新町三丁目","koaza":"","lat":34.362408,"lng":132.506177},{"town":"向洋新町四丁目","koaza":"","lat":34.361411,"lng":132.502544},{"town":"向洋中町","koaza":"","lat":34.367389,"lng":132.507702},{"town":"向洋本町","koaza":"","lat":34.368909,"lng":132.507415},{"town":"元宇品町","koaza":"","lat":34.34599,"lng":132.461073},{"town":"山城町","koaza":"","lat":34.368482,"lng":132.477072},{"town":"松原町","koaza":"","lat":34.397093,"lng":132.475343},{"town":"猿猴橋町","koaza":"","lat":34.395034,"lng":132.476503}]