[{"town":"大字神立","koaza":"","lat":"36.923889","lng":"138.813471"},{"town":"大字土樽","koaza":"","lat":"36.887479","lng":"138.866887"},{"town":"大字三国","koaza":"","lat":"36.804073","lng":"138.759987"},{"town":"大字三俣","koaza":"","lat":"36.890315","lng":"138.761671"},{"town":"大字湯沢","koaza":"","lat":"36.944065","lng":"138.795272"},{"town":"湯沢一丁目","koaza":"","lat":"36.935909","lng":"138.811653"},{"town":"湯沢二丁目","koaza":"","lat":"36.937960","lng":"138.808996"},{"town":"湯沢三丁目","koaza":"","lat":"36.938104","lng":"138.811072"},{"town":"湯沢四丁目","koaza":"","lat":"36.936662","lng":"138.813428"},{"town":"湯沢五丁目","koaza":"","lat":"36.936363","lng":"138.814554"}]