[{"town":"下八枚ノ内小見新田","koaza":"","lat":37.773156,"lng":139.06176},{"town":"天王新田","koaza":"","lat":37.741429,"lng":139.039147},{"town":"臼井ノ内小平次新田","koaza":"","lat":37.773511,"lng":139.058873},{"town":"鯵潟","koaza":"","lat":37.776582,"lng":139.02146},{"town":"鯵潟一丁目","koaza":"","lat":37.776821,"lng":139.013161},{"town":"赤渋","koaza":"","lat":37.794141,"lng":139.055763},{"town":"朝捲","koaza":"","lat":37.785444,"lng":139.04374},{"town":"味方","koaza":"","lat":37.786665,"lng":138.998625},{"town":"天野","koaza":"","lat":37.839572,"lng":139.03197},{"town":"飯島","koaza":"","lat":37.72357,"lng":139.027769},{"town":"居宿","koaza":"","lat":37.812293,"lng":138.995842},{"town":"和泉","koaza":"","lat":37.760124,"lng":139.032868},{"town":"犬帰新田","koaza":"","lat":37.817238,"lng":139.057243},{"town":"茨曽根","koaza":"","lat":37.71667,"lng":139.00798},{"town":"鋳物師興野","koaza":"","lat":37.731035,"lng":139.056031},{"town":"兎新田","koaza":"","lat":37.697415,"lng":139.029288},{"town":"牛崎","koaza":"","lat":37.729147,"lng":139.039453},{"town":"臼井","koaza":"","lat":37.774121,"lng":139.055004},{"town":"獺ケ通","koaza":"","lat":37.832998,"lng":139.05006},{"town":"浦梨","koaza":"","lat":37.753324,"lng":139.025486},{"town":"大倉","koaza":"","lat":37.806187,"lng":139.004044},{"town":"大倉新田","koaza":"","lat":37.806644,"lng":139.002207},{"town":"大通一丁目","koaza":"","lat":37.840356,"lng":139.019297},{"town":"大通二丁目","koaza":"","lat":37.839872,"lng":139.020973},{"town":"大通黄金一丁目","koaza":"","lat":37.826218,"lng":139.021101},{"town":"大通黄金二丁目","koaza":"","lat":37.824669,"lng":139.02273},{"town":"大通黄金三丁目","koaza":"","lat":37.825899,"lng":139.020404},{"town":"大通黄金四丁目","koaza":"","lat":37.824219,"lng":139.0207},{"town":"大通黄金五丁目","koaza":"","lat":37.822711,"lng":139.021196},{"town":"大通黄金六丁目","koaza":"","lat":37.821143,"lng":139.023244},{"town":"大通黄金七丁目","koaza":"","lat":37.820851,"lng":139.020766},{"town":"大通西","koaza":"","lat":37.835543,"lng":139.017606},{"town":"大通南一丁目","koaza":"","lat":37.828519,"lng":139.020507},{"town":"大通南二丁目","koaza":"","lat":37.82853,"lng":139.023285},{"town":"大通南三丁目","koaza":"","lat":37.831067,"lng":139.02078},{"town":"大通南四丁目","koaza":"","lat":37.83118,"lng":139.023137},{"town":"大通南五丁目","koaza":"","lat":37.831771,"lng":139.019296},{"town":"大通南六丁目","koaza":"","lat":37.834892,"lng":139.019748},{"town":"大別當","koaza":"","lat":37.717764,"lng":138.990537},{"town":"沖新保","koaza":"","lat":37.723975,"lng":139.019604},{"town":"上浦","koaza":"","lat":37.75831,"lng":139.059222},{"town":"上木山","koaza":"","lat":37.745531,"lng":139.030335},{"town":"上塩俵","koaza":"","lat":37.817405,"lng":139.017124},{"town":"上新田","koaza":"","lat":37.68157,"lng":138.988167},{"town":"上道潟","koaza":"","lat":37.729333,"lng":139.01819},{"town":"上八枚","koaza":"","lat":37.747475,"lng":139.061108},{"town":"上曲通","koaza":"","lat":37.744586,"lng":138.998513},{"town":"神屋","koaza":"","lat":37.784312,"lng":139.0239},{"town":"北田中","koaza":"","lat":37.815041,"lng":139.023657},{"town":"北田中","koaza":"堀留","lat":37.817461,"lng":139.025212},{"town":"木滑","koaza":"","lat":37.748966,"lng":138.987642},{"town":"櫛笥","koaza":"","lat":37.742263,"lng":139.048835},{"town":"蜘手興野","koaza":"","lat":37.735876,"lng":139.051157},{"town":"小坂","koaza":"","lat":37.786045,"lng":139.02361},{"town":"小蔵子","koaza":"","lat":37.778035,"lng":139.044418},{"town":"山王","koaza":"","lat":37.801954,"lng":139.007374},{"town":"山王新田","koaza":"","lat":37.800737,"lng":139.007529},{"town":"七軒","koaza":"","lat":37.77184,"lng":139.022425},{"town":"七軒町","koaza":"","lat":37.771577,"lng":139.012618},{"town":"清水","koaza":"","lat":37.709215,"lng":138.995509},{"town":"下木山","koaza":"","lat":37.751536,"lng":139.032653},{"town":"下塩俵","koaza":"","lat":37.834803,"lng":139.014643},{"town":"下道潟","koaza":"","lat":37.733197,"lng":139.021782},{"town":"下八枚","koaza":"","lat":37.763103,"lng":139.059874},{"town":"下曲通","koaza":"","lat":37.750298,"lng":139.002737},{"town":"下山崎","koaza":"","lat":37.808015,"lng":139.009941},{"town":"庄瀬","koaza":"","lat":37.717723,"lng":139.033969},{"town":"白根","koaza":"","lat":37.765284,"lng":139.039993},{"town":"白根東町一丁目","koaza":"","lat":37.768867,"lng":139.023632},{"town":"白根魚町","koaza":"","lat":37.765626,"lng":139.014019},{"town":"白根水道町","koaza":"","lat":37.754343,"lng":139.011904},{"town":"白根ノ内七軒","koaza":"","lat":37.764259,"lng":139.023543},{"town":"白根日の出町","koaza":"","lat":37.755862,"lng":139.015199},{"town":"白根古川","koaza":"","lat":37.773996,"lng":139.034512},{"town":"白根四ツ興野","koaza":"","lat":37.773445,"lng":139.014425},{"town":"新生町一丁目","koaza":"","lat":37.750519,"lng":139.055929},{"town":"新生町二丁目","koaza":"","lat":37.750324,"lng":139.057277},{"town":"新生町三丁目","koaza":"","lat":37.75158,"lng":139.056567},{"town":"新山崎町一丁目","koaza":"","lat":37.808101,"lng":139.005992},{"town":"新山崎町二丁目","koaza":"","lat":37.808163,"lng":139.007436},{"town":"新山崎町三丁目","koaza":"","lat":37.809062,"lng":139.005794},{"town":"親和町","koaza":"","lat":37.766239,"lng":139.021101},{"town":"十五間","koaza":"","lat":37.780942,"lng":139.02427},{"town":"十五間","koaza":"堀東","lat":37.779321,"lng":139.018568},{"town":"十二道島","koaza":"","lat":37.73895,"lng":139.055949},{"town":"上下諏訪木","koaza":"","lat":37.760805,"lng":139.022737},{"town":"上下諏訪木","koaza":"論地","lat":37.759809,"lng":139.022615},{"town":"次郎右エ門興野","koaza":"","lat":37.743235,"lng":139.059274},{"town":"杉菜","koaza":"","lat":37.766139,"lng":139.022898},{"town":"助次右エ門組","koaza":"","lat":37.748478,"lng":139.02366},{"town":"蔵主","koaza":"","lat":37.741058,"lng":139.032215},{"town":"高井興野","koaza":"","lat":37.80007,"lng":139.021729},{"town":"高井東一丁目","koaza":"","lat":37.796484,"lng":139.016507},{"town":"高井東二丁目","koaza":"","lat":37.798517,"lng":139.017216},{"town":"高井東三丁目","koaza":"","lat":37.799286,"lng":139.01974},{"town":"田中","koaza":"","lat":37.75413,"lng":139.019448},{"town":"大郷","koaza":"","lat":37.805921,"lng":139.059321},{"town":"田尾","koaza":"","lat":37.746998,"lng":139.040769},{"town":"月潟","koaza":"","lat":37.728614,"lng":138.992812},{"town":"釣寄","koaza":"","lat":37.746004,"lng":138.975638},{"town":"釣寄新","koaza":"","lat":37.745512,"lng":138.980254},{"town":"戸石","koaza":"","lat":37.752399,"lng":139.061396},{"town":"戸頭","koaza":"","lat":37.743213,"lng":139.014138},{"town":"中小見","koaza":"","lat":37.773602,"lng":139.06765},{"town":"中塩俵","koaza":"","lat":37.829458,"lng":139.011651},{"town":"中山","koaza":"","lat":37.775111,"lng":139.050874},{"town":"七穂","koaza":"","lat":37.800311,"lng":138.994658},{"town":"鍋潟","koaza":"","lat":37.758035,"lng":139.040837},{"town":"新飯田","koaza":"","lat":37.692959,"lng":138.984673},{"town":"西笠巻","koaza":"","lat":37.797832,"lng":139.044329},{"town":"西笠巻新田","koaza":"","lat":37.805595,"lng":139.044473},{"town":"西萱場","koaza":"","lat":37.735573,"lng":138.997709},{"town":"西酒屋","koaza":"","lat":37.828528,"lng":139.055015},{"town":"西白根","koaza":"","lat":37.763532,"lng":139.00265},{"town":"根岸","koaza":"","lat":37.795671,"lng":139.02518},{"town":"能登","koaza":"","lat":37.768113,"lng":139.029386},{"town":"能登一丁目","koaza":"","lat":37.768679,"lng":139.013224},{"town":"能登二丁目","koaza":"","lat":37.768605,"lng":139.016001},{"town":"東笠巻","koaza":"","lat":37.816702,"lng":139.051176},{"town":"東笠巻新田","koaza":"","lat":37.816302,"lng":139.041525},{"town":"東萱場","koaza":"","lat":37.733625,"lng":139.009078},{"town":"東長嶋","koaza":"","lat":37.735237,"lng":138.984596},{"town":"菱潟","koaza":"","lat":37.725442,"lng":139.052201},{"town":"菱潟新田","koaza":"","lat":37.726132,"lng":139.044189},{"town":"引越","koaza":"","lat":37.78896,"lng":139.0354},{"town":"平潟","koaza":"","lat":37.736699,"lng":139.034682},{"town":"平潟新田","koaza":"","lat":37.736527,"lng":139.024555},{"town":"福島","koaza":"","lat":37.74299,"lng":138.973884},{"town":"古川新田","koaza":"","lat":37.702902,"lng":139.029161},{"town":"平成町","koaza":"","lat":37.753061,"lng":139.014461},{"town":"保坂","koaza":"","lat":37.788739,"lng":139.023189},{"town":"保坂","koaza":"岡下","lat":37.788887,"lng":139.019351},{"town":"堀掛","koaza":"","lat":37.779727,"lng":139.059725},{"town":"真木","koaza":"","lat":37.709022,"lng":139.024449},{"town":"松橋","koaza":"","lat":37.822871,"lng":139.006605},{"town":"万年","koaza":"","lat":37.736952,"lng":139.044618},{"town":"山崎興野","koaza":"","lat":37.809602,"lng":139.020672},{"town":"吉江","koaza":"","lat":37.794696,"lng":139.008814},{"town":"吉田新田","koaza":"","lat":37.798072,"lng":139.008273},{"town":"鷲ノ木新田","koaza":"","lat":37.834293,"lng":139.029255},{"town":"鷲ノ木新田","koaza":"諏訪木島","lat":37.836732,"lng":139.019967}]