[{"town":"秋穂西","koaza":"","lat":34.02895,"lng":131.440473},{"town":"秋穂東","koaza":"","lat":34.01481,"lng":131.452946},{"town":"秋穂二島","koaza":"","lat":34.043147,"lng":131.4189},{"town":"葵一丁目","koaza":"","lat":34.160606,"lng":131.450175},{"town":"葵二丁目","koaza":"","lat":34.162193,"lng":131.450567},{"town":"青葉台","koaza":"","lat":34.206388,"lng":131.504495},{"town":"赤妻町","koaza":"","lat":34.171304,"lng":131.446816},{"town":"朝倉町","koaza":"","lat":34.179891,"lng":131.448259},{"town":"朝田","koaza":"","lat":34.149879,"lng":131.41732},{"town":"旭通り一丁目","koaza":"","lat":34.170192,"lng":131.472521},{"town":"旭通り二丁目","koaza":"","lat":34.168331,"lng":131.474627},{"town":"阿知須","koaza":"","lat":34.016356,"lng":131.343505},{"town":"阿東生雲中","koaza":"","lat":34.361621,"lng":131.589582},{"town":"阿東生雲西分","koaza":"","lat":34.41096,"lng":131.63142},{"town":"阿東生雲東分","koaza":"","lat":34.337362,"lng":131.612711},{"town":"阿東嘉年上","koaza":"","lat":34.482285,"lng":131.665675},{"town":"阿東嘉年下","koaza":"","lat":34.44444,"lng":131.668344},{"town":"阿東篠目","koaza":"","lat":34.280764,"lng":131.554278},{"town":"阿東地福上","koaza":"","lat":34.378543,"lng":131.662224},{"town":"阿東地福下","koaza":"","lat":34.337531,"lng":131.653968},{"town":"阿東蔵目喜","koaza":"","lat":34.387344,"lng":131.568409},{"town":"阿東徳佐上","koaza":"","lat":34.409853,"lng":131.76154},{"town":"阿東徳佐下","koaza":"","lat":34.400992,"lng":131.693032},{"town":"阿東徳佐中","koaza":"","lat":34.405739,"lng":131.719278},{"town":"石観音町","koaza":"","lat":34.183467,"lng":131.483092},{"town":"維新公園一丁目","koaza":"","lat":34.162341,"lng":131.438065},{"town":"維新公園二丁目","koaza":"","lat":34.159224,"lng":131.442018},{"town":"維新公園三丁目","koaza":"","lat":34.154614,"lng":131.441232},{"town":"維新公園四丁目","koaza":"","lat":34.156309,"lng":131.437688},{"town":"維新公園五丁目","koaza":"","lat":34.161134,"lng":131.435111},{"town":"維新公園六丁目","koaza":"","lat":34.159075,"lng":131.434046},{"town":"泉町","koaza":"","lat":34.16769,"lng":131.450946},{"town":"今井町","koaza":"","lat":34.160731,"lng":131.458025},{"town":"後河原","koaza":"","lat":34.184096,"lng":131.47636},{"town":"駅通り一丁目","koaza":"","lat":34.173114,"lng":131.478558},{"town":"駅通り二丁目","koaza":"","lat":34.174831,"lng":131.479639},{"town":"江崎","koaza":"","lat":34.061834,"lng":131.354067},{"town":"江良一丁目","koaza":"","lat":34.190948,"lng":131.486784},{"town":"江良二丁目","koaza":"","lat":34.1932,"lng":131.483488},{"town":"江良三丁目","koaza":"","lat":34.193571,"lng":131.48603},{"town":"円政寺","koaza":"","lat":34.182045,"lng":131.481878},{"town":"円政寺町","koaza":"","lat":34.181007,"lng":131.482622},{"town":"大市町","koaza":"","lat":34.179131,"lng":131.48011},{"town":"大内長野","koaza":"","lat":34.160596,"lng":131.526461},{"town":"大内矢田","koaza":"","lat":34.145569,"lng":131.507015},{"town":"大内矢田北三丁目","koaza":"","lat":34.157043,"lng":131.504161},{"town":"大内矢田北四丁目","koaza":"","lat":34.155812,"lng":131.507479},{"town":"大内矢田北五丁目","koaza":"","lat":34.155175,"lng":131.510389},{"town":"大内矢田北六丁目","koaza":"","lat":34.153945,"lng":131.513502},{"town":"大内矢田南三丁目","koaza":"","lat":34.153563,"lng":131.50314},{"town":"大内矢田南四丁目","koaza":"","lat":34.152671,"lng":131.506458},{"town":"大内矢田南五丁目","koaza":"","lat":34.150465,"lng":131.503242},{"town":"大内矢田南六丁目","koaza":"","lat":34.147706,"lng":131.505488},{"town":"大内矢田南七丁目","koaza":"","lat":34.151992,"lng":131.510031},{"town":"大内矢田南八丁目","koaza":"","lat":34.151568,"lng":131.514115},{"town":"大手町","koaza":"","lat":34.183333,"lng":131.474152},{"town":"大殿大路","koaza":"","lat":34.183683,"lng":131.480562},{"town":"小郡維新町","koaza":"","lat":34.087362,"lng":131.399626},{"town":"小郡円座西町","koaza":"","lat":34.114899,"lng":131.38715},{"town":"小郡円座東町","koaza":"","lat":34.113761,"lng":131.389769},{"town":"小郡大江町","koaza":"","lat":34.093419,"lng":131.402951},{"town":"小郡尾崎町","koaza":"","lat":34.109141,"lng":131.395061},{"town":"小郡金堀町","koaza":"","lat":34.109953,"lng":131.390313},{"town":"小郡上郷","koaza":"","lat":34.134546,"lng":131.395526},{"town":"小郡給領町","koaza":"","lat":34.086366,"lng":131.402244},{"town":"小郡黄金町","koaza":"","lat":34.090418,"lng":131.398007},{"town":"小郡栄町","koaza":"","lat":34.088741,"lng":131.402883},{"town":"小郡三軒屋町","koaza":"","lat":34.087695,"lng":131.4039},{"town":"小郡下郷","koaza":"","lat":34.098978,"lng":131.392352},{"town":"小郡新町一丁目","koaza":"","lat":34.113173,"lng":131.398799},{"town":"小郡新町二丁目","koaza":"","lat":34.113918,"lng":131.394345},{"town":"小郡新町三丁目","koaza":"","lat":34.116225,"lng":131.394317},{"town":"小郡新町四丁目","koaza":"","lat":34.115386,"lng":131.399555},{"town":"小郡新町五丁目","koaza":"","lat":34.112707,"lng":131.402777},{"town":"小郡新町六丁目","koaza":"","lat":34.117716,"lng":131.400676},{"town":"小郡新町七丁目","koaza":"","lat":34.119277,"lng":131.39751},{"town":"小郡高砂町","koaza":"","lat":34.092605,"lng":131.400285},{"town":"小郡花園町","koaza":"","lat":34.088912,"lng":131.39612},{"town":"小郡光が丘","koaza":"","lat":34.123959,"lng":131.397471},{"town":"小郡平砂町","koaza":"","lat":34.088383,"lng":131.393445},{"town":"小郡船倉町","koaza":"","lat":34.092793,"lng":131.404764},{"town":"小郡平成町","koaza":"","lat":34.088321,"lng":131.401033},{"town":"小郡前田町","koaza":"","lat":34.086147,"lng":131.397809},{"town":"小郡真名","koaza":"","lat":34.132055,"lng":131.376701},{"town":"小郡緑町","koaza":"","lat":34.090864,"lng":131.401714},{"town":"小郡御幸町","koaza":"","lat":34.09339,"lng":131.398447},{"town":"小郡みらい町一丁目","koaza":"","lat":34.120115,"lng":131.402244},{"town":"小郡みらい町二丁目","koaza":"","lat":34.120907,"lng":131.399415},{"town":"小郡山手上町","koaza":"","lat":34.106609,"lng":131.392742},{"town":"小郡若草町","koaza":"","lat":34.085394,"lng":131.394907},{"town":"折本一丁目","koaza":"","lat":34.188659,"lng":131.496382},{"town":"折本二丁目","koaza":"","lat":34.191795,"lng":131.500766},{"town":"嘉川","koaza":"","lat":34.085941,"lng":131.369837},{"town":"春日町","koaza":"","lat":34.18228,"lng":131.471702},{"town":"金古曽町","koaza":"","lat":34.185695,"lng":131.485172},{"town":"上小鯖","koaza":"","lat":34.107999,"lng":131.504974},{"town":"上竪小路","koaza":"","lat":34.187272,"lng":131.47693},{"town":"上天花町","koaza":"","lat":34.210642,"lng":131.462008},{"town":"亀山町","koaza":"","lat":34.179808,"lng":131.473166},{"town":"神田町","koaza":"","lat":34.172889,"lng":131.45585},{"town":"木町","koaza":"","lat":34.19131,"lng":131.474258},{"town":"楠木町","koaza":"","lat":34.170923,"lng":131.4533},{"town":"久保小路","koaza":"","lat":34.180788,"lng":131.479018},{"town":"熊野町","koaza":"","lat":34.168792,"lng":131.461261},{"town":"黒川","koaza":"","lat":34.129471,"lng":131.450791},{"town":"香山町","koaza":"","lat":34.189231,"lng":131.473116},{"town":"黄金町","koaza":"","lat":34.171499,"lng":131.476774},{"town":"米屋町","koaza":"","lat":34.17696,"lng":131.477227},{"town":"幸町","koaza":"","lat":34.158695,"lng":131.450974},{"town":"桜畠一丁目","koaza":"","lat":34.191093,"lng":131.495492},{"town":"桜畠二丁目","koaza":"","lat":34.192819,"lng":131.499618},{"town":"桜畠三丁目","koaza":"","lat":34.194107,"lng":131.498567},{"town":"桜畠四丁目","koaza":"","lat":34.195992,"lng":131.500654},{"town":"桜畠五丁目","koaza":"","lat":34.194755,"lng":131.496088},{"town":"桜畠六丁目","koaza":"","lat":34.197634,"lng":131.495557},{"town":"三の宮一丁目","koaza":"","lat":34.187004,"lng":131.489386},{"town":"三の宮二丁目","koaza":"","lat":34.188607,"lng":131.492035},{"town":"三和町","koaza":"","lat":34.165971,"lng":131.468645},{"town":"芝崎町","koaza":"","lat":34.189274,"lng":131.488318},{"town":"下市町","koaza":"","lat":34.161994,"lng":131.459826},{"town":"下宇野令","koaza":"","lat":34.177421,"lng":131.446226},{"town":"下小鯖","koaza":"","lat":34.128129,"lng":131.546041},{"town":"下竪小路","koaza":"","lat":34.182752,"lng":131.479135},{"town":"諸願小路","koaza":"","lat":34.180249,"lng":131.479277},{"town":"白石一丁目","koaza":"","lat":34.177885,"lng":131.470549},{"town":"白石二丁目","koaza":"","lat":34.175978,"lng":131.469523},{"town":"新馬場","koaza":"","lat":34.18055,"lng":131.478232},{"town":"陶","koaza":"","lat":34.094675,"lng":131.428515},{"town":"鋳銭司","koaza":"","lat":34.086682,"lng":131.464519},{"town":"周布町","koaza":"","lat":34.160619,"lng":131.453825},{"town":"銭湯小路","koaza":"","lat":34.179961,"lng":131.478708},{"town":"泉都町","koaza":"","lat":34.166746,"lng":131.463266},{"town":"惣太夫町","koaza":"","lat":34.172244,"lng":131.481369},{"town":"宝町","koaza":"","lat":34.157343,"lng":131.447282},{"town":"滝町","koaza":"","lat":34.188476,"lng":131.465516},{"town":"中央一丁目","koaza":"","lat":34.177243,"lng":131.475702},{"town":"中央二丁目","koaza":"","lat":34.176544,"lng":131.473218},{"town":"中央三丁目","koaza":"","lat":34.17479,"lng":131.473082},{"town":"中央四丁目","koaza":"","lat":34.173554,"lng":131.469596},{"town":"中央五丁目","koaza":"","lat":34.17165,"lng":131.470364},{"town":"天花一丁目","koaza":"","lat":34.188281,"lng":131.479261},{"town":"天花二丁目","koaza":"","lat":34.192463,"lng":131.475684},{"town":"天花三丁目","koaza":"","lat":34.19639,"lng":131.473461},{"town":"道場門前一丁目","koaza":"","lat":34.175528,"lng":131.475233},{"town":"道場門前二丁目","koaza":"","lat":34.174389,"lng":131.476466},{"town":"道祖町","koaza":"","lat":34.182708,"lng":131.484108},{"town":"堂の前町","koaza":"","lat":34.17982,"lng":131.4815},{"town":"徳地伊賀地","koaza":"","lat":34.167661,"lng":131.634904},{"town":"徳地小古祖","koaza":"","lat":34.204228,"lng":131.670552},{"town":"徳地上村","koaza":"","lat":34.14921,"lng":131.71084},{"town":"徳地岸見","koaza":"","lat":34.154419,"lng":131.609425},{"town":"徳地串","koaza":"","lat":34.190658,"lng":131.718373},{"town":"徳地鯖河内","koaza":"","lat":34.208265,"lng":131.742277},{"town":"徳地島地","koaza":"","lat":34.163039,"lng":131.691881},{"town":"徳地野谷","koaza":"","lat":34.291552,"lng":131.64243},{"town":"徳地引谷","koaza":"","lat":34.221623,"lng":131.614918},{"town":"徳地深谷","koaza":"","lat":34.208028,"lng":131.695619},{"town":"徳地藤木","koaza":"","lat":34.147311,"lng":131.677254},{"town":"徳地船路","koaza":"","lat":34.262151,"lng":131.667884},{"town":"徳地堀","koaza":"","lat":34.189011,"lng":131.636608},{"town":"徳地三谷","koaza":"","lat":34.256,"lng":131.72347},{"town":"徳地八坂","koaza":"","lat":34.223144,"lng":131.664076},{"town":"徳地山畑","koaza":"","lat":34.177338,"lng":131.692815},{"town":"徳地柚木","koaza":"","lat":34.323701,"lng":131.708633},{"town":"富田原町","koaza":"","lat":34.1607,"lng":131.46399},{"town":"中市町","koaza":"","lat":34.178188,"lng":131.478555},{"town":"中尾","koaza":"","lat":34.201876,"lng":131.439961},{"town":"中河原","koaza":"","lat":34.179491,"lng":131.478028},{"town":"中河原町","koaza":"","lat":34.179105,"lng":131.476342},{"town":"中園町","koaza":"","lat":34.169043,"lng":131.46676},{"town":"名田島","koaza":"","lat":34.068819,"lng":131.414722},{"town":"七尾台","koaza":"","lat":34.192279,"lng":131.482221},{"town":"錦町","koaza":"","lat":34.174735,"lng":131.450284},{"town":"仁保上郷","koaza":"","lat":34.251473,"lng":131.590397},{"town":"仁保下郷","koaza":"","lat":34.190408,"lng":131.542502},{"town":"仁保中郷","koaza":"","lat":34.199314,"lng":131.576548},{"town":"野田","koaza":"","lat":34.185486,"lng":131.479897},{"town":"東山一丁目","koaza":"","lat":34.175963,"lng":131.48038},{"town":"東山二丁目","koaza":"","lat":34.176878,"lng":131.481894},{"town":"平井","koaza":"","lat":34.153714,"lng":131.463727},{"town":"平野一丁目","koaza":"","lat":34.193665,"lng":131.489074},{"town":"平野二丁目","koaza":"","lat":34.194175,"lng":131.490863},{"town":"平野三丁目","koaza":"","lat":34.194918,"lng":131.492232},{"town":"古熊一丁目","koaza":"","lat":34.176537,"lng":131.484317},{"town":"古熊二丁目","koaza":"","lat":34.180442,"lng":131.485021},{"town":"古熊三丁目","koaza":"","lat":34.184295,"lng":131.487509},{"town":"穂積町","koaza":"","lat":34.155127,"lng":131.455595},{"town":"本町一丁目","koaza":"","lat":34.173634,"lng":131.473236},{"town":"本町二丁目","koaza":"","lat":34.17219,"lng":131.473828},{"town":"前町","koaza":"","lat":34.162737,"lng":131.462359},{"town":"松美町","koaza":"","lat":34.164484,"lng":131.464716},{"town":"水の上町","koaza":"","lat":34.186665,"lng":131.473497},{"town":"緑ヶ丘","koaza":"","lat":34.195524,"lng":131.488054},{"town":"宮島町","koaza":"","lat":34.166775,"lng":131.479026},{"town":"宮野上","koaza":"","lat":34.216981,"lng":131.51365},{"town":"宮野下","koaza":"","lat":34.200894,"lng":131.502974},{"town":"元町","koaza":"","lat":34.170314,"lng":131.458428},{"town":"矢原","koaza":"","lat":34.150672,"lng":131.445939},{"town":"矢原町","koaza":"","lat":34.156503,"lng":131.452513},{"town":"八幡馬場","koaza":"","lat":34.185509,"lng":131.48227},{"town":"湯田温泉一丁目","koaza":"","lat":34.165043,"lng":131.459717},{"town":"湯田温泉二丁目","koaza":"","lat":34.163064,"lng":131.45629},{"town":"湯田温泉三丁目","koaza":"","lat":34.166415,"lng":131.458147},{"town":"湯田温泉四丁目","koaza":"","lat":34.164572,"lng":131.454854},{"town":"湯田温泉五丁目","koaza":"","lat":34.168171,"lng":131.456286},{"town":"湯田温泉六丁目","koaza":"","lat":34.166359,"lng":131.453255},{"town":"吉敷","koaza":"","lat":34.183545,"lng":131.41196},{"town":"吉敷赤田一丁目","koaza":"","lat":34.171733,"lng":131.430451},{"town":"吉敷赤田二丁目","koaza":"","lat":34.172464,"lng":131.433472},{"town":"吉敷赤田三丁目","koaza":"","lat":34.176776,"lng":131.432151},{"town":"吉敷赤田四丁目","koaza":"","lat":34.176162,"lng":131.429112},{"town":"吉敷赤田五丁目","koaza":"","lat":34.182066,"lng":131.429058},{"town":"吉敷上東一丁目","koaza":"","lat":34.172546,"lng":131.440882},{"town":"吉敷上東二丁目","koaza":"","lat":34.171316,"lng":131.439274},{"town":"吉敷上東三丁目","koaza":"","lat":34.168633,"lng":131.434163},{"town":"吉敷佐畑一丁目","koaza":"","lat":34.165519,"lng":131.434393},{"town":"吉敷佐畑二丁目","koaza":"","lat":34.168573,"lng":131.431656},{"town":"吉敷佐畑三丁目","koaza":"","lat":34.164793,"lng":131.430308},{"town":"吉敷佐畑四丁目","koaza":"","lat":34.168481,"lng":131.428686},{"town":"吉敷佐畑五丁目","koaza":"","lat":34.164581,"lng":131.426386},{"town":"吉敷佐畑六丁目","koaza":"","lat":34.165682,"lng":131.420795},{"town":"吉敷下東一丁目","koaza":"","lat":34.164494,"lng":131.446314},{"town":"吉敷下東二丁目","koaza":"","lat":34.163114,"lng":131.448832},{"town":"吉敷下東三丁目","koaza":"","lat":34.159274,"lng":131.445147},{"town":"吉敷下東四丁目","koaza":"","lat":34.161154,"lng":131.442837},{"town":"吉敷中東一丁目","koaza":"","lat":34.168262,"lng":131.444779},{"town":"吉敷中東二丁目","koaza":"","lat":34.166761,"lng":131.44339},{"town":"吉敷中東三丁目","koaza":"","lat":34.166064,"lng":131.439645},{"town":"吉敷中東四丁目","koaza":"","lat":34.163986,"lng":131.441028},{"town":"若宮町","koaza":"","lat":34.158729,"lng":131.455863},{"town":"鰐石町","koaza":"","lat":34.169588,"lng":131.477798},{"town":"大内氷上二丁目","koaza":"","lat":34.160862,"lng":131.498136},{"town":"大内氷上七丁目","koaza":"","lat":34.161642,"lng":131.505708},{"town":"大内矢田北二丁目","koaza":"","lat":34.159801,"lng":131.505386},{"town":"大内氷上六丁目","koaza":"","lat":34.164769,"lng":131.504162},{"town":"大内氷上三丁目","koaza":"","lat":34.162441,"lng":131.495486},{"town":"大内氷上四丁目","koaza":"","lat":34.163885,"lng":131.497648},{"town":"大内氷上五丁目","koaza":"","lat":34.164982,"lng":131.500138},{"town":"大内小京都","koaza":"","lat":34.152645,"lng":131.479741},{"town":"大内姫山台","koaza":"","lat":34.157699,"lng":131.477763},{"town":"深溝","koaza":"","lat":34.046693,"lng":131.37302},{"town":"佐山","koaza":"","lat":34.042114,"lng":131.346696},{"town":"吉田","koaza":"","lat":34.139794,"lng":131.471825},{"town":"大内矢田北一丁目","koaza":"","lat":34.157834,"lng":131.500748},{"town":"大内矢田南一丁目","koaza":"","lat":34.154265,"lng":131.499464},{"town":"大内氷上一丁目","koaza":"","lat":34.158583,"lng":131.496617},{"town":"大内中央一丁目","koaza":"","lat":34.155483,"lng":131.495747},{"town":"大内矢田南二丁目","koaza":"","lat":34.150847,"lng":131.497985},{"town":"大内千坊六丁目","koaza":"","lat":34.160411,"lng":131.491764},{"town":"白石三丁目","koaza":"","lat":34.179356,"lng":131.467719},{"town":"緑町","koaza":"","lat":34.171021,"lng":131.464772},{"town":"荻町","koaza":"","lat":34.173078,"lng":131.458657},{"town":"糸米一丁目","koaza":"","lat":34.174578,"lng":131.465429},{"town":"上宇野令","koaza":"","lat":34.207599,"lng":131.46137},{"town":"糸米二丁目","koaza":"","lat":34.176035,"lng":131.462268},{"town":"大内千坊二丁目","koaza":"","lat":34.161815,"lng":131.485539},{"town":"大内問田一丁目","koaza":"","lat":34.157861,"lng":131.481889},{"town":"大内問田三丁目","koaza":"","lat":34.152409,"lng":131.484081},{"town":"大内問田五丁目","koaza":"","lat":34.14969,"lng":131.484595},{"town":"大内千坊五丁目","koaza":"","lat":34.156682,"lng":131.491383},{"town":"大内問田四丁目","koaza":"","lat":34.15157,"lng":131.487639},{"town":"大内中央二丁目","koaza":"","lat":34.153274,"lng":131.494372},{"town":"大内御堀","koaza":"","lat":34.138813,"lng":131.497377},{"town":"大内千坊一丁目","koaza":"","lat":34.162578,"lng":131.480667},{"town":"大内問田二丁目","koaza":"","lat":34.158416,"lng":131.484284},{"town":"大内千坊三丁目","koaza":"","lat":34.158515,"lng":131.487328},{"town":"大内千坊四丁目","koaza":"","lat":34.154326,"lng":131.489799},{"town":"大内御堀一丁目","koaza":"","lat":34.168263,"lng":131.485244},{"town":"大内御堀二丁目","koaza":"","lat":34.168285,"lng":131.487491},{"town":"大内御堀三丁目","koaza":"","lat":34.16911,"lng":131.491154},{"town":"大内御堀四丁目","koaza":"","lat":34.166376,"lng":131.489811},{"town":"大内御堀五丁目","koaza":"","lat":34.164808,"lng":131.488056},{"town":"大内御堀六丁目","koaza":"","lat":34.164786,"lng":131.484925},{"town":"小郡かぜの丘","koaza":"","lat":34.123695,"lng":131.401958},{"town":"阿知須","koaza":"青畑","lat":34.004542,"lng":131.297955},{"town":"阿知須","koaza":"源河","lat":34.016772,"lng":131.319915},{"town":"阿知須","koaza":"引野","lat":34.006465,"lng":131.326995},{"town":"阿知須","koaza":"河内","lat":34.021658,"lng":131.335565},{"town":"阿知須","koaza":"杖川","lat":34.011108,"lng":131.330988},{"town":"阿知須","koaza":"向井関","lat":34.004735,"lng":131.330965},{"town":"阿知須","koaza":"野口","lat":34.01282,"lng":131.333902},{"town":"阿知須","koaza":"仙在","lat":34.004097,"lng":131.33695},{"town":"阿知須","koaza":"井関","lat":34.009485,"lng":131.338206},{"town":"阿知須","koaza":"赤迫","lat":34.007803,"lng":131.341706},{"town":"阿知須","koaza":"岡区","lat":34.013731,"lng":131.342743},{"town":"阿知須","koaza":"浜表","lat":34.011139,"lng":131.345195},{"town":"阿知須","koaza":"旦西区","lat":34.017914,"lng":131.345884},{"town":"阿知須","koaza":"沖の原","lat":34.014522,"lng":131.351118},{"town":"阿知須","koaza":"旦門松区","lat":34.018995,"lng":131.349361},{"town":"阿知須","koaza":"旦北区","lat":34.021803,"lng":131.353},{"town":"阿知須","koaza":"西祝区","lat":34.004446,"lng":131.353557},{"town":"阿知須","koaza":"旦東区","lat":34.019484,"lng":131.353463},{"town":"阿知須","koaza":"岩倉西区","lat":34.024544,"lng":131.354527},{"town":"阿知須","koaza":"浜","lat":34.00956,"lng":131.357136},{"town":"阿知須","koaza":"南祝","lat":34.004558,"lng":131.357575},{"town":"阿知須","koaza":"岩倉西前","lat":34.020687,"lng":131.356946},{"town":"阿知須","koaza":"岩倉上区","lat":34.025118,"lng":131.357388},{"town":"阿知須","koaza":"岩倉前区","lat":34.020565,"lng":131.361193},{"town":"阿知須","koaza":"寺河内","lat":34.008235,"lng":131.358644},{"town":"阿知須","koaza":"岩倉辻区","lat":34.02667,"lng":131.361794},{"town":"阿知須","koaza":"北祝","lat":34.006943,"lng":131.359258},{"town":"阿知須","koaza":"小古郷西区","lat":34.00434,"lng":131.360405},{"town":"阿知須","koaza":"西条","lat":34.009473,"lng":131.360503},{"town":"阿知須","koaza":"中村","lat":34.007853,"lng":131.360669},{"town":"阿知須","koaza":"東","lat":34.006802,"lng":131.360643},{"town":"阿知須","koaza":"恵比須","lat":34.00571,"lng":131.361221},{"town":"阿知須","koaza":"小古郷東区","lat":34.004259,"lng":131.36136},{"town":"阿知須","koaza":"縄田北区","lat":34.007798,"lng":131.362478},{"town":"阿知須","koaza":"砂郷二区","lat":34.009991,"lng":131.361941},{"town":"阿知須","koaza":"築地","lat":34.005621,"lng":131.362033},{"town":"阿知須","koaza":"縄田南区","lat":34.007167,"lng":131.362454},{"town":"阿知須","koaza":"小古郷南区","lat":34.000346,"lng":131.363935},{"town":"阿知須","koaza":"砂郷三区","lat":34.012454,"lng":131.363336},{"town":"阿知須","koaza":"砂郷一区","lat":34.009743,"lng":131.363552},{"town":"小郡下郷","koaza":"山手","lat":34.102689,"lng":131.393632},{"town":"小郡上郷","koaza":"仁保津","lat":34.126444,"lng":131.412319},{"town":"朝田","koaza":"下郷田","lat":34.144768,"lng":131.424752},{"town":"黒川","koaza":"采女","lat":34.137267,"lng":131.436948},{"town":"小郡令和三丁目","koaza":"","lat":null,"lng":null},{"town":"小郡大正町","koaza":"","lat":null,"lng":null},{"town":"小郡長谷一丁目","koaza":"","lat":null,"lng":null},{"town":"小郡明治一丁目","koaza":"","lat":null,"lng":null},{"town":"小郡明治二丁目","koaza":"","lat":null,"lng":null}]