[{"town":"大字上田布施","koaza":"","lat":33.940567,"lng":132.005376},{"town":"大字下田布施","koaza":"","lat":33.952414,"lng":132.030035},{"town":"大字別府","koaza":"","lat":33.91756,"lng":132.026786},{"town":"大字大波野","koaza":"","lat":33.976632,"lng":132.054699},{"town":"大字宿井","koaza":"","lat":33.973914,"lng":132.020782},{"town":"大字川西","koaza":"","lat":33.96246,"lng":132.009087},{"town":"大字波野","koaza":"","lat":33.969087,"lng":132.042663},{"town":"大字馬島","koaza":"","lat":33.89392,"lng":132.048805},{"town":"大字麻郷","koaza":"","lat":33.93198,"lng":132.044786},{"town":"大字麻郷奥","koaza":"","lat":33.940056,"lng":132.037518},{"town":"楠","koaza":"","lat":33.935856,"lng":132.026774},{"town":"麻郷団地","koaza":"","lat":33.935885,"lng":132.049579},{"town":"中央南","koaza":"","lat":33.951859,"lng":132.044238}]