[{"town":"相生一丁目","lat":"35.295331","lng":"136.816885"},{"town":"相生二丁目","lat":"35.295237","lng":"136.818274"},{"town":"赤見一丁目","lat":"35.302299","lng":"136.822643"},{"town":"赤見二丁目","lat":"35.305112","lng":"136.822423"},{"town":"赤見三丁目","lat":"35.308050","lng":"136.821604"},{"town":"赤見四丁目","lat":"35.310188","lng":"136.821153"},{"town":"浅井町江森","lat":"35.336457","lng":"136.820459"},{"town":"浅井町大野","lat":"35.353766","lng":"136.822582"},{"town":"浅井町大日比野","lat":"35.342230","lng":"136.821726"},{"town":"浅井町尾関","lat":"35.348453","lng":"136.825916"},{"town":"浅井町黒岩","lat":"35.353369","lng":"136.833877"},{"town":"浅井町河田","lat":"35.353955","lng":"136.828514"},{"town":"浅井町河端","lat":"35.335884","lng":"136.832810"},{"town":"浅井町極楽寺","lat":"35.355974","lng":"136.816798"},{"town":"浅井町小日比野","lat":"35.342572","lng":"136.835585"},{"town":"浅井町西浅井","lat":"35.330050","lng":"136.819466"},{"town":"浅井町西海戸","lat":"35.336403","lng":"136.827772"},{"town":"浅井町東浅井","lat":"35.330581","lng":"136.825999"},{"town":"浅井町前野","lat":"35.344503","lng":"136.829628"},{"town":"浅野","lat":"35.294070","lng":"136.828577"},{"town":"朝日一丁目","lat":"35.307836","lng":"136.815434"},{"town":"朝日二丁目","lat":"35.307472","lng":"136.818443"},{"town":"朝日三丁目","lat":"35.309933","lng":"136.818178"},{"town":"あずら一丁目","lat":"35.283918","lng":"136.822874"},{"town":"あずら二丁目","lat":"35.283635","lng":"136.825712"},{"town":"あずら三丁目","lat":"35.280395","lng":"136.821741"},{"town":"一色町","lat":"35.309890","lng":"136.786835"},{"town":"石山町","lat":"35.297976","lng":"136.804360"},{"town":"泉一丁目","lat":"35.302572","lng":"136.808071"},{"town":"泉二丁目","lat":"35.302315","lng":"136.809926"},{"town":"泉三丁目","lat":"35.301795","lng":"136.811869"},{"town":"一宮","lat":"35.324129","lng":"136.805540"},{"town":"乾町","lat":"35.325553","lng":"136.802120"},{"town":"今伊勢町馬寄","lat":"35.326821","lng":"136.788815"},{"town":"今伊勢町新神戸","lat":"35.314447","lng":"136.789573"},{"town":"今伊勢町本神戸","lat":"35.317335","lng":"136.796539"},{"town":"今伊勢町宮後","lat":"35.317490","lng":"136.785270"},{"town":"印田通二丁目","lat":"35.298733","lng":"136.813346"},{"town":"印田通三丁目","lat":"35.297639","lng":"136.813169"},{"town":"印田通四丁目","lat":"35.296235","lng":"136.812308"},{"town":"印田通五丁目","lat":"35.294991","lng":"136.811442"},{"town":"牛野通一丁目","lat":"35.290957","lng":"136.805171"},{"town":"牛野通二丁目","lat":"35.289556","lng":"136.806967"},{"town":"牛野通三丁目","lat":"35.287505","lng":"136.807980"},{"town":"牛野通四丁目","lat":"35.285199","lng":"136.807997"},{"town":"大赤見","lat":"35.311225","lng":"136.824634"},{"town":"大江一丁目","lat":"35.304450","lng":"136.805551"},{"town":"大江二丁目","lat":"35.303200","lng":"136.805209"},{"town":"大江三丁目","lat":"35.301964","lng":"136.805016"},{"town":"大毛","lat":"35.343289","lng":"136.802506"},{"town":"大浜一丁目","lat":"35.308755","lng":"136.809286"},{"town":"大浜二丁目","lat":"35.309406","lng":"136.810492"},{"town":"大宮一丁目","lat":"35.307330","lng":"136.799397"},{"town":"大宮二丁目","lat":"35.309194","lng":"136.799622"},{"town":"大宮三丁目","lat":"35.310744","lng":"136.799928"},{"town":"大宮四丁目","lat":"35.312558","lng":"136.800292"},{"town":"大宮五丁目","lat":"35.314048","lng":"136.802252"},{"town":"奥町","lat":"35.327706","lng":"136.760436"},{"town":"小栗町","lat":"35.324194","lng":"136.801286"},{"town":"起","lat":"35.310066","lng":"136.738375"},{"town":"音羽一丁目","lat":"35.307476","lng":"136.796384"},{"town":"音羽二丁目","lat":"35.309178","lng":"136.795981"},{"town":"音羽三丁目","lat":"35.311329","lng":"136.795652"},{"town":"小原町","lat":"35.320848","lng":"136.816860"},{"town":"開明","lat":"35.316697","lng":"136.765814"},{"town":"篭屋一丁目","lat":"35.309147","lng":"136.767092"},{"town":"篭屋二丁目","lat":"35.309247","lng":"136.769920"},{"town":"篭屋三丁目","lat":"35.308925","lng":"136.772709"},{"town":"篭屋四丁目","lat":"35.305758","lng":"136.771463"},{"town":"篭屋五丁目","lat":"35.305884","lng":"136.767291"},{"town":"上祖父江","lat":"35.276897","lng":"136.718220"},{"town":"神山一丁目","lat":"35.303110","lng":"136.792277"},{"town":"神山二丁目","lat":"35.303716","lng":"136.787923"},{"town":"神山三丁目","lat":"35.304043","lng":"136.784352"},{"town":"苅安賀一丁目","lat":"35.293098","lng":"136.782279"},{"town":"苅安賀二丁目","lat":"35.290208","lng":"136.784208"},{"town":"川田町五丁目","lat":"35.298033","lng":"136.805978"},{"town":"観音寺一丁目","lat":"35.288980","lng":"136.788423"},{"town":"観音寺二丁目","lat":"35.289027","lng":"136.785918"},{"town":"観音町","lat":"35.314260","lng":"136.815270"},{"town":"神戸町","lat":"35.311631","lng":"136.791229"},{"town":"木曽川町内割田","lat":"35.338467","lng":"136.777362"},{"town":"木曽川町門間","lat":"35.335286","lng":"136.790993"},{"town":"木曽川町黒田","lat":"35.343121","lng":"136.785526"},{"town":"木曽川町里小牧","lat":"35.349024","lng":"136.762919"},{"town":"木曽川町外割田","lat":"35.337952","lng":"136.771028"},{"town":"木曽川町玉ノ井","lat":"35.336772","lng":"136.758518"},{"town":"木曽川町三ツ法寺","lat":"35.331915","lng":"136.766683"},{"town":"北今","lat":"35.293834","lng":"136.754837"},{"town":"北浦町","lat":"35.311553","lng":"136.786737"},{"town":"北小渕","lat":"35.305988","lng":"136.837239"},{"town":"北方町北方","lat":"35.361475","lng":"136.782414"},{"town":"北方町曽根","lat":"35.353332","lng":"136.781399"},{"town":"北方町中島","lat":"35.358081","lng":"136.769875"},{"town":"北神明町一丁目","lat":"35.320759","lng":"136.803642"},{"town":"北神明町二丁目","lat":"35.322036","lng":"136.803909"},{"town":"北神明町三丁目","lat":"35.323619","lng":"136.804061"},{"town":"北神明町四丁目","lat":"35.325474","lng":"136.805125"},{"town":"北園通一丁目","lat":"35.296616","lng":"136.800655"},{"town":"北園通二丁目","lat":"35.296579","lng":"136.802206"},{"town":"北園通三丁目","lat":"35.296811","lng":"136.804451"},{"town":"北園通四丁目","lat":"35.296920","lng":"136.806169"},{"town":"北園通五丁目","lat":"35.296853","lng":"136.807943"},{"town":"北園通六丁目","lat":"35.296197","lng":"136.809686"},{"town":"北園通七丁目","lat":"35.297017","lng":"136.811864"},{"town":"貴船一丁目","lat":"35.311039","lng":"136.809049"},{"town":"貴船二丁目","lat":"35.313002","lng":"136.809566"},{"town":"貴船町三丁目","lat":"35.314000","lng":"136.811116"},{"town":"貴船町四丁目","lat":"35.315139","lng":"136.811911"},{"town":"九品町三丁目","lat":"35.315334","lng":"136.805900"},{"town":"九品町四丁目","lat":"35.316671","lng":"136.806403"},{"town":"小赤見","lat":"35.309758","lng":"136.832373"},{"town":"公園通三丁目","lat":"35.297571","lng":"136.803222"},{"town":"公園通四丁目","lat":"35.295818","lng":"136.803747"},{"town":"公園通五丁目","lat":"35.294490","lng":"136.803981"},{"town":"公園通六丁目","lat":"35.293313","lng":"136.804461"},{"town":"光明寺","lat":"35.354451","lng":"136.803085"},{"town":"古金町一丁目","lat":"35.299371","lng":"136.810398"},{"town":"古金町二丁目","lat":"35.298000","lng":"136.810841"},{"town":"古見町","lat":"35.317974","lng":"136.820480"},{"town":"小信中島","lat":"35.315014","lng":"136.744770"},{"town":"栄一丁目","lat":"35.304919","lng":"136.799102"},{"town":"栄二丁目","lat":"35.304958","lng":"136.796906"},{"town":"栄三丁目","lat":"35.301611","lng":"136.797747"},{"town":"栄四丁目","lat":"35.299953","lng":"136.799310"},{"town":"桜一丁目","lat":"35.305877","lng":"136.806570"},{"town":"桜二丁目","lat":"35.307509","lng":"136.806719"},{"town":"桜三丁目","lat":"35.308745","lng":"136.807237"},{"town":"笹野","lat":"35.350408","lng":"136.813995"},{"town":"佐千原","lat":"35.326401","lng":"136.810895"},{"town":"更屋敷","lat":"35.355770","lng":"136.790724"},{"town":"猿海道一丁目","lat":"35.285408","lng":"136.817149"},{"town":"猿海道二丁目","lat":"35.284161","lng":"136.820475"},{"town":"猿海道三丁目","lat":"35.282389","lng":"136.818284"},{"town":"三条","lat":"35.306926","lng":"136.761179"},{"town":"三丹町","lat":"35.320630","lng":"136.801823"},{"town":"島崎一丁目","lat":"35.284158","lng":"136.829085"},{"town":"島崎二丁目","lat":"35.281171","lng":"136.829619"},{"town":"島村","lat":"35.340473","lng":"136.811269"},{"town":"下川田町一丁目","lat":"35.291525","lng":"136.807332"},{"town":"下川田町二丁目","lat":"35.290230","lng":"136.808467"},{"town":"下川田町三丁目","lat":"35.288956","lng":"136.809172"},{"town":"下川田町四丁目","lat":"35.287285","lng":"136.809569"},{"town":"下川田町五丁目","lat":"35.284792","lng":"136.808995"},{"town":"下田一丁目","lat":"35.295017","lng":"136.813699"},{"town":"下田二丁目","lat":"35.294714","lng":"136.815189"},{"town":"下沼町一丁目","lat":"35.311899","lng":"136.812497"},{"town":"下沼町二丁目","lat":"35.312598","lng":"136.813718"},{"town":"下沼町三丁目","lat":"35.313106","lng":"136.815536"},{"town":"下沼町四丁目","lat":"35.313518","lng":"136.817429"},{"town":"春明","lat":"35.320426","lng":"136.846276"},{"town":"常願通一丁目","lat":"35.318319","lng":"136.803679"},{"town":"常願通二丁目","lat":"35.317797","lng":"136.805802"},{"town":"常願通三丁目","lat":"35.317329","lng":"136.807608"},{"town":"常願通四丁目","lat":"35.316794","lng":"136.809733"},{"town":"常願通五丁目","lat":"35.316351","lng":"136.811445"},{"town":"常願通六丁目","lat":"35.315852","lng":"136.813157"},{"town":"常願通七丁目","lat":"35.315825","lng":"136.814454"},{"town":"常願通八丁目","lat":"35.314931","lng":"136.817778"},{"town":"常願通九丁目","lat":"35.314575","lng":"136.819581"},{"town":"定水寺","lat":"35.312034","lng":"136.839283"},{"town":"昭和一丁目","lat":"35.294092","lng":"136.792267"},{"town":"昭和二丁目","lat":"35.292085","lng":"136.788536"},{"town":"昭和三丁目","lat":"35.291055","lng":"136.784896"},{"town":"城崎通四丁目","lat":"35.300704","lng":"136.807681"},{"town":"城崎通五丁目","lat":"35.300575","lng":"136.809077"},{"town":"城崎通六丁目","lat":"35.300359","lng":"136.810519"},{"town":"城崎通七丁目","lat":"35.300037","lng":"136.812959"},{"town":"白旗通一丁目","lat":"35.299048","lng":"136.814970"},{"town":"白旗通二丁目","lat":"35.298599","lng":"136.816130"},{"town":"白旗通三丁目","lat":"35.298230","lng":"136.817303"},{"town":"白旗通四丁目","lat":"35.297872","lng":"136.818499"},{"town":"新生一丁目","lat":"35.302103","lng":"136.795834"},{"town":"新生二丁目","lat":"35.299631","lng":"136.796253"},{"town":"新生三丁目","lat":"35.297643","lng":"136.796343"},{"town":"新生四丁目","lat":"35.295896","lng":"136.795767"},{"town":"末広一丁目","lat":"35.295818","lng":"136.792138"},{"town":"末広二丁目","lat":"35.295176","lng":"136.788243"},{"town":"末広三丁目","lat":"35.294510","lng":"136.784974"},{"town":"杉山","lat":"35.347344","lng":"136.808124"},{"town":"住吉一丁目","lat":"35.298858","lng":"136.787998"},{"town":"住吉二丁目","lat":"35.298517","lng":"136.784815"},{"town":"瀬部","lat":"35.333879","lng":"136.839715"},{"town":"せんい一丁目","lat":"35.288561","lng":"136.820842"},{"town":"せんい二丁目","lat":"35.288790","lng":"136.823341"},{"town":"せんい三丁目","lat":"35.288568","lng":"136.825362"},{"town":"せんい四丁目","lat":"35.287967","lng":"136.827024"},{"town":"大志一丁目","lat":"35.299948","lng":"136.803835"},{"town":"大志二丁目","lat":"35.299899","lng":"136.805840"},{"town":"大正通一丁目","lat":"35.311965","lng":"136.792744"},{"town":"多加木一丁目","lat":"35.282771","lng":"136.812644"},{"town":"多加木二丁目","lat":"35.278437","lng":"136.811747"},{"town":"多加木三丁目","lat":"35.280103","lng":"136.813594"},{"town":"多加木四丁目","lat":"35.280720","lng":"136.816861"},{"town":"多加木五丁目","lat":"35.277529","lng":"136.817466"},{"town":"高田","lat":"35.336008","lng":"136.802815"},{"town":"高畑町一丁目","lat":"35.317821","lng":"136.811057"},{"town":"高畑町二丁目","lat":"35.319497","lng":"136.811639"},{"town":"高畑町三丁目","lat":"35.321500","lng":"136.812790"},{"town":"竹橋町","lat":"35.301701","lng":"136.774597"},{"town":"田島町","lat":"35.316110","lng":"136.819525"},{"town":"田所","lat":"35.347251","lng":"136.795649"},{"town":"玉野","lat":"35.266648","lng":"136.744162"},{"town":"丹陽町重吉","lat":"35.284057","lng":"136.841898"},{"town":"丹陽町多加木","lat":"35.282269","lng":"136.809461"},{"town":"丹陽町外崎","lat":"35.279230","lng":"136.827716"},{"town":"丹陽町三ツ井","lat":"35.277716","lng":"136.842318"},{"town":"丹陽町森本","lat":"35.291151","lng":"136.808853"},{"town":"千秋町浅野羽根","lat":"35.290764","lng":"136.841428"},{"town":"千秋町一色","lat":"35.307794","lng":"136.854725"},{"town":"千秋町浮野","lat":"35.306923","lng":"136.847960"},{"town":"千秋町小山","lat":"35.286960","lng":"136.854397"},{"town":"千秋町勝栗","lat":"35.312620","lng":"136.858105"},{"town":"千秋町加納馬場","lat":"35.304573","lng":"136.867527"},{"town":"千秋町加茂","lat":"35.316057","lng":"136.851654"},{"town":"千秋町佐野","lat":"35.300212","lng":"136.853961"},{"town":"千秋町塩尻","lat":"35.284864","lng":"136.852097"},{"town":"千秋町芝原","lat":"35.298319","lng":"136.865298"},{"town":"千秋町天摩","lat":"35.295348","lng":"136.852901"},{"town":"千秋町穂積塚本","lat":"35.307481","lng":"136.858911"},{"town":"千秋町町屋","lat":"35.290101","lng":"136.860915"},{"town":"寺島町一丁目","lat":"35.313642","lng":"136.812919"},{"town":"寺島町二丁目","lat":"35.314750","lng":"136.813352"},{"town":"寺前町","lat":"35.299425","lng":"136.772940"},{"town":"天王一丁目","lat":"35.307240","lng":"136.793433"},{"town":"天王二丁目","lat":"35.309453","lng":"136.792484"},{"town":"天王三丁目","lat":"35.309535","lng":"136.790264"},{"town":"天王四丁目","lat":"35.309281","lng":"136.788168"},{"town":"時之島","lat":"35.323785","lng":"136.833945"},{"town":"殿町一丁目","lat":"35.295630","lng":"136.802233"},{"town":"殿町二丁目","lat":"35.294094","lng":"136.802123"},{"town":"殿町三丁目","lat":"35.292706","lng":"136.802747"},{"town":"冨田","lat":"35.298428","lng":"136.733524"},{"town":"富塚","lat":"35.332102","lng":"136.811073"},{"town":"長島町一丁目","lat":"35.318725","lng":"136.807190"},{"town":"長島町二丁目","lat":"35.320306","lng":"136.807788"},{"town":"長島町三丁目","lat":"35.321881","lng":"136.808559"},{"town":"長島町四丁目","lat":"35.323197","lng":"136.808996"},{"town":"長島町五丁目","lat":"35.323951","lng":"136.809924"},{"town":"中島通一丁目","lat":"35.318086","lng":"136.809094"},{"town":"中島通二丁目","lat":"35.319817","lng":"136.809739"},{"town":"中島通三丁目","lat":"35.321194","lng":"136.809948"},{"town":"中島通四丁目","lat":"35.321962","lng":"136.810810"},{"town":"中島通五丁目","lat":"35.323556","lng":"136.811830"},{"town":"中町一丁目","lat":"35.296872","lng":"136.799084"},{"town":"中町二丁目","lat":"35.292971","lng":"136.800594"},{"town":"西五城","lat":"35.299930","lng":"136.741661"},{"town":"西大海道","lat":"35.317266","lng":"136.835821"},{"town":"西小原町","lat":"35.321536","lng":"136.815320"},{"town":"西島町一丁目","lat":"35.319278","lng":"136.805192"},{"town":"西島町二丁目","lat":"35.320914","lng":"136.805563"},{"town":"西島町三丁目","lat":"35.322486","lng":"136.806384"},{"town":"西島町四丁目","lat":"35.323761","lng":"136.806984"},{"town":"西島町五丁目","lat":"35.325228","lng":"136.807450"},{"town":"西出町","lat":"35.310603","lng":"136.784087"},{"town":"西中野","lat":"35.278584","lng":"136.710266"},{"town":"西萩原","lat":"35.290440","lng":"136.748112"},{"town":"日光町","lat":"35.301846","lng":"136.778508"},{"town":"丹羽","lat":"35.321106","lng":"136.821144"},{"town":"野口一丁目","lat":"35.300075","lng":"136.791970"},{"town":"野口二丁目","lat":"35.298195","lng":"136.792014"},{"town":"萩原町朝宮","lat":"35.290280","lng":"136.758952"},{"town":"萩原町河田方","lat":"35.281123","lng":"136.770207"},{"town":"萩原町串作","lat":"35.277449","lng":"136.757932"},{"town":"萩原町高木","lat":"35.271735","lng":"136.767036"},{"town":"萩原町高松","lat":"35.270620","lng":"136.758524"},{"town":"萩原町滝","lat":"35.272983","lng":"136.760042"},{"town":"萩原町築込","lat":"35.268252","lng":"136.754865"},{"town":"萩原町戸苅","lat":"35.272781","lng":"136.750820"},{"town":"萩原町富田方","lat":"35.288313","lng":"136.766038"},{"town":"萩原町中島","lat":"35.267812","lng":"136.774685"},{"town":"萩原町西御堂","lat":"35.263713","lng":"136.769984"},{"town":"萩原町西宮重","lat":"35.275106","lng":"136.772542"},{"town":"萩原町萩原","lat":"35.284300","lng":"136.759815"},{"town":"萩原町花井方","lat":"35.296549","lng":"136.766095"},{"town":"萩原町林野","lat":"35.281894","lng":"136.776019"},{"town":"萩原町東宮重","lat":"35.273536","lng":"136.778950"},{"town":"羽衣一丁目","lat":"35.305154","lng":"136.809097"},{"town":"羽衣二丁目","lat":"35.304733","lng":"136.811690"},{"town":"蓮池","lat":"35.292044","lng":"136.740226"},{"town":"八幡一丁目","lat":"35.304922","lng":"136.795026"},{"town":"八幡二丁目","lat":"35.305008","lng":"136.792740"},{"town":"八幡三丁目","lat":"35.306287","lng":"136.792052"},{"town":"八幡四丁目","lat":"35.306549","lng":"136.788827"},{"town":"八幡五丁目","lat":"35.307038","lng":"136.785738"},{"town":"八町通一丁目","lat":"35.291671","lng":"136.803263"},{"town":"八町通二丁目","lat":"35.292377","lng":"136.805785"},{"town":"花池一丁目","lat":"35.293411","lng":"136.797313"},{"town":"花池二丁目","lat":"35.291199","lng":"136.793948"},{"town":"花池三丁目","lat":"35.289510","lng":"136.797001"},{"town":"花池四丁目","lat":"35.289332","lng":"136.801102"},{"town":"浜町三丁目","lat":"35.308466","lng":"136.811525"},{"town":"浜町四丁目","lat":"35.309277","lng":"136.812366"},{"town":"浜町五丁目","lat":"35.309935","lng":"136.813650"},{"town":"浜町六丁目","lat":"35.310642","lng":"136.815168"},{"town":"東五城","lat":"35.304560","lng":"136.746694"},{"town":"東印田町","lat":"35.297500","lng":"136.815164"},{"town":"東加賀野井","lat":"35.285212","lng":"136.719991"},{"town":"東島町一丁目","lat":"35.317252","lng":"136.813276"},{"town":"東島町二丁目","lat":"35.318848","lng":"136.813658"},{"town":"東島町三丁目","lat":"35.320236","lng":"136.813861"},{"town":"東出町","lat":"35.311285","lng":"136.788930"},{"town":"東両郷町","lat":"35.313438","lng":"136.822273"},{"town":"平島一丁目","lat":"35.285611","lng":"136.832591"},{"town":"平島二丁目","lat":"35.283151","lng":"136.832169"},{"town":"平島三丁目","lat":"35.280590","lng":"136.831529"},{"town":"深坪町","lat":"35.311760","lng":"136.781181"},{"town":"富士一丁目","lat":"35.304568","lng":"136.814927"},{"town":"富士二丁目","lat":"35.304240","lng":"136.817423"},{"town":"富士三丁目","lat":"35.302393","lng":"136.820148"},{"town":"富士四丁目","lat":"35.304887","lng":"136.820071"},{"town":"藤塚町三丁目","lat":"35.308862","lng":"136.814195"},{"town":"藤塚町四丁目","lat":"35.309796","lng":"136.815596"},{"town":"藤塚町五丁目","lat":"35.310571","lng":"136.817132"},{"town":"文京一丁目","lat":"35.311749","lng":"136.804344"},{"town":"文京二丁目","lat":"35.313554","lng":"136.805132"},{"town":"平安一丁目","lat":"35.287683","lng":"136.833769"},{"town":"平安二丁目","lat":"35.287810","lng":"136.835009"},{"town":"平和一丁目","lat":"35.301502","lng":"136.792158"},{"town":"平和二丁目","lat":"35.300916","lng":"136.788350"},{"town":"平和三丁目","lat":"35.301496","lng":"136.784695"},{"town":"別明町一丁目","lat":"35.310288","lng":"136.811619"},{"town":"別明町二丁目","lat":"35.310880","lng":"136.812991"},{"town":"別明町三丁目","lat":"35.311465","lng":"136.814425"},{"town":"別明町四丁目","lat":"35.312065","lng":"136.815962"},{"town":"別明町五丁目","lat":"35.312562","lng":"136.817416"},{"town":"北丹町","lat":"35.322379","lng":"136.801420"},{"town":"本町一丁目","lat":"35.305212","lng":"136.802170"},{"town":"本町二丁目","lat":"35.303983","lng":"136.801881"},{"town":"本町三丁目","lat":"35.302418","lng":"136.801438"},{"town":"本町四丁目","lat":"35.299980","lng":"136.801425"},{"town":"本町通八丁目","lat":"35.297625","lng":"136.801662"},{"town":"真清田一丁目","lat":"35.307136","lng":"136.801831"},{"town":"真清田二丁目","lat":"35.309902","lng":"136.802336"},{"town":"松島町","lat":"35.295401","lng":"136.801047"},{"town":"松降一丁目","lat":"35.306842","lng":"136.804046"},{"town":"松降二丁目","lat":"35.309711","lng":"136.804742"},{"town":"松降通七丁目","lat":"35.314688","lng":"136.807800"},{"town":"松降通八丁目","lat":"35.316288","lng":"136.808399"},{"town":"松山町","lat":"35.317644","lng":"136.822291"},{"town":"馬見塚","lat":"35.292805","lng":"136.820622"},{"town":"水落町","lat":"35.319455","lng":"136.802749"},{"town":"水附町","lat":"35.296938","lng":"136.817445"},{"town":"三ツ井一丁目","lat":"35.281258","lng":"136.834583"},{"town":"三ツ井二丁目","lat":"35.277710","lng":"136.833659"},{"town":"三ツ井三丁目","lat":"35.275539","lng":"136.828233"},{"town":"三ツ井四丁目","lat":"35.274998","lng":"136.832420"},{"town":"三ツ井五丁目","lat":"35.274927","lng":"136.837719"},{"town":"三ツ井六丁目","lat":"35.271636","lng":"136.836742"},{"town":"三ツ井七丁目","lat":"35.271386","lng":"136.839486"},{"town":"三ツ井八丁目","lat":"35.272560","lng":"136.842044"},{"town":"緑一丁目","lat":"35.301401","lng":"136.813912"},{"town":"緑二丁目","lat":"35.300986","lng":"136.816346"},{"town":"緑三丁目","lat":"35.299844","lng":"136.818759"},{"town":"緑四丁目","lat":"35.299847","lng":"136.822183"},{"town":"緑五丁目","lat":"35.297724","lng":"136.822640"},{"town":"南印田一丁目","lat":"35.296169","lng":"136.814219"},{"town":"南印田二丁目","lat":"35.295921","lng":"136.815438"},{"town":"南小渕","lat":"35.300035","lng":"136.840536"},{"town":"南出町","lat":"35.308640","lng":"136.784543"},{"town":"宮地一丁目","lat":"35.290651","lng":"136.790878"},{"town":"宮地二丁目","lat":"35.288020","lng":"136.792056"},{"town":"宮西通七丁目","lat":"35.316974","lng":"136.804329"},{"town":"宮西通八丁目","lat":"35.315771","lng":"136.803951"},{"town":"妙興寺一丁目","lat":"35.286809","lng":"136.800459"},{"town":"妙興寺二丁目","lat":"35.286601","lng":"136.803101"},{"town":"向山町一丁目","lat":"35.299956","lng":"136.807914"},{"town":"向山町二丁目","lat":"35.298063","lng":"136.808127"},{"town":"向山町三丁目","lat":"35.295545","lng":"136.807755"},{"town":"向山南一丁目","lat":"35.294107","lng":"136.808215"},{"town":"向山南二丁目","lat":"35.294467","lng":"136.810722"},{"town":"明治通五丁目","lat":"35.298143","lng":"136.799870"},{"town":"明地","lat":"35.278671","lng":"136.737099"},{"town":"森本一丁目","lat":"35.293301","lng":"136.813277"},{"town":"森本二丁目","lat":"35.290999","lng":"136.812705"},{"town":"森本三丁目","lat":"35.288458","lng":"136.813225"},{"town":"森本四丁目","lat":"35.289716","lng":"136.817142"},{"town":"森本五丁目","lat":"35.285543","lng":"136.812463"},{"town":"柳戸町一丁目","lat":"35.295370","lng":"136.805864"},{"town":"柳戸町二丁目","lat":"35.293866","lng":"136.806262"},{"town":"大和町氏永","lat":"35.275315","lng":"136.802728"},{"town":"大和町於保","lat":"35.273772","lng":"136.794688"},{"town":"大和町苅安賀","lat":"35.290402","lng":"136.776603"},{"town":"大和町北高井","lat":"35.279063","lng":"136.783125"},{"town":"大和町戸塚","lat":"35.279680","lng":"136.790359"},{"town":"大和町福森","lat":"35.300686","lng":"136.769548"},{"town":"大和町馬引","lat":"35.305902","lng":"136.778776"},{"town":"大和町南高井","lat":"35.271024","lng":"136.786747"},{"town":"大和町宮地花池","lat":"35.289224","lng":"136.804808"},{"town":"大和町妙興寺","lat":"35.281537","lng":"136.801348"},{"town":"大和町毛受","lat":"35.298576","lng":"136.777736"},{"town":"祐久","lat":"35.287277","lng":"136.728686"},{"town":"柚木颪","lat":"35.314782","lng":"136.827484"},{"town":"両郷町一丁目","lat":"35.311356","lng":"136.816470"},{"town":"両郷町二丁目","lat":"35.311951","lng":"136.817743"},{"town":"両郷町三丁目","lat":"35.312550","lng":"136.819522"},{"town":"両郷町四丁目","lat":"35.313735","lng":"136.820506"},{"town":"両郷町五丁目","lat":"35.315476","lng":"136.821839"},{"town":"若竹一丁目","lat":"35.286475","lng":"136.820652"},{"town":"若竹二丁目","lat":"35.286446","lng":"136.823099"},{"town":"若竹三丁目","lat":"35.285933","lng":"136.825822"},{"town":"若竹四丁目","lat":"35.285907","lng":"136.828349"},{"town":"枠杁町三丁目","lat":"35.314362","lng":"136.809725"},{"town":"枠杁町四丁目","lat":"35.315702","lng":"136.810208"},{"town":"和光一丁目","lat":"35.307141","lng":"136.809916"},{"town":"和光二丁目","lat":"35.307598","lng":"136.812426"},{"town":"丹陽町五日市場","lat":"35.254886","lng":"136.839080"},{"town":"伝法寺二丁目","lat":"35.269158","lng":"136.844929"},{"town":"伝法寺三丁目","lat":"35.266524","lng":"136.845475"},{"town":"伝法寺一丁目","lat":"35.268901","lng":"136.841236"},{"town":"伝法寺十丁目","lat":"35.263318","lng":"136.844386"},{"town":"伝法寺四丁目","lat":"35.265528","lng":"136.843837"},{"town":"伝法寺十二丁目","lat":"35.261242","lng":"136.844489"},{"town":"伝法寺十一丁目","lat":"35.264551","lng":"136.847675"},{"town":"伝法寺五丁目","lat":"35.265111","lng":"136.840626"},{"town":"伝法寺六丁目","lat":"35.262455","lng":"136.838200"},{"town":"伝法寺九丁目","lat":"35.262332","lng":"136.842310"},{"town":"丹陽町九日市場","lat":"35.266418","lng":"136.834068"},{"town":"伝法寺七丁目","lat":"35.261386","lng":"136.839762"},{"town":"伝法寺八丁目","lat":"35.259146","lng":"136.840091"}]