[{"town":"曙一丁目","lat":"35.044212","lng":"136.758505"},{"town":"曙二丁目","lat":"35.028115","lng":"136.770934"},{"town":"桴場一丁目","lat":"35.091484","lng":"136.758581"},{"town":"桴場二丁目","lat":"35.095248","lng":"136.764450"},{"town":"桴場三丁目","lat":"35.096293","lng":"136.769200"},{"town":"稲狐町","lat":"35.065306","lng":"136.766611"},{"town":"稲元十丁目","lat":"35.081612","lng":"136.771147"},{"town":"稲元十一丁目","lat":"35.081085","lng":"136.769700"},{"town":"稲元十二丁目","lat":"35.080092","lng":"136.771854"},{"town":"稲元十三丁目","lat":"35.075613","lng":"136.771279"},{"town":"稲元十四丁目","lat":"35.078862","lng":"136.772946"},{"town":"稲元十五丁目","lat":"35.075246","lng":"136.772678"},{"town":"稲元一丁目","lat":"35.079221","lng":"136.761079"},{"town":"稲元二丁目","lat":"35.076507","lng":"136.761105"},{"town":"稲元三丁目","lat":"35.081613","lng":"136.764921"},{"town":"稲元四丁目","lat":"35.079646","lng":"136.764241"},{"town":"稲元五丁目","lat":"35.077734","lng":"136.764209"},{"town":"稲元六丁目","lat":"35.076228","lng":"136.768093"},{"town":"稲元七丁目","lat":"35.081915","lng":"136.766937"},{"town":"稲元八丁目","lat":"35.079763","lng":"136.768458"},{"town":"稲元九丁目","lat":"35.078134","lng":"136.769346"},{"town":"稲吉一丁目","lat":"35.078704","lng":"136.755211"},{"town":"稲吉二丁目","lat":"35.078443","lng":"136.758160"},{"town":"稲荷一丁目","lat":"35.079373","lng":"136.776264"},{"town":"稲荷二丁目","lat":"35.075185","lng":"136.775072"},{"town":"稲荷三丁目","lat":"35.071982","lng":"136.773260"},{"town":"稲荷四丁目","lat":"35.074889","lng":"136.781013"},{"town":"稲荷崎一丁目","lat":"35.062820","lng":"136.753891"},{"town":"稲荷崎二丁目","lat":"35.059902","lng":"136.756262"},{"town":"稲荷崎三丁目","lat":"35.062923","lng":"136.756501"},{"town":"稲荷崎四丁目","lat":"35.066473","lng":"136.759224"},{"town":"稲荷崎五丁目","lat":"35.065821","lng":"136.761332"},{"town":"稲荷崎六丁目","lat":"35.061846","lng":"136.758460"},{"town":"稲荷崎七丁目","lat":"35.060575","lng":"136.760125"},{"town":"稲荷崎八丁目","lat":"35.063321","lng":"136.762660"},{"town":"稲荷崎九丁目","lat":"35.068611","lng":"136.762586"},{"town":"上野町","lat":"35.043977","lng":"136.783874"},{"town":"鯏浦町","lat":"35.115380","lng":"136.727639"},{"town":"馬ケ地一丁目","lat":"35.115503","lng":"136.769412"},{"town":"馬ケ地二丁目","lat":"35.115103","lng":"136.764564"},{"town":"馬ケ地三丁目","lat":"35.111260","lng":"136.766894"},{"town":"栄南町","lat":"35.070202","lng":"136.752372"},{"town":"海老江一丁目","lat":"35.119444","lng":"136.713333"},{"town":"大谷一丁目","lat":"35.070037","lng":"136.784112"},{"town":"大谷二丁目","lat":"35.072194","lng":"136.781694"},{"town":"大谷三丁目","lat":"35.069045","lng":"136.783197"},{"town":"大谷四丁目","lat":"35.065621","lng":"136.783756"},{"town":"大谷五丁目","lat":"35.063542","lng":"136.783101"},{"town":"大縄場町","lat":"35.075991","lng":"136.760235"},{"town":"大藤町","lat":"35.090401","lng":"136.737876"},{"town":"海屋一丁目","lat":"35.104888","lng":"136.788258"},{"town":"海屋二丁目","lat":"35.101741","lng":"136.791630"},{"town":"海屋三丁目","lat":"35.099732","lng":"136.794337"},{"town":"海屋町","lat":"35.102052","lng":"136.788400"},{"town":"加稲一丁目","lat":"35.076550","lng":"136.758385"},{"town":"加稲二丁目","lat":"35.076513","lng":"136.754574"},{"town":"加稲三丁目","lat":"35.077044","lng":"136.752006"},{"town":"加稲四丁目","lat":"35.076306","lng":"136.751604"},{"town":"加稲九郎次町","lat":"35.077440","lng":"136.756763"},{"town":"加稲山町","lat":"35.062640","lng":"136.752634"},{"town":"鎌倉町","lat":"35.119330","lng":"136.735928"},{"town":"鎌島一丁目","lat":"35.101392","lng":"136.741709"},{"town":"鎌島二丁目","lat":"35.099793","lng":"136.743985"},{"town":"鎌島三丁目","lat":"35.099460","lng":"136.748025"},{"town":"鎌島四丁目","lat":"35.097380","lng":"136.752060"},{"town":"鎌島五丁目","lat":"35.096407","lng":"136.750917"},{"town":"鎌島六丁目","lat":"35.095889","lng":"136.747162"},{"town":"鎌島七丁目","lat":"35.092850","lng":"136.747585"},{"town":"鎌島八丁目","lat":"35.092014","lng":"136.750228"},{"town":"鎌島九丁目","lat":"35.090845","lng":"136.748405"},{"town":"上押萩一丁目","lat":"35.112123","lng":"136.776798"},{"town":"上押萩二丁目","lat":"35.111733","lng":"136.780980"},{"town":"亀ケ地一丁目","lat":"35.103990","lng":"136.785365"},{"town":"亀ケ地二丁目","lat":"35.102605","lng":"136.784996"},{"town":"川平一丁目","lat":"35.121497","lng":"136.706930"},{"town":"川原欠一丁目","lat":"35.099788","lng":"136.730447"},{"town":"川原欠二丁目","lat":"35.098104","lng":"136.733604"},{"town":"川原欠三丁目","lat":"35.100216","lng":"136.734095"},{"town":"川原欠四丁目","lat":"35.099966","lng":"136.728432"},{"town":"川原欠五丁目","lat":"35.097913","lng":"136.732143"},{"town":"寛延一丁目","lat":"35.083074","lng":"136.749206"},{"town":"寛延二丁目","lat":"35.082507","lng":"136.751957"},{"town":"寛延三丁目","lat":"35.082470","lng":"136.754401"},{"town":"寛延四丁目","lat":"35.082621","lng":"136.756808"},{"town":"寛延五丁目","lat":"35.083045","lng":"136.759129"},{"town":"寛延六丁目","lat":"35.083259","lng":"136.761589"},{"town":"寛延七丁目","lat":"35.084327","lng":"136.762955"},{"town":"間崎一丁目","lat":"35.079748","lng":"136.753128"},{"town":"間崎二丁目","lat":"35.080129","lng":"136.758500"},{"town":"間崎三丁目","lat":"35.080595","lng":"136.760332"},{"town":"間崎町","lat":"35.081265","lng":"136.749838"},{"town":"神戸十丁目","lat":"35.094054","lng":"136.787746"},{"town":"神戸一丁目","lat":"35.100906","lng":"136.777395"},{"town":"神戸二丁目","lat":"35.100046","lng":"136.770517"},{"town":"神戸三丁目","lat":"35.099328","lng":"136.774131"},{"town":"神戸四丁目","lat":"35.097449","lng":"136.779074"},{"town":"神戸五丁目","lat":"35.096629","lng":"136.782960"},{"town":"神戸六丁目","lat":"35.096367","lng":"136.785563"},{"town":"神戸七丁目","lat":"35.098961","lng":"136.787577"},{"town":"神戸八丁目","lat":"35.096144","lng":"136.788931"},{"town":"神戸九丁目","lat":"35.092984","lng":"136.783204"},{"town":"狐地一丁目","lat":"35.074791","lng":"136.763422"},{"town":"狐地二丁目","lat":"35.071314","lng":"136.765131"},{"town":"狐地三丁目","lat":"35.072241","lng":"136.769153"},{"town":"狐地四丁目","lat":"35.070733","lng":"136.767685"},{"town":"狐地五丁目","lat":"35.070244","lng":"136.767291"},{"town":"狐地六丁目","lat":"35.069480","lng":"136.766911"},{"town":"狐地七丁目","lat":"35.068979","lng":"136.766014"},{"town":"楠一丁目","lat":"35.055207","lng":"136.800384"},{"town":"楠二丁目","lat":"35.046000","lng":"136.791612"},{"town":"楠三丁目","lat":"35.036688","lng":"136.794095"},{"town":"操出十丁目","lat":"35.063889","lng":"136.775972"},{"town":"操出十一丁目","lat":"35.061199","lng":"136.776985"},{"town":"操出十二丁目","lat":"35.060963","lng":"136.774709"},{"town":"操出一丁目","lat":"35.074626","lng":"136.778041"},{"town":"操出二丁目","lat":"35.070781","lng":"136.779409"},{"town":"操出三丁目","lat":"35.070579","lng":"136.775836"},{"town":"操出四丁目","lat":"35.066292","lng":"136.781863"},{"town":"操出五丁目","lat":"35.067259","lng":"136.779062"},{"town":"操出六丁目","lat":"35.067216","lng":"136.775731"},{"town":"操出七丁目","lat":"35.066975","lng":"136.773252"},{"town":"操出八丁目","lat":"35.063376","lng":"136.772709"},{"town":"操出九丁目","lat":"35.064015","lng":"136.779285"},{"town":"小島町","lat":"35.109124","lng":"136.714635"},{"town":"子宝一丁目","lat":"35.107607","lng":"136.764767"},{"town":"子宝二丁目","lat":"35.107905","lng":"136.768203"},{"town":"子宝三丁目","lat":"35.104641","lng":"136.766348"},{"town":"子宝四丁目","lat":"35.104730","lng":"136.769601"},{"town":"子宝五丁目","lat":"35.103158","lng":"136.770009"},{"town":"子宝六丁目","lat":"35.101552","lng":"136.766557"},{"town":"子宝町","lat":"35.102553","lng":"136.764786"},{"town":"五斗山一丁目","lat":"35.115295","lng":"136.749439"},{"town":"五斗山二丁目","lat":"35.110377","lng":"136.751946"},{"town":"五斗山三丁目","lat":"35.106865","lng":"136.755573"},{"town":"五斗山四丁目","lat":"35.104162","lng":"136.758599"},{"town":"五之三川平二丁目","lat":"35.123376","lng":"136.709326"},{"town":"五之三川平三丁目","lat":"35.126514","lng":"136.706762"},{"town":"五之三町","lat":"35.126880","lng":"136.711791"},{"town":"駒野町","lat":"35.054603","lng":"136.784946"},{"town":"五明一丁目","lat":"35.118530","lng":"136.712315"},{"town":"五明二丁目","lat":"35.117065","lng":"136.710892"},{"town":"五明三丁目","lat":"35.120360","lng":"136.708828"},{"town":"五明四丁目","lat":"35.120814","lng":"136.710612"},{"town":"五明町","lat":"35.114832","lng":"136.715016"},{"town":"境町","lat":"35.057856","lng":"136.758839"},{"town":"坂中地一丁目","lat":"35.113325","lng":"136.753815"},{"town":"坂中地二丁目","lat":"35.111401","lng":"136.754902"},{"town":"坂中地三丁目","lat":"35.110059","lng":"136.757824"},{"town":"坂中地四丁目","lat":"35.108212","lng":"136.761691"},{"town":"坂中地五丁目","lat":"35.105891","lng":"136.761729"},{"town":"佐古木一丁目","lat":"35.117519","lng":"136.755699"},{"town":"佐古木二丁目","lat":"35.119603","lng":"136.754614"},{"town":"佐古木三丁目","lat":"35.118323","lng":"136.752401"},{"town":"佐古木四丁目","lat":"35.118006","lng":"136.749995"},{"town":"佐古木五丁目","lat":"35.119538","lng":"136.750620"},{"town":"佐古木六丁目","lat":"35.121289","lng":"136.752660"},{"town":"佐古木七丁目","lat":"35.124650","lng":"136.754886"},{"town":"鮫ケ地一丁目","lat":"35.115022","lng":"136.754831"},{"town":"鮫ケ地二丁目","lat":"35.113785","lng":"136.758956"},{"town":"鮫ケ地三丁目","lat":"35.110893","lng":"136.762466"},{"town":"鮫ケ地四丁目","lat":"35.117659","lng":"136.757231"},{"town":"三稲一丁目","lat":"35.069432","lng":"136.771916"},{"town":"三稲二丁目","lat":"35.067408","lng":"136.771447"},{"town":"三稲三丁目","lat":"35.066904","lng":"136.770015"},{"town":"三稲四丁目","lat":"35.064698","lng":"136.770864"},{"town":"三稲五丁目","lat":"35.061704","lng":"136.771516"},{"town":"三稲六丁目","lat":"35.060827","lng":"136.769319"},{"town":"三稲七丁目","lat":"35.059738","lng":"136.767305"},{"town":"三稲八丁目","lat":"35.058745","lng":"136.765896"},{"town":"三百島一丁目","lat":"35.117861","lng":"136.743061"},{"town":"芝井十丁目","lat":"35.086050","lng":"136.750365"},{"town":"芝井十一丁目","lat":"35.088264","lng":"136.750506"},{"town":"芝井十二丁目","lat":"35.090501","lng":"136.750761"},{"town":"芝井十三丁目","lat":"35.090829","lng":"136.749789"},{"town":"芝井十四丁目","lat":"35.084688","lng":"136.749933"},{"town":"芝井十五丁目","lat":"35.089590","lng":"136.739688"},{"town":"芝井十六丁目","lat":"35.085567","lng":"136.743873"},{"town":"芝井一丁目","lat":"35.089836","lng":"136.740540"},{"town":"芝井二丁目","lat":"35.091349","lng":"136.742334"},{"town":"芝井三丁目","lat":"35.087224","lng":"136.742867"},{"town":"芝井四丁目","lat":"35.089454","lng":"136.743628"},{"town":"芝井五丁目","lat":"35.087592","lng":"136.744611"},{"town":"芝井六丁目","lat":"35.085323","lng":"136.745484"},{"town":"芝井七丁目","lat":"35.084060","lng":"136.747224"},{"town":"芝井八丁目","lat":"35.085532","lng":"136.747475"},{"town":"芝井九丁目","lat":"35.088236","lng":"136.747368"},{"town":"下押萩一丁目","lat":"35.109625","lng":"136.784981"},{"town":"下押萩町","lat":"35.110046","lng":"136.785698"},{"town":"四郎兵衛一丁目","lat":"35.102125","lng":"136.775483"},{"town":"四郎兵衛二丁目","lat":"35.101415","lng":"136.781626"},{"town":"四郎兵衛三丁目","lat":"35.100808","lng":"136.784852"},{"town":"四郎兵衛四丁目","lat":"35.099768","lng":"136.783477"},{"town":"善太町","lat":"35.117700","lng":"136.769440"},{"town":"竹田一丁目","lat":"35.110685","lng":"136.774616"},{"town":"竹田二丁目","lat":"35.109233","lng":"136.778632"},{"town":"竹田三丁目","lat":"35.108254","lng":"136.782999"},{"town":"竹田四丁目","lat":"35.105118","lng":"136.784550"},{"town":"竹田五丁目","lat":"35.105660","lng":"136.781193"},{"town":"竹田六丁目","lat":"35.106935","lng":"136.778163"},{"town":"富島一丁目","lat":"35.071342","lng":"136.753750"},{"town":"富島二丁目","lat":"35.068870","lng":"136.756668"},{"town":"富島三丁目","lat":"35.071802","lng":"136.755699"},{"town":"富島四丁目","lat":"35.073266","lng":"136.757450"},{"town":"富浜一丁目","lat":"35.027084","lng":"136.775300"},{"town":"富浜二丁目","lat":"35.031625","lng":"136.778903"},{"town":"富浜三丁目","lat":"35.027118","lng":"136.781542"},{"town":"富浜四丁目","lat":"35.023995","lng":"136.788117"},{"town":"富浜五丁目","lat":"35.019630","lng":"136.792608"},{"town":"鳥ケ地一丁目","lat":"35.100513","lng":"136.758194"},{"town":"鳥ケ地二丁目","lat":"35.096163","lng":"136.759247"},{"town":"鳥ケ地三丁目","lat":"35.096320","lng":"136.754384"},{"town":"中原一丁目","lat":"35.066186","lng":"136.755117"},{"town":"中原町","lat":"35.066340","lng":"136.752219"},{"town":"中山町","lat":"35.102899","lng":"136.729157"},{"town":"鍋田町","lat":"35.047529","lng":"136.767949"},{"town":"鍋平一丁目","lat":"35.117164","lng":"136.745605"},{"town":"鍋平二丁目","lat":"35.114758","lng":"136.744351"},{"town":"鍋平三丁目","lat":"35.112978","lng":"136.745803"},{"town":"鍋平四丁目","lat":"35.111221","lng":"136.746292"},{"town":"鍋平五丁目","lat":"35.110578","lng":"136.749275"},{"town":"西蜆一丁目","lat":"35.110035","lng":"136.770759"},{"town":"西蜆二丁目","lat":"35.105060","lng":"136.772358"},{"town":"西末広一丁目","lat":"35.061911","lng":"136.780129"},{"town":"西末広二丁目","lat":"35.061320","lng":"136.783765"},{"town":"西末広三丁目","lat":"35.061011","lng":"136.780335"},{"town":"西末広四丁目","lat":"35.057664","lng":"136.779825"},{"town":"西末広五丁目","lat":"35.057706","lng":"136.784139"},{"town":"西中地町","lat":"35.124429","lng":"136.732170"},{"town":"荷之上町","lat":"35.126514","lng":"136.722094"},{"town":"東蜆一丁目","lat":"35.105507","lng":"136.775934"},{"town":"東蜆二丁目","lat":"35.103130","lng":"136.781272"},{"town":"東末広一丁目","lat":"35.070515","lng":"136.786331"},{"town":"東末広二丁目","lat":"35.066013","lng":"136.787718"},{"town":"東末広三丁目","lat":"35.062543","lng":"136.788163"},{"town":"東末広四丁目","lat":"35.057978","lng":"136.788701"},{"town":"東末広五丁目","lat":"35.058499","lng":"136.793000"},{"town":"東末広六丁目","lat":"35.062783","lng":"136.791970"},{"town":"東末広七丁目","lat":"35.067017","lng":"136.791617"},{"town":"東末広八丁目","lat":"35.063427","lng":"136.797698"},{"town":"東末広九丁目","lat":"35.059556","lng":"136.798331"},{"town":"東中地一丁目","lat":"35.124278","lng":"136.736514"},{"town":"東中地二丁目","lat":"35.122871","lng":"136.740740"},{"town":"平島町","lat":"35.107210","lng":"136.733319"},{"town":"平島中二丁目","lat":"35.109550","lng":"136.738111"},{"town":"平島中三丁目","lat":"35.109276","lng":"136.736822"},{"town":"平島中四丁目","lat":"35.107171","lng":"136.737844"},{"town":"平島西一丁目","lat":"35.109781","lng":"136.735804"},{"town":"平島東一丁目","lat":"35.108908","lng":"136.741486"},{"town":"平島東二丁目","lat":"35.107639","lng":"136.742572"},{"town":"平島東三丁目","lat":"35.105875","lng":"136.745471"},{"town":"前ケ須町","lat":"35.107552","lng":"136.725401"},{"town":"前ケ平一丁目","lat":"35.125513","lng":"136.741278"},{"town":"前ケ平二丁目","lat":"35.127459","lng":"136.744246"},{"town":"前ケ平三丁目","lat":"35.127280","lng":"136.748616"},{"town":"又八一丁目","lat":"35.124485","lng":"136.749397"},{"town":"又八二丁目","lat":"35.124494","lng":"136.753527"},{"town":"又八三丁目","lat":"35.120578","lng":"136.747888"},{"town":"又八四丁目","lat":"35.124624","lng":"136.748390"},{"town":"松名一丁目","lat":"35.095790","lng":"136.753326"},{"town":"松名二丁目","lat":"35.094097","lng":"136.752516"},{"town":"松名三丁目","lat":"35.090194","lng":"136.754615"},{"town":"松名四丁目","lat":"35.088122","lng":"136.756138"},{"town":"松名五丁目","lat":"35.085822","lng":"136.752612"},{"town":"松名六丁目","lat":"35.086839","lng":"136.758065"},{"town":"松名七丁目","lat":"35.090507","lng":"136.757825"},{"town":"三好一丁目","lat":"35.072418","lng":"136.762157"},{"town":"三好二丁目","lat":"35.073755","lng":"136.760774"},{"town":"三好三丁目","lat":"35.073474","lng":"136.759205"},{"town":"三好四丁目","lat":"35.071374","lng":"136.761278"},{"town":"三好五丁目","lat":"35.070103","lng":"136.759313"},{"town":"森津十丁目","lat":"35.092604","lng":"136.740636"},{"town":"森津十一丁目","lat":"35.097917","lng":"136.735984"},{"town":"森津十二丁目","lat":"35.098976","lng":"136.735719"},{"town":"森津十三丁目","lat":"35.096522","lng":"136.734764"},{"town":"森津十四丁目","lat":"35.094663","lng":"136.735346"},{"town":"森津十五丁目","lat":"35.091941","lng":"136.737348"},{"town":"森津十六丁目","lat":"35.095393","lng":"136.734155"},{"town":"森津一丁目","lat":"35.102185","lng":"136.736437"},{"town":"森津二丁目","lat":"35.101631","lng":"136.738359"},{"town":"森津三丁目","lat":"35.100459","lng":"136.738593"},{"town":"森津四丁目","lat":"35.099213","lng":"136.739022"},{"town":"森津五丁目","lat":"35.098159","lng":"136.739389"},{"town":"森津六丁目","lat":"35.097106","lng":"136.739637"},{"town":"森津七丁目","lat":"35.096053","lng":"136.739730"},{"town":"森津八丁目","lat":"35.095013","lng":"136.739714"},{"town":"森津九丁目","lat":"35.093954","lng":"136.740267"},{"town":"楽平一丁目","lat":"35.128508","lng":"136.754879"},{"town":"楽平二丁目","lat":"35.126121","lng":"136.752501"},{"town":"六條町","lat":"35.105315","lng":"136.750698"}]