[{"town":"明知町","lat":"35.315329","lng":"137.029871"},{"town":"旭町一丁目","lat":"35.232502","lng":"136.954811"},{"town":"旭町二丁目","lat":"35.235766","lng":"136.954193"},{"town":"旭町三丁目","lat":"35.237920","lng":"136.953815"},{"town":"旭町四丁目","lat":"35.240671","lng":"136.953084"},{"town":"朝宮町一丁目","lat":"35.251389","lng":"136.960430"},{"town":"朝宮町二丁目","lat":"35.249216","lng":"136.956721"},{"town":"朝宮町三丁目","lat":"35.252262","lng":"136.956186"},{"town":"朝宮町四丁目","lat":"35.255375","lng":"136.959878"},{"town":"浅山町","lat":"35.256604","lng":"136.980348"},{"town":"浅山町一丁目","lat":"35.253889","lng":"136.983888"},{"town":"浅山町二丁目","lat":"35.255240","lng":"136.981771"},{"town":"浅山町三丁目","lat":"35.258076","lng":"136.984166"},{"town":"浅山町四丁目","lat":"35.255589","lng":"136.984915"},{"town":"味美上ノ町","lat":"35.242251","lng":"136.933523"},{"town":"味美町一丁目","lat":"35.237805","lng":"136.938200"},{"town":"味美町二丁目","lat":"35.237598","lng":"136.940861"},{"town":"味美町三丁目","lat":"35.236684","lng":"136.944074"},{"town":"味美西本町","lat":"35.238256","lng":"136.935931"},{"town":"味美白山町一丁目","lat":"35.231322","lng":"136.935541"},{"town":"味美白山町二丁目","lat":"35.231822","lng":"136.932426"},{"town":"穴橋町","lat":"35.255103","lng":"136.992647"},{"town":"穴橋町一丁目","lat":"35.253758","lng":"136.992650"},{"town":"穴橋町二丁目","lat":"35.254903","lng":"136.995725"},{"town":"穴橋町三丁目","lat":"35.253580","lng":"136.997496"},{"town":"石尾台一丁目","lat":"35.288038","lng":"137.057620"},{"town":"石尾台二丁目","lat":"35.290600","lng":"137.057488"},{"town":"石尾台三丁目","lat":"35.293126","lng":"137.061291"},{"town":"石尾台四丁目","lat":"35.294412","lng":"137.063979"},{"town":"石尾台五丁目","lat":"35.291243","lng":"137.062241"},{"town":"石尾台六丁目","lat":"35.287868","lng":"137.062633"},{"town":"稲口町","lat":"35.243908","lng":"136.939561"},{"town":"稲口町一丁目","lat":"35.244134","lng":"136.941665"},{"town":"稲口町二丁目","lat":"35.243621","lng":"136.945897"},{"town":"稲口町三丁目","lat":"35.240139","lng":"136.948897"},{"town":"稲口町四丁目","lat":"35.243685","lng":"136.951207"},{"town":"杁ケ島町","lat":"35.236152","lng":"136.969135"},{"town":"岩成台十丁目","lat":"35.277873","lng":"137.035018"},{"town":"岩成台一丁目","lat":"35.272147","lng":"137.040448"},{"town":"岩成台二丁目","lat":"35.273712","lng":"137.041304"},{"town":"岩成台三丁目","lat":"35.274047","lng":"137.038477"},{"town":"岩成台四丁目","lat":"35.276928","lng":"137.040520"},{"town":"岩成台五丁目","lat":"35.276011","lng":"137.041802"},{"town":"岩成台六丁目","lat":"35.277794","lng":"137.046696"},{"town":"岩成台七丁目","lat":"35.278850","lng":"137.043891"},{"town":"岩成台八丁目","lat":"35.279516","lng":"137.040046"},{"town":"岩成台九丁目","lat":"35.280993","lng":"137.037527"},{"town":"岩野町","lat":"35.268710","lng":"136.960596"},{"town":"岩野町一丁目","lat":"35.267626","lng":"136.959103"},{"town":"岩野町二丁目","lat":"35.265039","lng":"136.961427"},{"town":"上野町","lat":"35.282199","lng":"137.018307"},{"town":"上野町三丁目","lat":"35.281266","lng":"137.022880"},{"town":"上野町二丁目","lat":"35.279720","lng":"137.021754"},{"town":"上野町一丁目","lat":"35.278166","lng":"137.020907"},{"town":"牛山町","lat":"35.269559","lng":"136.935758"},{"town":"内津町","lat":"35.328675","lng":"137.064154"},{"town":"梅ケ坪町","lat":"35.254209","lng":"136.979351"},{"town":"王子町","lat":"35.234533","lng":"136.974579"},{"town":"大手田酉町一丁目","lat":"35.259540","lng":"136.957566"},{"town":"大手田酉町二丁目","lat":"35.260894","lng":"136.960189"},{"town":"大手田酉町三丁目","lat":"35.262318","lng":"136.963104"},{"town":"大手町","lat":"35.266460","lng":"136.949217"},{"town":"大手町一丁目","lat":"35.266856","lng":"136.956744"},{"town":"大手町二丁目","lat":"35.267025","lng":"136.955251"},{"town":"大手町三丁目","lat":"35.263374","lng":"136.957264"},{"town":"大手町四丁目","lat":"35.264572","lng":"136.953798"},{"town":"大留町","lat":"35.258799","lng":"137.028344"},{"town":"大留町一丁目","lat":"35.254869","lng":"137.016151"},{"town":"大留町二丁目","lat":"35.258711","lng":"137.016886"},{"town":"大留町三丁目","lat":"35.260075","lng":"137.020541"},{"town":"大留町四丁目","lat":"35.257603","lng":"137.020711"},{"town":"大留町五丁目","lat":"35.254822","lng":"137.021281"},{"town":"大留町六丁目","lat":"35.257245","lng":"137.025074"},{"town":"大留町七丁目","lat":"35.259272","lng":"137.024180"},{"town":"大留町八丁目","lat":"35.261266","lng":"137.022643"},{"town":"大留町九丁目","lat":"35.261259","lng":"137.026128"},{"town":"小木田町","lat":"35.246205","lng":"136.990519"},{"town":"押沢台一丁目","lat":"35.285033","lng":"137.062492"},{"town":"押沢台二丁目","lat":"35.284876","lng":"137.065872"},{"town":"押沢台三丁目","lat":"35.282505","lng":"137.067802"},{"town":"押沢台四丁目","lat":"35.277883","lng":"137.065184"},{"town":"押沢台五丁目","lat":"35.279452","lng":"137.064435"},{"town":"押沢台六丁目","lat":"35.281885","lng":"137.065010"},{"town":"押沢台七丁目","lat":"35.282154","lng":"137.062090"},{"town":"乙輪町一丁目","lat":"35.245264","lng":"136.982009"},{"town":"乙輪町二丁目","lat":"35.246536","lng":"136.981440"},{"town":"乙輪町三丁目","lat":"35.247487","lng":"136.980464"},{"town":"小野町一丁目","lat":"35.225914","lng":"136.961846"},{"town":"小野町二丁目","lat":"35.228107","lng":"136.961207"},{"town":"小野町三丁目","lat":"35.231200","lng":"136.963676"},{"town":"小野町四丁目","lat":"35.230380","lng":"136.966451"},{"town":"小野町五丁目","lat":"35.227825","lng":"136.966150"},{"town":"小野町六丁目","lat":"35.225913","lng":"136.966456"},{"town":"神屋町","lat":"35.302975","lng":"137.027573"},{"town":"柏原町一丁目","lat":"35.243612","lng":"136.956682"},{"town":"柏原町二丁目","lat":"35.243102","lng":"136.959088"},{"town":"柏原町三丁目","lat":"35.246477","lng":"136.959893"},{"town":"柏原町四丁目","lat":"35.247487","lng":"136.962435"},{"town":"柏原町五丁目","lat":"35.249132","lng":"136.965330"},{"town":"柏井町一丁目","lat":"35.232635","lng":"136.957664"},{"town":"柏井町二丁目","lat":"35.234730","lng":"136.959343"},{"town":"柏井町三丁目","lat":"35.235619","lng":"136.961300"},{"town":"柏井町四丁目","lat":"35.236863","lng":"136.963175"},{"town":"柏井町五丁目","lat":"35.238657","lng":"136.964311"},{"town":"柏井町六丁目","lat":"35.232761","lng":"136.963006"},{"town":"柏井町七丁目","lat":"35.234399","lng":"136.965940"},{"town":"春日井上ノ町","lat":"35.254800","lng":"136.931805"},{"town":"春日井町","lat":"35.248514","lng":"136.933419"},{"town":"勝川新町一丁目","lat":"35.233000","lng":"136.947750"},{"town":"勝川新町二丁目","lat":"35.235448","lng":"136.948888"},{"town":"勝川新町三丁目","lat":"35.237267","lng":"136.947535"},{"town":"勝川町十丁目","lat":"35.224379","lng":"136.952644"},{"town":"勝川町一丁目","lat":"35.218753","lng":"136.947317"},{"town":"勝川町二丁目","lat":"35.222583","lng":"136.949418"},{"town":"勝川町三丁目","lat":"35.224398","lng":"136.949392"},{"town":"勝川町四丁目","lat":"35.226358","lng":"136.949154"},{"town":"勝川町五丁目","lat":"35.227624","lng":"136.950237"},{"town":"勝川町六丁目","lat":"35.228967","lng":"136.953655"},{"town":"勝川町七丁目","lat":"35.230943","lng":"136.955358"},{"town":"勝川町八丁目","lat":"35.228090","lng":"136.955285"},{"town":"勝川町九丁目","lat":"35.226450","lng":"136.953694"},{"town":"勝川町西一丁目","lat":"35.222491","lng":"136.944167"},{"town":"勝川町西二丁目","lat":"35.222754","lng":"136.945878"},{"town":"勝川町西三丁目","lat":"35.223991","lng":"136.945519"},{"town":"勝川町西四丁目","lat":"35.226420","lng":"136.945090"},{"town":"金ケ口町","lat":"35.264599","lng":"137.004902"},{"town":"上田楽町","lat":"35.281175","lng":"136.950335"},{"town":"上ノ町一丁目","lat":"35.239718","lng":"136.932195"},{"town":"菅大臣町","lat":"35.252342","lng":"136.988619"},{"town":"北城町一丁目","lat":"35.260959","lng":"137.008080"},{"town":"北城町二丁目","lat":"35.262125","lng":"137.005724"},{"town":"北城町三丁目","lat":"35.263401","lng":"137.005090"},{"town":"北城町四丁目","lat":"35.263722","lng":"137.009075"},{"town":"木附町","lat":"35.281376","lng":"137.074262"},{"town":"気噴町","lat":"35.259364","lng":"137.032898"},{"town":"気噴町一丁目","lat":"35.260755","lng":"137.029898"},{"town":"気噴町二丁目","lat":"35.262714","lng":"137.029392"},{"town":"気噴町三丁目","lat":"35.265712","lng":"137.027543"},{"town":"気噴町四丁目","lat":"35.263207","lng":"137.033924"},{"town":"気噴町五丁目","lat":"35.261268","lng":"137.033772"},{"town":"気噴町六丁目","lat":"35.260748","lng":"137.036231"},{"town":"気噴町北一丁目","lat":"35.267564","lng":"137.028813"},{"town":"気噴町北二丁目","lat":"35.266562","lng":"137.032304"},{"town":"貴船町","lat":"35.247197","lng":"136.985394"},{"town":"熊野町","lat":"35.246524","lng":"137.000846"},{"town":"熊野町北一丁目","lat":"35.250729","lng":"136.996411"},{"town":"黒鉾町","lat":"35.254730","lng":"136.936756"},{"town":"下条町","lat":"35.228535","lng":"136.977058"},{"town":"下条町一丁目","lat":"35.230506","lng":"136.970064"},{"town":"下条町二丁目","lat":"35.228147","lng":"136.970357"},{"town":"下条町三丁目","lat":"35.228389","lng":"136.973707"},{"town":"高蔵寺町一丁目","lat":"35.262912","lng":"137.036535"},{"town":"高蔵寺町二丁目","lat":"35.261063","lng":"137.039609"},{"town":"高蔵寺町三丁目","lat":"35.261307","lng":"137.042225"},{"town":"高蔵寺町四丁目","lat":"35.261559","lng":"137.044363"},{"town":"高蔵寺町五丁目","lat":"35.261777","lng":"137.047228"},{"town":"高蔵寺町六丁目","lat":"35.262136","lng":"137.048837"},{"town":"高蔵寺町七丁目","lat":"35.262498","lng":"137.051412"},{"town":"高蔵寺町八丁目","lat":"35.265159","lng":"137.054499"},{"town":"高蔵寺町北一丁目","lat":"35.266369","lng":"137.035840"},{"town":"高蔵寺町北二丁目","lat":"35.265936","lng":"137.039362"},{"town":"高蔵寺町北三丁目","lat":"35.265836","lng":"137.042815"},{"town":"高蔵寺町北四丁目","lat":"35.266096","lng":"137.045346"},{"town":"高蔵寺町北五丁目","lat":"35.265111","lng":"137.050809"},{"town":"ことぶき町","lat":"35.252099","lng":"136.978032"},{"town":"西尾町","lat":"35.324277","lng":"137.044215"},{"town":"坂下町一丁目","lat":"35.284067","lng":"137.023471"},{"town":"坂下町二丁目","lat":"35.287167","lng":"137.021679"},{"town":"坂下町三丁目","lat":"35.289166","lng":"137.021611"},{"town":"坂下町四丁目","lat":"35.291469","lng":"137.021727"},{"town":"坂下町五丁目","lat":"35.287698","lng":"137.027659"},{"town":"坂下町六丁目","lat":"35.287379","lng":"137.014624"},{"town":"坂下町七丁目","lat":"35.292224","lng":"137.015544"},{"town":"桜佐町","lat":"35.242300","lng":"136.994097"},{"town":"篠木町一丁目","lat":"35.251128","lng":"136.981679"},{"town":"篠木町二丁目","lat":"35.251933","lng":"136.983412"},{"town":"篠木町三丁目","lat":"35.252326","lng":"136.985636"},{"town":"篠木町四丁目","lat":"35.253494","lng":"136.986880"},{"town":"篠木町五丁目","lat":"35.255893","lng":"136.987852"},{"town":"篠木町六丁目","lat":"35.256813","lng":"136.990867"},{"town":"篠木町七丁目","lat":"35.259489","lng":"136.993048"},{"town":"篠木町八丁目","lat":"35.261182","lng":"136.996604"},{"town":"篠田町","lat":"35.232592","lng":"136.965773"},{"town":"下市場町","lat":"35.261390","lng":"137.010051"},{"town":"下市場町一丁目","lat":"35.255582","lng":"137.000057"},{"town":"下市場町二丁目","lat":"35.258748","lng":"137.000213"},{"town":"下市場町三丁目","lat":"35.258298","lng":"136.998145"},{"town":"下市場町四丁目","lat":"35.260980","lng":"137.002443"},{"town":"下市場町五丁目","lat":"35.258315","lng":"137.002747"},{"town":"下市場町六丁目","lat":"35.258903","lng":"137.006678"},{"town":"下津町","lat":"35.227191","lng":"136.983631"},{"town":"下原町","lat":"35.273819","lng":"136.984424"},{"town":"下屋敷町","lat":"35.246970","lng":"136.937756"},{"town":"下屋敷町一丁目","lat":"35.244367","lng":"136.939794"},{"town":"下屋敷町二丁目","lat":"35.245847","lng":"136.938724"},{"town":"十三塚町","lat":"35.266270","lng":"136.996635"},{"town":"上条町十丁目","lat":"35.230620","lng":"136.984899"},{"town":"上条町一丁目","lat":"35.243069","lng":"136.982188"},{"town":"上条町二丁目","lat":"35.240761","lng":"136.983782"},{"town":"上条町三丁目","lat":"35.241753","lng":"136.988056"},{"town":"上条町四丁目","lat":"35.238225","lng":"136.983840"},{"town":"上条町五丁目","lat":"35.238545","lng":"136.988106"},{"town":"上条町六丁目","lat":"35.235994","lng":"136.983883"},{"town":"上条町七丁目","lat":"35.234797","lng":"136.987954"},{"town":"上条町八丁目","lat":"35.233317","lng":"136.982415"},{"town":"上条町九丁目","lat":"35.230773","lng":"136.988434"},{"town":"白山町一丁目","lat":"35.269932","lng":"137.039004"},{"town":"白山町二丁目","lat":"35.269771","lng":"137.035945"},{"town":"白山町三丁目","lat":"35.269820","lng":"137.032546"},{"town":"白山町四丁目","lat":"35.270151","lng":"137.029056"},{"town":"白山町六丁目","lat":"35.272551","lng":"137.033587"},{"town":"白山町七丁目","lat":"35.274467","lng":"137.035885"},{"town":"白山町八丁目","lat":"35.274939","lng":"137.032421"},{"town":"白山町九丁目","lat":"35.276891","lng":"137.030804"},{"town":"新開町","lat":"35.267732","lng":"136.942916"},{"town":"神明町","lat":"35.234862","lng":"136.951892"},{"town":"神領町","lat":"35.247860","lng":"137.010197"},{"town":"神領町一丁目","lat":"35.248804","lng":"137.008445"},{"town":"神領町二丁目","lat":"35.254312","lng":"137.011132"},{"town":"神領町三丁目","lat":"35.256568","lng":"137.013352"},{"town":"神領町北一丁目","lat":"35.260521","lng":"137.011464"},{"town":"神領町北二丁目","lat":"35.260104","lng":"137.013019"},{"town":"関田町一丁目","lat":"35.249604","lng":"136.983960"},{"town":"関田町二丁目","lat":"35.249848","lng":"136.986561"},{"town":"関田町三丁目","lat":"35.250168","lng":"136.989061"},{"town":"惣中町一丁目","lat":"35.228581","lng":"136.946778"},{"town":"惣中町二丁目","lat":"35.229912","lng":"136.947450"},{"town":"惣中町三丁目","lat":"35.231284","lng":"136.947224"},{"town":"宗法町","lat":"35.244836","lng":"136.933162"},{"town":"大泉寺町","lat":"35.273358","lng":"137.003450"},{"town":"鷹来町","lat":"35.272864","lng":"136.964665"},{"town":"鷹来町一丁目","lat":"35.272201","lng":"136.969742"},{"town":"高座台一丁目","lat":"35.268449","lng":"137.040648"},{"town":"高座台二丁目","lat":"35.270106","lng":"137.042730"},{"town":"高座台三丁目","lat":"35.269269","lng":"137.044517"},{"town":"高座台四丁目","lat":"35.272506","lng":"137.044440"},{"town":"高座台五丁目","lat":"35.275025","lng":"137.047055"},{"town":"高座町","lat":"35.272454","lng":"137.054684"},{"town":"高森台十丁目","lat":"35.289741","lng":"137.048355"},{"town":"高森台一丁目","lat":"35.289079","lng":"137.045465"},{"town":"高森台二丁目","lat":"35.289943","lng":"137.040225"},{"town":"高森台三丁目","lat":"35.292033","lng":"137.042653"},{"town":"高森台四丁目","lat":"35.294661","lng":"137.046893"},{"town":"高森台五丁目","lat":"35.296614","lng":"137.053322"},{"town":"高森台六丁目","lat":"35.297092","lng":"137.059783"},{"town":"高森台七丁目","lat":"35.294094","lng":"137.058393"},{"town":"高森台八丁目","lat":"35.292607","lng":"137.052028"},{"town":"高森台九丁目","lat":"35.289607","lng":"137.053927"},{"town":"高山町一丁目","lat":"35.252089","lng":"136.951619"},{"town":"高山町二丁目","lat":"35.255226","lng":"136.954845"},{"town":"高山町三丁目","lat":"35.257578","lng":"136.954365"},{"town":"玉野台一丁目","lat":"35.270762","lng":"137.068608"},{"town":"玉野台二丁目","lat":"35.273538","lng":"137.070695"},{"town":"玉野台三丁目","lat":"35.272292","lng":"137.074943"},{"town":"玉野町","lat":"35.275318","lng":"137.075253"},{"town":"田楽町","lat":"35.274312","lng":"136.950908"},{"town":"知多町一丁目","lat":"35.229320","lng":"136.943130"},{"town":"知多町二丁目","lat":"35.231156","lng":"136.943621"},{"town":"知多町三丁目","lat":"35.233030","lng":"136.944170"},{"town":"知多町四丁目","lat":"35.235593","lng":"136.945748"},{"town":"中央台一丁目","lat":"35.279737","lng":"137.048965"},{"town":"中央台二丁目","lat":"35.284806","lng":"137.048391"},{"town":"中央台三丁目","lat":"35.283462","lng":"137.050312"},{"town":"中央台四丁目","lat":"35.286249","lng":"137.050504"},{"town":"中央台五丁目","lat":"35.286357","lng":"137.052076"},{"town":"中央台六丁目","lat":"35.286569","lng":"137.053961"},{"town":"中央台七丁目","lat":"35.285336","lng":"137.057689"},{"town":"中央台八丁目","lat":"35.283044","lng":"137.052970"},{"town":"中央通一丁目","lat":"35.245045","lng":"136.984159"},{"town":"中央通二丁目","lat":"35.248639","lng":"136.982234"},{"town":"町田町一丁目","lat":"35.225998","lng":"136.955665"},{"town":"町田町二丁目","lat":"35.226437","lng":"136.957999"},{"town":"追進町一丁目","lat":"35.223611","lng":"136.942521"},{"town":"追進町二丁目","lat":"35.225026","lng":"136.941995"},{"town":"追進町三丁目","lat":"35.227311","lng":"136.942118"},{"town":"月見町","lat":"35.241256","lng":"136.974216"},{"town":"角崎町","lat":"35.231221","lng":"136.952946"},{"town":"出川町","lat":"35.265009","lng":"137.012205"},{"town":"出川町一丁目","lat":"35.267632","lng":"137.016121"},{"town":"出川町二丁目","lat":"35.268537","lng":"137.022005"},{"town":"出川町三丁目","lat":"35.266495","lng":"137.024739"},{"town":"出川町四丁目","lat":"35.263992","lng":"137.025109"},{"town":"出川町五丁目","lat":"35.265344","lng":"137.020547"},{"town":"出川町六丁目","lat":"35.263141","lng":"137.020373"},{"town":"出川町七丁目","lat":"35.260928","lng":"137.016451"},{"town":"出川町八丁目","lat":"35.264403","lng":"137.015673"},{"town":"天神町","lat":"35.232228","lng":"136.949586"},{"town":"外之原町","lat":"35.295910","lng":"137.074437"},{"town":"鳥居松町一丁目","lat":"35.239676","lng":"136.967599"},{"town":"鳥居松町二丁目","lat":"35.242071","lng":"136.969120"},{"town":"鳥居松町三丁目","lat":"35.243637","lng":"136.970840"},{"town":"鳥居松町四丁目","lat":"35.245001","lng":"136.972558"},{"town":"鳥居松町五丁目","lat":"35.246812","lng":"136.973659"},{"town":"鳥居松町六丁目","lat":"35.247413","lng":"136.976442"},{"town":"鳥居松町七丁目","lat":"35.248659","lng":"136.978002"},{"town":"鳥居松町八丁目","lat":"35.250080","lng":"136.979567"},{"town":"中切町","lat":"35.223886","lng":"136.976584"},{"town":"中切町一丁目","lat":"35.225782","lng":"136.970460"},{"town":"中切町二丁目","lat":"35.225737","lng":"136.973566"},{"town":"中切町三丁目","lat":"35.224115","lng":"136.972455"},{"town":"中新町一丁目","lat":"35.225290","lng":"136.931216"},{"town":"中新町二丁目","lat":"35.228376","lng":"136.930367"},{"town":"長塚町一丁目","lat":"35.220231","lng":"136.950804"},{"town":"長塚町二丁目","lat":"35.220163","lng":"136.953635"},{"town":"中野町一丁目","lat":"35.229629","lng":"136.927283"},{"town":"中野町二丁目","lat":"35.232086","lng":"136.928885"},{"town":"中町","lat":"35.251267","lng":"136.932864"},{"town":"西高山町一丁目","lat":"35.254654","lng":"136.947041"},{"town":"西高山町二丁目","lat":"35.257245","lng":"136.948331"},{"town":"西高山町三丁目","lat":"35.254868","lng":"136.950086"},{"town":"西本町一丁目","lat":"35.234454","lng":"136.935659"},{"town":"西本町二丁目","lat":"35.234837","lng":"136.931731"},{"town":"西本町三丁目","lat":"35.237517","lng":"136.932135"},{"town":"西屋町","lat":"35.261379","lng":"136.938699"},{"town":"西山町","lat":"35.280447","lng":"136.981020"},{"town":"西山町一丁目","lat":"35.275087","lng":"136.970181"},{"town":"西山町二丁目","lat":"35.274437","lng":"136.974087"},{"town":"西山町三丁目","lat":"35.271482","lng":"136.975363"},{"town":"西山町四丁目","lat":"35.274154","lng":"136.979137"},{"town":"西山町五丁目","lat":"35.276977","lng":"136.981191"},{"town":"如意申町一丁目","lat":"35.245947","lng":"136.941924"},{"town":"如意申町二丁目","lat":"35.248671","lng":"136.942451"},{"town":"如意申町三丁目","lat":"35.245818","lng":"136.946670"},{"town":"如意申町四丁目","lat":"35.249064","lng":"136.947006"},{"town":"如意申町五丁目","lat":"35.249698","lng":"136.951851"},{"town":"如意申町六丁目","lat":"35.247113","lng":"136.951189"},{"town":"如意申町七丁目","lat":"35.245532","lng":"136.952034"},{"town":"如意申町八丁目","lat":"35.246447","lng":"136.955524"},{"town":"廻間町","lat":"35.298447","lng":"137.043797"},{"town":"八幡町","lat":"35.238680","lng":"136.957471"},{"town":"八光町一丁目","lat":"35.232679","lng":"136.956083"},{"town":"八光町二丁目","lat":"35.235842","lng":"136.955642"},{"town":"八光町三丁目","lat":"35.238494","lng":"136.955393"},{"town":"八光町四丁目","lat":"35.240794","lng":"136.955071"},{"town":"八光町五丁目","lat":"35.243296","lng":"136.954627"},{"town":"八田町一丁目","lat":"35.251000","lng":"136.969923"},{"town":"八田町二丁目","lat":"35.253303","lng":"136.968330"},{"town":"八田町三丁目","lat":"35.253590","lng":"136.964255"},{"town":"八田町四丁目","lat":"35.255818","lng":"136.963033"},{"town":"八田町五丁目","lat":"35.257930","lng":"136.961097"},{"town":"八田町六丁目","lat":"35.258041","lng":"136.965632"},{"town":"八田町七丁目","lat":"35.256069","lng":"136.970894"},{"town":"八田町八丁目","lat":"35.253386","lng":"136.972153"},{"town":"花長町一丁目","lat":"35.230885","lng":"136.939279"},{"town":"花長町二丁目","lat":"35.234020","lng":"136.939873"},{"town":"林島町","lat":"35.250093","lng":"136.991179"},{"town":"林島町二丁目","lat":"35.248210","lng":"136.993878"},{"town":"林島町三丁目","lat":"35.251270","lng":"136.993220"},{"town":"林島町四丁目","lat":"35.252784","lng":"136.993589"},{"town":"春見町","lat":"35.249706","lng":"136.975464"},{"town":"東神明町","lat":"35.277988","lng":"137.017471"},{"town":"東神明町二丁目","lat":"35.274976","lng":"137.022479"},{"town":"東野新町一丁目","lat":"35.260463","lng":"136.987534"},{"town":"東野新町二丁目","lat":"35.262646","lng":"136.990565"},{"town":"東野町","lat":"35.271097","lng":"136.989753"},{"town":"東野町十丁目","lat":"35.262044","lng":"136.981792"},{"town":"東野町一丁目","lat":"35.263256","lng":"136.979275"},{"town":"東野町二丁目","lat":"35.265759","lng":"136.981832"},{"town":"東野町三丁目","lat":"35.267879","lng":"136.985168"},{"town":"東野町四丁目","lat":"35.269900","lng":"136.985470"},{"town":"東野町五丁目","lat":"35.267254","lng":"136.991809"},{"town":"東野町六丁目","lat":"35.264690","lng":"136.989497"},{"town":"東野町七丁目","lat":"35.264622","lng":"136.986998"},{"town":"東野町八丁目","lat":"35.265092","lng":"136.984188"},{"town":"東野町九丁目","lat":"35.261727","lng":"136.985619"},{"town":"東野町西一丁目","lat":"35.264277","lng":"136.976531"},{"town":"東野町西二丁目","lat":"35.267918","lng":"136.977758"},{"town":"東野町西三丁目","lat":"35.269115","lng":"136.980415"},{"town":"東山町","lat":"35.277068","lng":"136.992494"},{"town":"東山町一丁目","lat":"35.281699","lng":"136.995905"},{"town":"東山町二丁目","lat":"35.282071","lng":"136.997775"},{"town":"東山町三丁目","lat":"35.282129","lng":"136.999559"},{"town":"東山町四丁目","lat":"35.280973","lng":"137.001914"},{"town":"東山町五丁目","lat":"35.279481","lng":"136.998798"},{"town":"不二ガ丘一丁目","lat":"35.267782","lng":"137.012625"},{"town":"不二ガ丘二丁目","lat":"35.269386","lng":"137.013553"},{"town":"不二ガ丘三丁目","lat":"35.270909","lng":"137.013313"},{"town":"不二町一丁目","lat":"35.267393","lng":"137.026405"},{"town":"不二町二丁目","lat":"35.269537","lng":"137.026607"},{"town":"藤山台十丁目","lat":"35.287717","lng":"137.038641"},{"town":"藤山台一丁目","lat":"35.284757","lng":"137.044734"},{"town":"藤山台二丁目","lat":"35.282752","lng":"137.042779"},{"town":"藤山台三丁目","lat":"35.284772","lng":"137.039082"},{"town":"藤山台四丁目","lat":"35.281619","lng":"137.034733"},{"town":"藤山台五丁目","lat":"35.278669","lng":"137.032444"},{"town":"藤山台八丁目","lat":"35.282135","lng":"137.031898"},{"town":"藤山台九丁目","lat":"35.285349","lng":"137.034639"},{"town":"二子町一丁目","lat":"35.224900","lng":"136.935072"},{"town":"二子町二丁目","lat":"35.227639","lng":"136.935134"},{"town":"細木町一丁目","lat":"35.223810","lng":"136.955804"},{"town":"細野町","lat":"35.301212","lng":"137.065220"},{"town":"堀ノ内町","lat":"35.254552","lng":"137.005703"},{"town":"堀ノ内町一丁目","lat":"35.252557","lng":"137.004426"},{"town":"堀ノ内町二丁目","lat":"35.251571","lng":"137.006079"},{"town":"堀ノ内町三丁目","lat":"35.254044","lng":"137.008119"},{"town":"堀ノ内町四丁目","lat":"35.250917","lng":"137.008076"},{"town":"堀ノ内町五丁目","lat":"35.249606","lng":"137.004410"},{"town":"堀ノ内町北一丁目","lat":"35.254673","lng":"137.003042"},{"town":"堀ノ内町北二丁目","lat":"35.256911","lng":"137.007203"},{"town":"前並町","lat":"35.261892","lng":"136.948778"},{"town":"前並町一丁目","lat":"35.258264","lng":"136.945964"},{"town":"前並町二丁目","lat":"35.259793","lng":"136.949441"},{"town":"前並町三丁目","lat":"35.260439","lng":"136.946376"},{"town":"町屋町","lat":"35.272331","lng":"136.957319"},{"town":"町屋町一丁目","lat":"35.269579","lng":"136.956983"},{"town":"松新町一丁目","lat":"35.230503","lng":"136.955972"},{"town":"松新町二丁目","lat":"35.232594","lng":"136.959323"},{"town":"松新町三丁目","lat":"35.231540","lng":"136.960433"},{"town":"松新町四丁目","lat":"35.230302","lng":"136.959487"},{"town":"松新町五丁目","lat":"35.229618","lng":"136.958065"},{"town":"松新町六丁目","lat":"35.229039","lng":"136.957104"},{"town":"松本町","lat":"35.273085","lng":"137.015962"},{"town":"松本町一丁目","lat":"35.271076","lng":"137.024084"},{"town":"松本町二丁目","lat":"35.272895","lng":"137.021869"},{"town":"瑞穂通一丁目","lat":"35.243682","lng":"136.963260"},{"town":"瑞穂通二丁目","lat":"35.245142","lng":"136.965331"},{"town":"瑞穂通三丁目","lat":"35.246309","lng":"136.967130"},{"town":"瑞穂通四丁目","lat":"35.247530","lng":"136.969276"},{"town":"瑞穂通五丁目","lat":"35.249272","lng":"136.971198"},{"town":"瑞穂通六丁目","lat":"35.250195","lng":"136.972933"},{"town":"瑞穂通七丁目","lat":"35.252452","lng":"136.974231"},{"town":"瑞穂通八丁目","lat":"35.253330","lng":"136.975942"},{"town":"南下原町","lat":"35.268788","lng":"136.965190"},{"town":"南下原町一丁目","lat":"35.264275","lng":"136.966967"},{"town":"南下原町二丁目","lat":"35.266994","lng":"136.965403"},{"town":"南下原町三丁目","lat":"35.268118","lng":"136.970249"},{"town":"南下原町四丁目","lat":"35.269209","lng":"136.973724"},{"town":"南下原町五丁目","lat":"35.266180","lng":"136.974002"},{"town":"南下原町六丁目","lat":"35.264144","lng":"136.970924"},{"town":"南花長町","lat":"35.226433","lng":"136.938562"},{"town":"美濃町一丁目","lat":"35.241665","lng":"136.938280"},{"town":"美濃町二丁目","lat":"35.241193","lng":"136.941564"},{"town":"美濃町三丁目","lat":"35.240567","lng":"136.945511"},{"town":"宮町","lat":"35.252553","lng":"136.940298"},{"town":"宮町一丁目","lat":"35.251921","lng":"136.947269"},{"town":"宮町二丁目","lat":"35.250996","lng":"136.944759"},{"town":"宮町三丁目","lat":"35.254357","lng":"136.944707"},{"town":"御幸町一丁目","lat":"35.218353","lng":"136.941042"},{"town":"御幸町二丁目","lat":"35.219951","lng":"136.942110"},{"town":"御幸町三丁目","lat":"35.222489","lng":"136.941521"},{"town":"妙慶町","lat":"35.237232","lng":"136.952371"},{"town":"妙慶町二丁目","lat":"35.237690","lng":"136.950427"},{"town":"妙慶町三丁目","lat":"35.239882","lng":"136.951062"},{"town":"桃山町","lat":"35.280660","lng":"136.960979"},{"town":"桃山町一丁目","lat":"35.278712","lng":"136.968290"},{"town":"桃山町二丁目","lat":"35.282274","lng":"136.968749"},{"town":"桃山町三丁目","lat":"35.285712","lng":"136.970381"},{"town":"森山田町","lat":"35.223033","lng":"136.953609"},{"town":"八事町一丁目","lat":"35.245678","lng":"136.977295"},{"town":"八事町二丁目","lat":"35.244844","lng":"136.978345"},{"town":"八事町三丁目","lat":"35.244530","lng":"136.980112"},{"town":"大和通一丁目","lat":"35.230339","lng":"136.950746"},{"town":"大和通二丁目","lat":"35.233270","lng":"136.952275"},{"town":"弥生町","lat":"35.239663","lng":"136.978768"},{"town":"弥生町一丁目","lat":"35.239814","lng":"136.975112"},{"town":"弥生町二丁目","lat":"35.241692","lng":"136.978212"},{"town":"四ツ家町","lat":"35.259698","lng":"136.941830"},{"town":"六軒屋町","lat":"35.258135","lng":"136.981433"},{"town":"六軒屋町一丁目","lat":"35.256248","lng":"136.974994"},{"town":"六軒屋町二丁目","lat":"35.260111","lng":"136.971956"},{"town":"六軒屋町三丁目","lat":"35.261691","lng":"136.976130"},{"town":"六軒屋町四丁目","lat":"35.259820","lng":"136.975766"},{"town":"六軒屋町五丁目","lat":"35.256935","lng":"136.976733"},{"town":"六軒屋町六丁目","lat":"35.259764","lng":"136.979262"},{"town":"六軒屋町七丁目","lat":"35.258612","lng":"136.980067"},{"town":"六軒屋町西一丁目","lat":"35.256155","lng":"136.973287"},{"town":"六軒屋町西二丁目","lat":"35.259121","lng":"136.969287"},{"town":"六軒屋町西三丁目","lat":"35.261435","lng":"136.969997"},{"town":"若草通一丁目","lat":"35.234369","lng":"136.955854"},{"town":"若草通二丁目","lat":"35.235746","lng":"136.957551"},{"town":"若草通三丁目","lat":"35.238076","lng":"136.959524"},{"town":"若草通四丁目","lat":"35.240422","lng":"136.961101"},{"town":"若草通五丁目","lat":"35.242258","lng":"136.961803"},{"town":"割塚町","lat":"35.245800","lng":"136.986195"},{"town":"高山町四丁目","lat":"35.260353","lng":"136.953285"},{"town":"高山町","lat":"35.261600","lng":"136.952509"},{"town":"松河戸町五丁目","lat":"35.219698","lng":"136.967682"},{"town":"松河戸町四丁目","lat":"35.222388","lng":"136.968635"},{"town":"松河戸町六丁目","lat":"35.220177","lng":"136.971609"},{"town":"細木町二丁目","lat":"35.223717","lng":"136.958738"},{"town":"愛知町","lat":"35.221051","lng":"136.957753"},{"town":"松河戸町","lat":"35.218589","lng":"136.962684"},{"town":"松河戸町一丁目","lat":"35.221538","lng":"136.964026"},{"town":"松河戸町二丁目","lat":"35.223716","lng":"136.963741"},{"town":"松河戸町三丁目","lat":"35.223536","lng":"136.970421"},{"town":"庄名町","lat":"35.278777","lng":"137.025584"},{"town":"藤山台七丁目","lat":"35.279427","lng":"137.029286"},{"town":"東神明町一丁目","lat":"35.273179","lng":"137.024932"},{"town":"不二町三丁目","lat":"35.272227","lng":"137.025619"},{"town":"庄名町一丁目","lat":"35.273625","lng":"137.026628"},{"town":"藤山台六丁目","lat":"35.277087","lng":"137.029100"},{"town":"庄名町二丁目","lat":"35.276288","lng":"137.026480"},{"town":"白山町五丁目","lat":"35.274277","lng":"137.029314"}]