[{"town":"相川町","lat":"34.658632","lng":"137.310072"},{"town":"赤石一丁目","lat":"34.665374","lng":"137.266550"},{"town":"赤石二丁目","lat":"34.664929","lng":"137.268336"},{"town":"赤石三丁目","lat":"34.663353","lng":"137.268837"},{"town":"赤石四丁目","lat":"34.663467","lng":"137.267588"},{"town":"赤石五丁目","lat":"34.661951","lng":"137.266362"},{"town":"赤石六丁目","lat":"34.661523","lng":"137.267700"},{"town":"赤羽根町","lat":"34.621239","lng":"137.199621"},{"town":"芦町","lat":"34.639707","lng":"137.188950"},{"town":"伊川津町","lat":"34.646531","lng":"137.145186"},{"town":"池尻町","lat":"34.613433","lng":"137.179272"},{"town":"石神町","lat":"34.632475","lng":"137.140752"},{"town":"伊良湖町","lat":"34.589939","lng":"137.043420"},{"town":"宇津江町","lat":"34.658500","lng":"137.179676"},{"town":"浦町","lat":"34.698234","lng":"137.278567"},{"town":"江比間町","lat":"34.648977","lng":"137.168832"},{"town":"大草町","lat":"34.635830","lng":"137.253879"},{"town":"大久保町","lat":"34.648986","lng":"137.235058"},{"town":"越戸町","lat":"34.598309","lng":"137.155245"},{"town":"折立町","lat":"34.631601","lng":"137.112637"},{"town":"加治町","lat":"34.658969","lng":"137.253505"},{"town":"片西一丁目","lat":"34.693457","lng":"137.260522"},{"town":"片西二丁目","lat":"34.694473","lng":"137.260768"},{"town":"片西三丁目","lat":"34.695252","lng":"137.259354"},{"town":"片浜町","lat":"34.691676","lng":"137.260612"},{"town":"亀山町","lat":"34.608165","lng":"137.067819"},{"town":"神戸町","lat":"34.657082","lng":"137.277829"},{"town":"光崎一丁目","lat":"34.710306","lng":"137.280200"},{"town":"光崎二丁目","lat":"34.711352","lng":"137.277841"},{"town":"光崎三丁目","lat":"34.711348","lng":"137.282986"},{"town":"小塩津町","lat":"34.600594","lng":"137.092893"},{"town":"古田町","lat":"34.623810","lng":"137.111958"},{"town":"御殿山","lat":"34.674312","lng":"137.285441"},{"town":"小中山町","lat":"34.647123","lng":"137.070726"},{"town":"白浜","lat":"34.696758","lng":"137.246415"},{"town":"白谷町","lat":"34.683090","lng":"137.239952"},{"town":"高木町","lat":"34.630236","lng":"137.123134"},{"town":"高松町","lat":"34.627975","lng":"137.234696"},{"town":"田原町","lat":"34.673188","lng":"137.259611"},{"town":"豊島町","lat":"34.669882","lng":"137.286934"},{"town":"長沢町","lat":"34.614630","lng":"137.108290"},{"town":"中山町","lat":"34.624839","lng":"137.076253"},{"town":"仁崎町","lat":"34.669302","lng":"137.223928"},{"town":"西神戸町","lat":"34.647267","lng":"137.268179"},{"town":"西山町","lat":"34.612030","lng":"137.053084"},{"town":"野田町","lat":"34.652208","lng":"137.205959"},{"town":"波瀬町","lat":"34.708787","lng":"137.278098"},{"town":"八王子町","lat":"34.633659","lng":"137.171827"},{"town":"馬伏町","lat":"34.641673","lng":"137.153077"},{"town":"日出町","lat":"34.582572","lng":"137.044145"},{"town":"東赤石一丁目","lat":"34.664535","lng":"137.272212"},{"town":"東赤石二丁目","lat":"34.662970","lng":"137.273042"},{"town":"東赤石三丁目","lat":"34.664033","lng":"137.270829"},{"town":"東赤石四丁目","lat":"34.662425","lng":"137.270494"},{"town":"東赤石五丁目","lat":"34.661265","lng":"137.273635"},{"town":"東神戸町","lat":"34.642273","lng":"137.295640"},{"town":"姫見台","lat":"34.706000","lng":"137.275365"},{"town":"福江町","lat":"34.626643","lng":"137.100581"},{"town":"保美町","lat":"34.618213","lng":"137.088604"},{"town":"堀切町","lat":"34.597519","lng":"137.074457"},{"town":"ほると台","lat":"34.662826","lng":"137.208860"},{"town":"緑が浜","lat":"34.717763","lng":"137.282089"},{"town":"南神戸町","lat":"34.638067","lng":"137.281216"},{"town":"向山町","lat":"34.633975","lng":"137.098652"},{"town":"六連町","lat":"34.651205","lng":"137.316025"},{"town":"村松町","lat":"34.631272","lng":"137.156692"},{"town":"やぐま台","lat":"34.672001","lng":"137.307534"},{"town":"谷熊町","lat":"34.670983","lng":"137.301336"},{"town":"山田町","lat":"34.613983","lng":"137.127830"},{"town":"夕陽が浜","lat":"34.642672","lng":"137.139966"},{"town":"吉胡台一丁目","lat":"34.684669","lng":"137.277325"},{"town":"吉胡台二丁目","lat":"34.684307","lng":"137.278606"},{"town":"吉胡台三丁目","lat":"34.682939","lng":"137.279104"},{"town":"吉胡町","lat":"34.686551","lng":"137.278045"},{"town":"若見町","lat":"34.611283","lng":"137.163413"},{"town":"和地町","lat":"34.598444","lng":"137.123614"}]