[{"town":"赤池池田町","lat":"35.275078","lng":"136.810320"},{"town":"赤池居道町","lat":"35.273751","lng":"136.813130"},{"town":"赤池裏田町","lat":"35.275000","lng":"136.817799"},{"town":"赤池北池田町","lat":"35.269565","lng":"136.819549"},{"town":"赤池北町","lat":"35.270997","lng":"136.822090"},{"town":"赤池坂畑町","lat":"35.267466","lng":"136.827625"},{"town":"赤池陣出町","lat":"35.275725","lng":"136.820897"},{"town":"赤池町","lat":"35.273963","lng":"136.817495"},{"town":"赤池寺東町","lat":"35.273145","lng":"136.823799"},{"town":"赤池天王町","lat":"35.272713","lng":"136.822117"},{"town":"赤池中町","lat":"35.269848","lng":"136.822713"},{"town":"赤池西出町","lat":"35.274452","lng":"136.814581"},{"town":"赤池旗屋町","lat":"35.272199","lng":"136.816495"},{"town":"赤池東山町","lat":"35.270678","lng":"136.827176"},{"town":"赤池広畑町","lat":"35.266613","lng":"136.824941"},{"town":"赤池前山町","lat":"35.272588","lng":"136.818718"},{"town":"赤池真崎町","lat":"35.275724","lng":"136.823597"},{"town":"赤池南町","lat":"35.268772","lng":"136.824078"},{"town":"赤池宮西町","lat":"35.270378","lng":"136.819932"},{"town":"赤池山中町","lat":"35.273873","lng":"136.820745"},{"town":"浅井町","lat":"35.253715","lng":"136.765937"},{"town":"朝府町","lat":"35.251085","lng":"136.776154"},{"town":"天池金山町","lat":"35.259072","lng":"136.775126"},{"town":"天池光田町","lat":"35.254144","lng":"136.775179"},{"town":"天池五反田町","lat":"35.252363","lng":"136.771318"},{"town":"天池町","lat":"35.255012","lng":"136.776532"},{"town":"天池伝代町","lat":"35.260083","lng":"136.768585"},{"town":"天池遠松町","lat":"35.256155","lng":"136.778009"},{"town":"天池浪寄町","lat":"35.254818","lng":"136.771243"},{"town":"天池西町","lat":"35.256910","lng":"136.768918"},{"town":"天池東町","lat":"35.258168","lng":"136.771674"},{"town":"天池牧作町","lat":"35.256534","lng":"136.775124"},{"town":"池部町","lat":"35.246045","lng":"136.788749"},{"town":"池部町一丁目","lat":"35.245301","lng":"136.786985"},{"town":"池部町二丁目","lat":"35.243100","lng":"136.787399"},{"town":"池部町三丁目","lat":"35.241077","lng":"136.788062"},{"town":"一色青海町","lat":"35.237356","lng":"136.754210"},{"town":"一色跡之口町","lat":"35.235633","lng":"136.751931"},{"town":"一色市場町","lat":"35.243349","lng":"136.749693"},{"town":"一色上方町","lat":"35.246557","lng":"136.748059"},{"town":"一色三反田町","lat":"35.241116","lng":"136.754989"},{"town":"一色巡見町","lat":"35.245303","lng":"136.743982"},{"town":"一色神宮町","lat":"35.245076","lng":"136.754551"},{"town":"一色竹橋町","lat":"35.247201","lng":"136.752868"},{"town":"一色長畑町","lat":"35.239296","lng":"136.754402"},{"town":"一色中屋敷町","lat":"35.243978","lng":"136.746778"},{"town":"一色西町","lat":"35.243324","lng":"136.741710"},{"town":"一色白山町","lat":"35.245878","lng":"136.750937"},{"town":"一色藤塚町","lat":"35.241881","lng":"136.756435"},{"town":"一色道上町","lat":"35.243825","lng":"136.751843"},{"town":"石橋一丁目","lat":"35.262510","lng":"136.782106"},{"town":"石橋二丁目","lat":"35.260588","lng":"136.781176"},{"town":"石橋三丁目","lat":"35.258484","lng":"136.780956"},{"town":"石橋四丁目","lat":"35.256305","lng":"136.780108"},{"town":"石橋五丁目","lat":"35.258505","lng":"136.778073"},{"town":"石橋六丁目","lat":"35.261386","lng":"136.778818"},{"town":"板葺町","lat":"35.223461","lng":"136.761013"},{"town":"一色川俣町","lat":"35.239291","lng":"136.742239"},{"town":"一色下方町","lat":"35.238617","lng":"136.745999"},{"town":"一色中通町","lat":"35.242840","lng":"136.746064"},{"town":"一色森山町","lat":"35.238294","lng":"136.749510"},{"town":"稲沢町","lat":"35.248498","lng":"136.789552"},{"town":"稲沢町北山一丁目","lat":"35.257310","lng":"136.791556"},{"town":"稲沢町北山二丁目","lat":"35.257306","lng":"136.790308"},{"town":"稲島十丁目","lat":"35.260222","lng":"136.793330"},{"town":"稲島十一丁目","lat":"35.257881","lng":"136.793833"},{"town":"稲島十二丁目","lat":"35.257913","lng":"136.796054"},{"town":"稲島一丁目","lat":"35.259932","lng":"136.790942"},{"town":"稲島二丁目","lat":"35.260136","lng":"136.789033"},{"town":"稲島三丁目","lat":"35.262923","lng":"136.789528"},{"town":"稲島四丁目","lat":"35.265749","lng":"136.788721"},{"town":"稲島五丁目","lat":"35.267124","lng":"136.793413"},{"town":"稲島六丁目","lat":"35.264530","lng":"136.793246"},{"town":"稲島七丁目","lat":"35.263158","lng":"136.795428"},{"town":"稲島八丁目","lat":"35.262419","lng":"136.793308"},{"town":"稲島九丁目","lat":"35.263464","lng":"136.790919"},{"town":"稲島町","lat":"35.264887","lng":"136.800639"},{"town":"稲島東一丁目","lat":"35.257530","lng":"136.801724"},{"town":"稲島東二丁目","lat":"35.257744","lng":"136.798956"},{"town":"稲島東三丁目","lat":"35.260244","lng":"136.799002"},{"town":"稲島東四丁目","lat":"35.260275","lng":"136.801747"},{"town":"稲島東五丁目","lat":"35.261950","lng":"136.799009"},{"town":"稲島東六丁目","lat":"35.260688","lng":"136.796648"},{"town":"稲島法成寺町","lat":"35.260917","lng":"136.806372"},{"town":"稲葉一丁目","lat":"35.257247","lng":"136.788679"},{"town":"稲葉二丁目","lat":"35.254540","lng":"136.789130"},{"town":"稲葉三丁目","lat":"35.253190","lng":"136.789989"},{"town":"稲葉四丁目","lat":"35.251678","lng":"136.791347"},{"town":"稲葉五丁目","lat":"35.251381","lng":"136.787856"},{"town":"稲府町","lat":"35.247885","lng":"136.780496"},{"town":"井之口石塚町","lat":"35.239021","lng":"136.818687"},{"town":"井之口大坪町","lat":"35.236532","lng":"136.818212"},{"town":"井之口大宮町","lat":"35.244605","lng":"136.827374"},{"town":"井之口沖ノ田町","lat":"35.240863","lng":"136.815800"},{"town":"井之口親畑町","lat":"35.236332","lng":"136.821838"},{"town":"井之口柿ノ木町","lat":"35.239794","lng":"136.821768"},{"town":"井之口北畑町","lat":"35.245401","lng":"136.822302"},{"town":"井之口小番戸町","lat":"35.240917","lng":"136.818702"},{"town":"井之口町","lat":"35.241068","lng":"136.828096"},{"town":"井之口鶴田町","lat":"35.238828","lng":"136.815497"},{"town":"井之口白山町","lat":"35.242960","lng":"136.822863"},{"town":"井之口本町","lat":"35.239779","lng":"136.825397"},{"town":"井之口四家町","lat":"35.236294","lng":"136.825462"},{"town":"井堀犬城町","lat":"35.227907","lng":"136.757412"},{"town":"井堀江西町","lat":"35.229870","lng":"136.756931"},{"town":"井堀大縄町","lat":"35.231432","lng":"136.768224"},{"town":"井堀蒲六町","lat":"35.231820","lng":"136.757547"},{"town":"井堀川東町","lat":"35.229224","lng":"136.766021"},{"town":"井堀北出町","lat":"35.232801","lng":"136.762797"},{"town":"井堀下郷町","lat":"35.226887","lng":"136.759579"},{"town":"井堀宿塚町","lat":"35.229335","lng":"136.768990"},{"town":"井堀高見町","lat":"35.231059","lng":"136.762258"},{"town":"井堀中郷町","lat":"35.229215","lng":"136.761323"},{"town":"井堀野口町","lat":"35.233971","lng":"136.758308"},{"town":"井堀橋下町","lat":"35.226064","lng":"136.763038"},{"town":"今村町","lat":"35.215198","lng":"136.761611"},{"town":"牛踏町","lat":"35.217720","lng":"136.781719"},{"town":"駅前一丁目","lat":"35.253459","lng":"136.819916"},{"town":"駅前二丁目","lat":"35.250866","lng":"136.819163"},{"town":"駅前三丁目","lat":"35.247966","lng":"136.818625"},{"town":"駅前四丁目","lat":"35.248268","lng":"136.821659"},{"town":"大塚北一丁目","lat":"35.247048","lng":"136.793041"},{"town":"大塚北二丁目","lat":"35.244168","lng":"136.790772"},{"town":"大塚北三丁目","lat":"35.246346","lng":"136.794165"},{"town":"大塚北四丁目","lat":"35.244191","lng":"136.793796"},{"town":"大塚北五丁目","lat":"35.242228","lng":"136.793162"},{"town":"大塚北六丁目","lat":"35.246172","lng":"136.796370"},{"town":"大塚北七丁目","lat":"35.242142","lng":"136.795955"},{"town":"大塚北八丁目","lat":"35.242833","lng":"136.798083"},{"town":"大塚北九丁目","lat":"35.242523","lng":"136.800656"},{"town":"大塚町","lat":"35.246712","lng":"136.791477"},{"town":"大塚南十丁目","lat":"35.238060","lng":"136.790444"},{"town":"大塚南十一丁目","lat":"35.241227","lng":"136.790783"},{"town":"大塚南一丁目","lat":"35.240066","lng":"136.793474"},{"town":"大塚南二丁目","lat":"35.238305","lng":"136.793323"},{"town":"大塚南三丁目","lat":"35.238887","lng":"136.795868"},{"town":"大塚南四丁目","lat":"35.238693","lng":"136.797802"},{"town":"大塚南五丁目","lat":"35.238573","lng":"136.800722"},{"town":"大塚南六丁目","lat":"35.235136","lng":"136.798493"},{"town":"大塚南七丁目","lat":"35.235790","lng":"136.795444"},{"town":"大塚南八丁目","lat":"35.233834","lng":"136.795532"},{"town":"大塚南九丁目","lat":"35.236118","lng":"136.792149"},{"town":"大矢青山町","lat":"35.214242","lng":"136.789961"},{"town":"大矢江西町","lat":"35.215116","lng":"136.791040"},{"town":"大矢高田町","lat":"35.220707","lng":"136.790544"},{"town":"大矢浄土寺町","lat":"35.212352","lng":"136.790721"},{"town":"大矢白山町","lat":"35.216595","lng":"136.789591"},{"town":"大矢真宮町","lat":"35.222355","lng":"136.790780"},{"town":"大矢仙口町","lat":"35.218782","lng":"136.789887"},{"town":"大矢町","lat":"35.217791","lng":"136.795166"},{"town":"奥田井之下町","lat":"35.237764","lng":"136.812048"},{"town":"奥田大沢町","lat":"35.235521","lng":"136.815901"},{"town":"奥田神ノ木町","lat":"35.234087","lng":"136.804030"},{"town":"奥田北花ノ木町","lat":"35.228737","lng":"136.806200"},{"town":"奥田木塚町","lat":"35.224999","lng":"136.812998"},{"town":"奥田切田町","lat":"35.227497","lng":"136.815710"},{"town":"奥田計用町","lat":"35.225616","lng":"136.807747"},{"town":"奥田酒伊町","lat":"35.230984","lng":"136.817754"},{"town":"奥田島崎町","lat":"35.231499","lng":"136.803475"},{"town":"奥田下河町","lat":"35.224362","lng":"136.816472"},{"town":"奥田膳棚町","lat":"35.234718","lng":"136.813107"},{"town":"奥田大門町","lat":"35.234856","lng":"136.809217"},{"town":"奥田立長町","lat":"35.228218","lng":"136.813868"},{"town":"奥田田畑町","lat":"35.224424","lng":"136.809787"},{"town":"奥田町","lat":"35.227316","lng":"136.810070"},{"town":"奥田寺切町","lat":"35.228226","lng":"136.812622"},{"town":"奥田天神町","lat":"35.228043","lng":"136.808198"},{"town":"奥田天目寺町","lat":"35.238836","lng":"136.807100"},{"town":"奥田中切町","lat":"35.230463","lng":"136.811794"},{"town":"奥田長角町","lat":"35.236916","lng":"136.808837"},{"town":"奥田流町","lat":"35.231487","lng":"136.814660"},{"town":"奥田白山町","lat":"35.235472","lng":"136.805885"},{"town":"奥田馬場町","lat":"35.231171","lng":"136.808661"},{"town":"奥田堀畑町","lat":"35.232893","lng":"136.809901"},{"town":"奥田南花ノ木町","lat":"35.225957","lng":"136.806458"},{"town":"奥田宮長町","lat":"35.231575","lng":"136.806139"},{"town":"下津油田町","lat":"35.252429","lng":"136.828974"},{"town":"下津牛洗町","lat":"35.265203","lng":"136.822796"},{"town":"下津片町","lat":"35.261030","lng":"136.825201"},{"town":"下津北信正寺町","lat":"35.253908","lng":"136.834783"},{"town":"下津北山二丁目","lat":"35.255713","lng":"136.824582"},{"town":"下津鞍掛町","lat":"35.261571","lng":"136.823056"},{"town":"下津小井戸町","lat":"35.258538","lng":"136.824303"},{"town":"下津光明寺町","lat":"35.264630","lng":"136.825881"},{"town":"下津下町西一丁目","lat":"35.250258","lng":"136.825448"},{"town":"下津下町西二丁目","lat":"35.250021","lng":"136.828331"},{"town":"下津下町西三丁目","lat":"35.248097","lng":"136.827483"},{"town":"下津下町東一丁目","lat":"35.250552","lng":"136.834367"},{"town":"下津下町東二丁目","lat":"35.249328","lng":"136.833074"},{"town":"下津下町東三丁目","lat":"35.248233","lng":"136.832594"},{"town":"下津下町東四丁目","lat":"35.247331","lng":"136.832339"},{"town":"下津下町東五丁目","lat":"35.245473","lng":"136.830514"},{"town":"下津蛇池町","lat":"35.262800","lng":"136.826814"},{"town":"下津新町","lat":"35.255850","lng":"136.826374"},{"town":"下津住吉町","lat":"35.258995","lng":"136.828949"},{"town":"下津大門町","lat":"35.256320","lng":"136.828639"},{"town":"下津高戸町","lat":"35.259223","lng":"136.827202"},{"town":"下津丹下田町","lat":"35.252737","lng":"136.826831"},{"town":"下津町","lat":"35.254355","lng":"136.821624"},{"town":"下津寺前町","lat":"35.252178","lng":"136.832064"},{"town":"下津土山町","lat":"35.253643","lng":"136.832252"},{"town":"下津長田町","lat":"35.263037","lng":"136.822578"},{"town":"下津二本杉町","lat":"35.257268","lng":"136.832277"},{"town":"下津ふじ塚町","lat":"35.262798","lng":"136.828488"},{"town":"下津穂所町","lat":"35.260213","lng":"136.823532"},{"town":"下津本郷町","lat":"35.255303","lng":"136.832762"},{"town":"下津南信正寺町","lat":"35.251891","lng":"136.834861"},{"town":"下津南山町","lat":"35.253588","lng":"136.827198"},{"town":"下津宮西町","lat":"35.255598","lng":"136.829757"},{"town":"下津森町","lat":"35.251936","lng":"136.824608"},{"town":"下津矢口町","lat":"35.258701","lng":"136.831916"},{"town":"片原一色町","lat":"35.250677","lng":"136.744276"},{"town":"北市場町","lat":"35.225839","lng":"136.834999"},{"town":"北市場西町","lat":"35.224366","lng":"136.834499"},{"town":"北市場本町一丁目","lat":"35.232295","lng":"136.832690"},{"town":"北市場本町二丁目","lat":"35.230696","lng":"136.834262"},{"town":"北市場本町三丁目","lat":"35.229319","lng":"136.836608"},{"town":"北市場本町四丁目","lat":"35.228687","lng":"136.833789"},{"town":"北市場南町","lat":"35.222737","lng":"136.830908"},{"town":"北麻績町","lat":"35.214129","lng":"136.777734"},{"town":"北島一丁目","lat":"35.227202","lng":"136.803995"},{"town":"北島二丁目","lat":"35.229516","lng":"136.803947"},{"town":"北島三丁目","lat":"35.228373","lng":"136.800697"},{"town":"北島四丁目","lat":"35.230593","lng":"136.801103"},{"town":"北島五丁目","lat":"35.229438","lng":"136.796762"},{"town":"北島六丁目","lat":"35.231796","lng":"136.797585"},{"town":"北島七丁目","lat":"35.231012","lng":"136.793566"},{"town":"北島八丁目","lat":"35.227974","lng":"136.793621"},{"town":"北島九丁目","lat":"35.225869","lng":"136.790794"},{"town":"北島町","lat":"35.224966","lng":"136.798768"},{"town":"儀長一丁目","lat":"35.237081","lng":"136.759257"},{"town":"儀長二丁目","lat":"35.235789","lng":"136.762924"},{"town":"儀長三丁目","lat":"35.234584","lng":"136.765986"},{"town":"儀長四丁目","lat":"35.234893","lng":"136.767930"},{"town":"儀長五丁目","lat":"35.238607","lng":"136.762917"},{"town":"木全一丁目","lat":"35.263462","lng":"136.786920"},{"town":"木全二丁目","lat":"35.260014","lng":"136.786422"},{"town":"木全三丁目","lat":"35.260552","lng":"136.783893"},{"town":"木全四丁目","lat":"35.258328","lng":"136.783743"},{"town":"木全五丁目","lat":"35.256860","lng":"136.782073"},{"town":"木全町","lat":"35.258094","lng":"136.785278"},{"town":"陸田一里山町","lat":"35.267840","lng":"136.821199"},{"town":"陸田馬山町","lat":"35.262467","lng":"136.815176"},{"town":"陸田栗林町","lat":"35.265765","lng":"136.821220"},{"town":"陸田高畑町","lat":"35.269854","lng":"136.817285"},{"town":"陸田町","lat":"35.266011","lng":"136.815172"},{"town":"陸田白山町","lat":"35.271176","lng":"136.814261"},{"town":"陸田花塚町","lat":"35.265176","lng":"136.813792"},{"town":"陸田東出町","lat":"35.267285","lng":"136.818833"},{"town":"陸田本町","lat":"35.267747","lng":"136.816132"},{"town":"陸田丸之内町","lat":"35.268194","lng":"136.812349"},{"town":"陸田宮前一丁目","lat":"35.264204","lng":"136.818351"},{"town":"日下部北町一丁目","lat":"35.233886","lng":"136.825095"},{"town":"日下部北町二丁目","lat":"35.231350","lng":"136.825063"},{"town":"日下部北町三丁目","lat":"35.234308","lng":"136.821700"},{"town":"日下部北町四丁目","lat":"35.232657","lng":"136.821857"},{"town":"日下部北町五丁目","lat":"35.230570","lng":"136.821613"},{"town":"日下部町","lat":"35.228562","lng":"136.832998"},{"town":"日下部中町一丁目","lat":"35.231338","lng":"136.828123"},{"town":"日下部中町二丁目","lat":"35.230063","lng":"136.828193"},{"town":"日下部中町三丁目","lat":"35.228809","lng":"136.828322"},{"town":"日下部中町四丁目","lat":"35.227365","lng":"136.827684"},{"town":"日下部中町五丁目","lat":"35.229306","lng":"136.825239"},{"town":"日下部中町六丁目","lat":"35.227697","lng":"136.825231"},{"town":"日下部中町七丁目","lat":"35.226441","lng":"136.825450"},{"town":"日下部西町一丁目","lat":"35.228546","lng":"136.821459"},{"town":"日下部西町二丁目","lat":"35.226310","lng":"136.821270"},{"town":"日下部花ノ木町","lat":"35.224819","lng":"136.831325"},{"town":"日下部東町一丁目","lat":"35.229540","lng":"136.830598"},{"town":"日下部東町二丁目","lat":"35.227973","lng":"136.832002"},{"town":"日下部東町三丁目","lat":"35.227196","lng":"136.829876"},{"town":"日下部松野町一丁目","lat":"35.223971","lng":"136.818922"},{"town":"日下部松野町二丁目","lat":"35.223617","lng":"136.820644"},{"town":"日下部松野町三丁目","lat":"35.223896","lng":"136.822050"},{"town":"日下部南町一丁目","lat":"35.225203","lng":"136.826151"},{"town":"日下部南町二丁目","lat":"35.223198","lng":"136.827786"},{"town":"日下部南町三丁目","lat":"35.223389","lng":"136.825543"},{"town":"日下部南町四丁目","lat":"35.223516","lng":"136.823580"},{"town":"小池一丁目","lat":"35.253460","lng":"136.813614"},{"town":"小池二丁目","lat":"35.249846","lng":"136.810884"},{"town":"小池三丁目","lat":"35.249422","lng":"136.814859"},{"town":"小池四丁目","lat":"35.246467","lng":"136.812945"},{"town":"小池正明寺町","lat":"35.256659","lng":"136.811306"},{"town":"国府宮一丁目","lat":"35.257066","lng":"136.804923"},{"town":"国府宮二丁目","lat":"35.253515","lng":"136.804167"},{"town":"国府宮三丁目","lat":"35.253854","lng":"136.806810"},{"town":"国府宮四丁目","lat":"35.256715","lng":"136.808736"},{"town":"国府宮神田町","lat":"35.259334","lng":"136.806988"},{"town":"国府宮町","lat":"35.259098","lng":"136.804664"},{"town":"子生和池田町","lat":"35.275159","lng":"136.808775"},{"town":"子生和円場町","lat":"35.268842","lng":"136.809863"},{"town":"子生和小原町","lat":"35.267750","lng":"136.807693"},{"town":"子生和子安賀町","lat":"35.272699","lng":"136.806393"},{"town":"子生和坂田町","lat":"35.267103","lng":"136.810439"},{"town":"子生和山王町","lat":"35.274978","lng":"136.807292"},{"town":"子生和神明町","lat":"35.272915","lng":"136.809598"},{"town":"子生和住吉町","lat":"35.270444","lng":"136.805310"},{"town":"子生和町","lat":"35.270040","lng":"136.806839"},{"town":"子生和溝師町","lat":"35.272182","lng":"136.812327"},{"town":"子生和八島町","lat":"35.270873","lng":"136.810042"},{"town":"御供所町","lat":"35.250161","lng":"136.804417"},{"town":"小沢一丁目","lat":"35.256348","lng":"136.795011"},{"town":"小沢二丁目","lat":"35.254574","lng":"136.795268"},{"town":"小沢三丁目","lat":"35.252822","lng":"136.795236"},{"town":"小沢四丁目","lat":"35.250730","lng":"136.795533"},{"town":"小寺町一丁目","lat":"35.241212","lng":"136.782838"},{"town":"小寺町二丁目","lat":"35.239652","lng":"136.781550"},{"town":"小寺町三丁目","lat":"35.238533","lng":"136.780429"},{"town":"込野町","lat":"35.212416","lng":"136.785143"},{"town":"幸町","lat":"35.240878","lng":"136.806737"},{"town":"坂田町","lat":"35.212180","lng":"136.757945"},{"town":"桜木一丁目","lat":"35.254314","lng":"136.780874"},{"town":"桜木二丁目","lat":"35.251261","lng":"136.779969"},{"town":"桜木宮前町","lat":"35.253774","lng":"136.778030"},{"town":"重本一丁目","lat":"35.247855","lng":"136.782419"},{"town":"重本二丁目","lat":"35.248849","lng":"136.784409"},{"town":"重本三丁目","lat":"35.246840","lng":"136.784017"},{"town":"重本四丁目","lat":"35.247588","lng":"136.786287"},{"town":"島小原町","lat":"35.267452","lng":"136.806251"},{"town":"島子安賀町","lat":"35.270170","lng":"136.803830"},{"town":"島高須賀町","lat":"35.265622","lng":"136.804860"},{"town":"島町","lat":"35.267749","lng":"136.800854"},{"town":"島東之郷町","lat":"35.267909","lng":"136.804324"},{"town":"清水阿原町","lat":"35.261011","lng":"136.764419"},{"town":"清水郷西町","lat":"35.260253","lng":"136.757090"},{"town":"清水町","lat":"35.259146","lng":"136.759561"},{"town":"清水寺前町","lat":"35.257047","lng":"136.758805"},{"town":"清水西川原町","lat":"35.263435","lng":"136.760288"},{"town":"清水八尻町","lat":"35.261187","lng":"136.761487"},{"town":"清水八神町","lat":"35.254143","lng":"136.761176"},{"town":"下屋一丁目","lat":"35.252221","lng":"136.768461"},{"town":"下屋二丁目","lat":"35.251798","lng":"136.765777"},{"town":"下屋三丁目","lat":"35.251895","lng":"136.763374"},{"town":"下屋町","lat":"35.251704","lng":"136.767608"},{"town":"正明寺一丁目","lat":"35.253497","lng":"136.809220"},{"town":"正明寺二丁目","lat":"35.250050","lng":"136.807217"},{"town":"正明寺三丁目","lat":"35.245822","lng":"136.807699"},{"town":"正明寺四丁目","lat":"35.243863","lng":"136.806332"},{"town":"治郎丸石塚町","lat":"35.258084","lng":"136.810001"},{"town":"治郎丸大角町","lat":"35.257802","lng":"136.811640"},{"town":"治郎丸北町","lat":"35.264873","lng":"136.806935"},{"town":"治郎丸郷前町","lat":"35.260055","lng":"136.809366"},{"town":"治郎丸神木町","lat":"35.265842","lng":"136.810264"},{"town":"治郎丸清敷町","lat":"35.259813","lng":"136.812858"},{"town":"治郎丸大明町","lat":"35.265506","lng":"136.808301"},{"town":"治郎丸高須町","lat":"35.264724","lng":"136.805447"},{"town":"治郎丸椿町","lat":"35.263978","lng":"136.810750"},{"town":"治郎丸天神町","lat":"35.259191","lng":"136.809508"},{"town":"治郎丸土井町","lat":"35.260749","lng":"136.812343"},{"town":"治郎丸中町","lat":"35.261626","lng":"136.808664"},{"town":"治郎丸西町","lat":"35.263372","lng":"136.807180"},{"town":"治郎丸白山町","lat":"35.261874","lng":"136.812267"},{"town":"治郎丸東町","lat":"35.263422","lng":"136.808940"},{"town":"治郎丸古江町","lat":"35.259297","lng":"136.808288"},{"town":"治郎丸細道町","lat":"35.258997","lng":"136.812244"},{"town":"治郎丸南町","lat":"35.260661","lng":"136.809056"},{"town":"治郎丸元町","lat":"35.262766","lng":"136.811991"},{"town":"治郎丸柳町","lat":"35.264824","lng":"136.812322"},{"town":"千代一丁目","lat":"35.229961","lng":"136.781517"},{"town":"千代二丁目","lat":"35.229032","lng":"136.784585"},{"town":"千代三丁目","lat":"35.228341","lng":"136.787396"},{"town":"千代四丁目","lat":"35.226004","lng":"136.787448"},{"town":"千代五丁目","lat":"35.226635","lng":"136.784054"},{"town":"千代六丁目","lat":"35.227728","lng":"136.781293"},{"town":"千代七丁目","lat":"35.224736","lng":"136.781477"},{"town":"千代八丁目","lat":"35.224053","lng":"136.783720"},{"town":"千代九丁目","lat":"35.223606","lng":"136.787636"},{"town":"千代町","lat":"35.225181","lng":"136.783064"},{"town":"千代西町","lat":"35.228083","lng":"136.778907"},{"town":"祖父江町大牧","lat":"35.239249","lng":"136.720561"},{"town":"祖父江町甲新田","lat":"35.228906","lng":"136.723274"},{"town":"祖父江町上牧","lat":"35.251021","lng":"136.718881"},{"town":"祖父江町桜方","lat":"35.248017","lng":"136.724731"},{"town":"祖父江町三丸渕","lat":"35.230744","lng":"136.733071"},{"town":"祖父江町拾町野","lat":"35.257709","lng":"136.699935"},{"town":"祖父江町島本","lat":"35.235149","lng":"136.706474"},{"town":"祖父江町神明津","lat":"35.238414","lng":"136.687446"},{"town":"祖父江町祖父江","lat":"35.263802","lng":"136.711537"},{"town":"祖父江町中牧","lat":"35.248802","lng":"136.712043"},{"town":"祖父江町西鵜之本","lat":"35.239667","lng":"136.699125"},{"town":"祖父江町野田","lat":"35.241374","lng":"136.706107"},{"town":"祖父江町二俣","lat":"35.242399","lng":"136.728235"},{"town":"祖父江町本甲","lat":"35.245061","lng":"136.734832"},{"town":"祖父江町馬飼","lat":"35.248064","lng":"136.691305"},{"town":"祖父江町森上","lat":"35.248304","lng":"136.738366"},{"town":"祖父江町山崎","lat":"35.259525","lng":"136.730248"},{"town":"祖父江町四貫","lat":"35.249765","lng":"136.702635"},{"town":"祖父江町両寺内","lat":"35.241106","lng":"136.714034"},{"town":"平江向町","lat":"35.251042","lng":"136.760067"},{"town":"平尾苅町","lat":"35.248827","lng":"136.767722"},{"town":"平金森町","lat":"35.248785","lng":"136.759706"},{"town":"平苅田町","lat":"35.247411","lng":"136.764199"},{"town":"平細工蔵町","lat":"35.248286","lng":"136.761379"},{"town":"平高道町","lat":"35.248985","lng":"136.771007"},{"town":"平蜂ノ坪町","lat":"35.249600","lng":"136.769354"},{"town":"平佛供田町","lat":"35.249553","lng":"136.764315"},{"town":"高重町","lat":"35.222536","lng":"136.808342"},{"town":"高重中町","lat":"35.222590","lng":"136.811191"},{"town":"高重西町","lat":"35.223153","lng":"136.805883"},{"town":"高重東町","lat":"35.222599","lng":"136.813953"},{"town":"高御堂十丁目","lat":"35.246290","lng":"136.798507"},{"town":"高御堂一丁目","lat":"35.250600","lng":"136.799127"},{"town":"高御堂二丁目","lat":"35.249521","lng":"136.801312"},{"town":"高御堂三丁目","lat":"35.245177","lng":"136.801016"},{"town":"高御堂四丁目","lat":"35.245723","lng":"136.804022"},{"town":"高御堂五丁目","lat":"35.241324","lng":"136.803759"},{"town":"竹腰北町","lat":"35.260912","lng":"136.766563"},{"town":"竹腰中町","lat":"35.257226","lng":"136.763942"},{"town":"竹腰西町","lat":"35.257532","lng":"136.761834"},{"town":"竹腰東町","lat":"35.257063","lng":"136.766125"},{"town":"竹腰本町","lat":"35.259385","lng":"136.764727"},{"town":"田代一丁目","lat":"35.207697","lng":"136.761554"},{"town":"田代二丁目","lat":"35.207694","lng":"136.760294"},{"town":"附島町","lat":"35.219417","lng":"136.784960"},{"town":"長野一丁目","lat":"35.254955","lng":"136.814427"},{"town":"長野二丁目","lat":"35.254200","lng":"136.818038"},{"town":"長野三丁目","lat":"35.257095","lng":"136.816750"},{"town":"長野四丁目","lat":"35.256719","lng":"136.813556"},{"town":"長野五丁目","lat":"35.259208","lng":"136.814420"},{"town":"長野六丁目","lat":"35.260242","lng":"136.815514"},{"town":"中野川端町","lat":"35.250891","lng":"136.757144"},{"town":"中之庄海道町","lat":"35.216859","lng":"136.815195"},{"town":"中之庄高畑町","lat":"35.220013","lng":"136.805250"},{"town":"中之庄町","lat":"35.217814","lng":"136.805287"},{"town":"中之庄堤畔町","lat":"35.220056","lng":"136.813245"},{"town":"中之庄長堤町","lat":"35.217530","lng":"136.811164"},{"town":"中之庄半田町","lat":"35.219861","lng":"136.809719"},{"town":"中之庄元屋敷町","lat":"35.220434","lng":"136.811932"},{"town":"長野町","lat":"35.258505","lng":"136.819084"},{"town":"中野宮町","lat":"35.244231","lng":"136.758077"},{"town":"中野元町","lat":"35.248077","lng":"136.756307"},{"town":"長束町","lat":"35.242030","lng":"136.810868"},{"town":"七ツ寺町","lat":"35.216083","lng":"136.801352"},{"town":"西島一丁目","lat":"35.254140","lng":"136.748274"},{"town":"西島二丁目","lat":"35.258326","lng":"136.747855"},{"town":"西島三丁目","lat":"35.259284","lng":"136.744233"},{"town":"西島四丁目","lat":"35.262627","lng":"136.749017"},{"town":"西島北町","lat":"35.256116","lng":"136.752635"},{"town":"西島新町","lat":"35.253976","lng":"136.758088"},{"town":"西島町","lat":"35.257745","lng":"136.742084"},{"town":"西島出町","lat":"35.257243","lng":"136.755398"},{"town":"西島中町","lat":"35.254415","lng":"136.751613"},{"town":"西島東町","lat":"35.251664","lng":"136.754096"},{"town":"西島本町","lat":"35.251163","lng":"136.749861"},{"town":"西町一丁目","lat":"35.256619","lng":"136.785620"},{"town":"西町二丁目","lat":"35.254839","lng":"136.785262"},{"town":"西町三丁目","lat":"35.251110","lng":"136.783500"},{"town":"西溝口町","lat":"35.220263","lng":"136.762161"},{"town":"野崎町","lat":"35.222422","lng":"136.770179"},{"town":"生出上山町","lat":"35.263989","lng":"136.752356"},{"town":"生出郷前町","lat":"35.264542","lng":"136.755265"},{"town":"生出河戸町","lat":"35.265853","lng":"136.753288"},{"town":"生出西道根町","lat":"35.266251","lng":"136.758067"},{"town":"生出東道根町","lat":"35.265924","lng":"136.759675"},{"town":"生出本町","lat":"35.266204","lng":"136.755823"},{"town":"生出山田町","lat":"35.264303","lng":"136.757461"},{"town":"生出横西町","lat":"35.262819","lng":"136.751451"},{"town":"馬場一丁目","lat":"35.245496","lng":"136.762739"},{"town":"馬場二丁目","lat":"35.242839","lng":"136.762997"},{"town":"馬場三丁目","lat":"35.239996","lng":"136.763703"},{"town":"東緑町一丁目","lat":"35.238540","lng":"136.803358"},{"town":"東緑町二丁目","lat":"35.236709","lng":"136.803266"},{"town":"東緑町三丁目","lat":"35.235789","lng":"136.803452"},{"town":"菱町","lat":"35.244371","lng":"136.817194"},{"town":"氷室町","lat":"35.206807","lng":"136.756833"},{"town":"平野町","lat":"35.239968","lng":"136.786833"},{"town":"平野町一丁目","lat":"35.239528","lng":"136.784445"},{"town":"平野町二丁目","lat":"35.237908","lng":"136.784006"},{"town":"平野町三丁目","lat":"35.238156","lng":"136.785792"},{"town":"平野町四丁目","lat":"35.237403","lng":"136.787791"},{"town":"平野町五丁目","lat":"35.236095","lng":"136.784913"},{"town":"平野町六丁目","lat":"35.236282","lng":"136.781774"},{"town":"福島町","lat":"35.219637","lng":"136.776681"},{"town":"船橋町","lat":"35.246219","lng":"136.775302"},{"town":"平和町","lat":"35.203385","lng":"136.733530"},{"town":"平和町上三宅","lat":"35.221395","lng":"136.752637"},{"town":"平和町観音堂","lat":"35.225248","lng":"136.756745"},{"town":"平和町西光坊","lat":"35.215637","lng":"136.732755"},{"town":"平和町下三宅","lat":"35.211636","lng":"136.746872"},{"town":"平和町須ケ谷","lat":"35.230759","lng":"136.752290"},{"town":"平和町東城","lat":"35.205080","lng":"136.745186"},{"town":"平和町中三宅","lat":"35.217325","lng":"136.752575"},{"town":"平和町平池","lat":"35.218395","lng":"136.740714"},{"town":"平和町法立","lat":"35.223952","lng":"136.741976"},{"town":"平和町横池","lat":"35.213493","lng":"136.739275"},{"town":"法花寺町","lat":"35.244060","lng":"136.767825"},{"town":"堀田町","lat":"35.213701","lng":"136.804347"},{"town":"堀之内町","lat":"35.228442","lng":"136.773958"},{"town":"前田一丁目","lat":"35.248923","lng":"136.797070"},{"town":"増田北町","lat":"35.221609","lng":"136.820919"},{"town":"増田町","lat":"35.215847","lng":"136.823864"},{"town":"増田西町","lat":"35.219786","lng":"136.818049"},{"town":"増田東町","lat":"35.219077","lng":"136.823307"},{"town":"増田南町","lat":"35.217452","lng":"136.823208"},{"town":"松下一丁目","lat":"35.254438","lng":"136.801686"},{"town":"松下二丁目","lat":"35.254508","lng":"136.799021"},{"town":"緑町一丁目","lat":"35.237425","lng":"136.801638"},{"town":"緑町四丁目","lat":"35.231742","lng":"136.801396"},{"town":"南麻績町","lat":"35.209725","lng":"136.776686"},{"town":"目比町","lat":"35.210499","lng":"136.766365"},{"town":"梅須賀町","lat":"35.233273","lng":"136.786674"},{"town":"梅須賀町一丁目","lat":"35.234154","lng":"136.784044"},{"town":"梅須賀町二丁目","lat":"35.234598","lng":"136.787314"},{"town":"梅須賀町三丁目","lat":"35.235460","lng":"136.789605"},{"town":"梅須賀町四丁目","lat":"35.234066","lng":"136.792023"},{"town":"梅須賀町五丁目","lat":"35.232328","lng":"136.790438"},{"town":"梅須賀町六丁目","lat":"35.231008","lng":"136.787755"},{"town":"梅須賀町七丁目","lat":"35.231320","lng":"136.784625"},{"town":"梅須賀町八丁目","lat":"35.232034","lng":"136.781243"},{"town":"梅須賀町九丁目","lat":"35.234777","lng":"136.778655"},{"town":"山口町","lat":"35.245544","lng":"136.759701"},{"town":"山口本町","lat":"35.246757","lng":"136.759676"},{"town":"山口南町","lat":"35.241119","lng":"136.759875"},{"town":"山口宮前町","lat":"35.243816","lng":"136.759969"},{"town":"矢合町","lat":"35.237414","lng":"136.773400"},{"town":"横地一丁目","lat":"35.245891","lng":"136.780830"},{"town":"横地二丁目","lat":"35.245131","lng":"136.783667"},{"town":"横地三丁目","lat":"35.243716","lng":"136.783483"},{"town":"横地四丁目","lat":"35.243731","lng":"136.780178"},{"town":"横地五丁目","lat":"35.241327","lng":"136.779235"},{"town":"横地六丁目","lat":"35.242433","lng":"136.783317"},{"town":"横地町","lat":"35.249160","lng":"136.780322"},{"town":"横野河原町","lat":"35.258589","lng":"136.753731"},{"town":"横野境塚町","lat":"35.260414","lng":"136.752469"},{"town":"横野神田町","lat":"35.260735","lng":"136.750904"},{"town":"横野町","lat":"35.261974","lng":"136.754105"},{"town":"横野堂根町","lat":"35.263270","lng":"136.756652"},{"town":"横野西郷町","lat":"35.261885","lng":"136.752542"},{"town":"横野東郷町","lat":"35.261465","lng":"136.754562"},{"town":"横野東出町","lat":"35.260994","lng":"136.755950"},{"town":"横野松前町","lat":"35.258717","lng":"136.751524"},{"town":"六角堂西町一丁目","lat":"35.234671","lng":"136.828503"},{"town":"六角堂西町二丁目","lat":"35.233771","lng":"136.828361"},{"town":"六角堂西町三丁目","lat":"35.232622","lng":"136.828579"},{"town":"六角堂西町四丁目","lat":"35.231924","lng":"136.829908"},{"town":"六角堂西町五丁目","lat":"35.230630","lng":"136.831548"},{"town":"六角堂東町一丁目","lat":"35.234982","lng":"136.830510"},{"town":"六角堂東町二丁目","lat":"35.233999","lng":"136.831025"},{"town":"六角堂東町三丁目","lat":"35.233253","lng":"136.831453"},{"town":"六角堂東町四丁目","lat":"35.232113","lng":"136.831679"},{"town":"六角堂東町五丁目","lat":"35.230506","lng":"136.832422"},{"town":"祖父江町高熊西","lat":"35.253696","lng":"136.717448"},{"town":"下津南山一丁目","lat":"35.253771","lng":"136.824312"},{"town":"下津南山二丁目","lat":"35.254104","lng":"136.825815"},{"town":"下津北山一丁目","lat":"35.256026","lng":"136.823051"},{"town":"下津小井戸一丁目","lat":"35.258244","lng":"136.821853"},{"town":"下津小井戸二丁目","lat":"35.258190","lng":"136.823204"},{"town":"下津穂所一丁目","lat":"35.259032","lng":"136.820289"},{"town":"下津穂所二丁目","lat":"35.259840","lng":"136.822217"},{"town":"下津鞍掛一丁目","lat":"35.261878","lng":"136.821202"},{"town":"陸田栗林一丁目","lat":"35.264777","lng":"136.819602"},{"town":"長野七丁目","lat":"35.261292","lng":"136.820202"},{"town":"東畑一丁目","lat":"35.267182","lng":"136.796559"},{"town":"東畑五丁目","lat":"35.263605","lng":"136.799072"},{"town":"東畑三丁目","lat":"35.266863","lng":"136.798123"},{"town":"東畑四丁目","lat":"35.265170","lng":"136.798193"},{"town":"東畑七丁目","lat":"35.262835","lng":"136.803793"},{"town":"東畑二丁目","lat":"35.264406","lng":"136.796428"},{"town":"東畑六丁目","lat":"35.263039","lng":"136.801681"}]