[{"town":"赤坂台","lat":"34.871415","lng":"137.307875"},{"town":"赤坂町","lat":"34.858556","lng":"137.304447"},{"town":"赤代町一丁目","lat":"34.823112","lng":"137.380026"},{"town":"赤代町二丁目","lat":"34.821995","lng":"137.378816"},{"town":"赤代町三丁目","lat":"34.821090","lng":"137.378467"},{"town":"明野町一丁目","lat":"34.816382","lng":"137.376476"},{"town":"明野町二丁目","lat":"34.817804","lng":"137.376430"},{"town":"明野町三丁目","lat":"34.817114","lng":"137.375457"},{"town":"明野町四丁目","lat":"34.817808","lng":"137.374965"},{"town":"曙町一丁目","lat":"34.834434","lng":"137.396202"},{"town":"曙町二丁目","lat":"34.833108","lng":"137.395485"},{"town":"曙町三丁目","lat":"34.834006","lng":"137.395105"},{"town":"曙町四丁目","lat":"34.833163","lng":"137.393652"},{"town":"旭町","lat":"34.823317","lng":"137.393886"},{"town":"足山田町","lat":"34.871808","lng":"137.405307"},{"town":"麻生田町","lat":"34.832982","lng":"137.417738"},{"town":"市田町","lat":"34.841451","lng":"137.361198"},{"town":"一宮町","lat":"34.853125","lng":"137.423001"},{"town":"伊奈町","lat":"34.800497","lng":"137.346380"},{"town":"稲荷通二丁目","lat":"34.830372","lng":"137.396965"},{"town":"院之子町","lat":"34.808923","lng":"137.405033"},{"town":"上野一丁目","lat":"34.840738","lng":"137.411066"},{"town":"上野二丁目","lat":"34.840441","lng":"137.414170"},{"town":"上野三丁目","lat":"34.842860","lng":"137.416177"},{"town":"上野四丁目","lat":"34.840390","lng":"137.417452"},{"town":"牛久保駅通三丁目","lat":"34.815014","lng":"137.378746"},{"town":"牛久保駅通四丁目","lat":"34.817676","lng":"137.377716"},{"town":"牛久保駅通五丁目","lat":"34.820779","lng":"137.375791"},{"town":"牛久保町","lat":"34.809727","lng":"137.385053"},{"town":"駅前通二丁目","lat":"34.822367","lng":"137.390140"},{"town":"駅前通三丁目","lat":"34.820018","lng":"137.387929"},{"town":"駅前通四丁目","lat":"34.817367","lng":"137.387443"},{"town":"江島町","lat":"34.863056","lng":"137.444571"},{"town":"大木町","lat":"34.862294","lng":"137.389923"},{"town":"大崎町","lat":"34.844362","lng":"137.372661"},{"town":"大橋町一丁目","lat":"34.833297","lng":"137.410504"},{"town":"大橋町二丁目","lat":"34.834136","lng":"137.411650"},{"town":"大橋町三丁目","lat":"34.835121","lng":"137.412635"},{"town":"大橋町四丁目","lat":"34.836289","lng":"137.414902"},{"town":"大橋町五丁目","lat":"34.837558","lng":"137.415752"},{"town":"大堀町","lat":"34.833621","lng":"137.399856"},{"town":"小田渕町","lat":"34.815604","lng":"137.346964"},{"town":"小田渕町二丁目","lat":"34.818092","lng":"137.345185"},{"town":"小田渕町三丁目","lat":"34.820149","lng":"137.342892"},{"town":"小田渕町四丁目","lat":"34.823390","lng":"137.340357"},{"town":"小田渕町五丁目","lat":"34.826354","lng":"137.337594"},{"town":"小田渕町六丁目","lat":"34.824917","lng":"137.336296"},{"town":"小田渕町七丁目","lat":"34.821890","lng":"137.338560"},{"town":"小田渕町八丁目","lat":"34.817027","lng":"137.342942"},{"town":"開運通一丁目","lat":"34.825297","lng":"137.389045"},{"town":"開運通二丁目","lat":"34.827790","lng":"137.385682"},{"town":"金沢町","lat":"34.854412","lng":"137.449766"},{"town":"金塚町一丁目","lat":"34.816881","lng":"137.385048"},{"town":"金塚町二丁目","lat":"34.817809","lng":"137.384499"},{"town":"金屋町","lat":"34.820555","lng":"137.386382"},{"town":"金屋西町一丁目","lat":"34.827421","lng":"137.381635"},{"town":"金屋西町二丁目","lat":"34.827013","lng":"137.379016"},{"town":"金屋西町三丁目","lat":"34.827356","lng":"137.377234"},{"town":"金屋橋町","lat":"34.823286","lng":"137.377641"},{"town":"金屋本町一丁目","lat":"34.822063","lng":"137.383865"},{"town":"金屋本町二丁目","lat":"34.820561","lng":"137.383042"},{"town":"金屋本町三丁目","lat":"34.822754","lng":"137.381897"},{"town":"金屋本町四丁目","lat":"34.820993","lng":"137.381212"},{"town":"金屋元町一丁目","lat":"34.824645","lng":"137.385214"},{"town":"金屋元町二丁目","lat":"34.825259","lng":"137.383119"},{"town":"上長山町","lat":"34.884905","lng":"137.414736"},{"town":"川花町一丁目","lat":"34.814502","lng":"137.365605"},{"town":"川花町二丁目","lat":"34.816105","lng":"137.365500"},{"town":"川花町三丁目","lat":"34.817580","lng":"137.365592"},{"town":"北浦町","lat":"34.821860","lng":"137.393173"},{"town":"行明町","lat":"34.798424","lng":"137.397230"},{"town":"久保町","lat":"34.836293","lng":"137.330440"},{"town":"光輝町一丁目","lat":"34.813208","lng":"137.377387"},{"town":"光輝町二丁目","lat":"34.814332","lng":"137.377384"},{"town":"柑子町","lat":"34.806009","lng":"137.397616"},{"town":"国府町","lat":"34.831173","lng":"137.327494"},{"town":"国府南一丁目","lat":"34.829382","lng":"137.331072"},{"town":"国府南二丁目","lat":"34.828311","lng":"137.331271"},{"town":"国府南三丁目","lat":"34.827336","lng":"137.331990"},{"town":"光明町一丁目","lat":"34.815229","lng":"137.373118"},{"town":"光明町二丁目","lat":"34.816868","lng":"137.372340"},{"town":"光陽町","lat":"34.825561","lng":"137.405705"},{"town":"小坂井町","lat":"34.795766","lng":"137.365076"},{"town":"小桜町","lat":"34.831465","lng":"137.391100"},{"town":"寿通一丁目","lat":"34.810988","lng":"137.374310"},{"town":"寿通二丁目","lat":"34.809569","lng":"137.371181"},{"town":"御油町","lat":"34.846814","lng":"137.312775"},{"town":"財賀町","lat":"34.866863","lng":"137.358196"},{"town":"幸町","lat":"34.823835","lng":"137.388726"},{"town":"堺町一丁目","lat":"34.814656","lng":"137.362801"},{"town":"堺町二丁目","lat":"34.816448","lng":"137.362550"},{"town":"桜ケ丘町","lat":"34.829011","lng":"137.388380"},{"town":"桜木通一丁目","lat":"34.826415","lng":"137.394657"},{"town":"桜木通二丁目","lat":"34.827097","lng":"137.393313"},{"town":"桜木通三丁目","lat":"34.828493","lng":"137.391412"},{"town":"桜木通四丁目","lat":"34.830590","lng":"137.389984"},{"town":"桜木通五丁目","lat":"34.832709","lng":"137.387803"},{"town":"桜木通六丁目","lat":"34.834479","lng":"137.386367"},{"town":"桜町一丁目","lat":"34.816381","lng":"137.349419"},{"town":"桜町二丁目","lat":"34.815700","lng":"137.351555"},{"town":"桜町三丁目","lat":"34.818542","lng":"137.349269"},{"town":"佐土町","lat":"34.835754","lng":"137.388825"},{"town":"佐奈川町","lat":"34.821879","lng":"137.373179"},{"town":"三蔵子町","lat":"34.840504","lng":"137.387224"},{"town":"篠田町","lat":"34.843923","lng":"137.401191"},{"town":"篠束町","lat":"34.802959","lng":"137.370326"},{"town":"下長山町","lat":"34.803440","lng":"137.379507"},{"town":"下野川町一丁目","lat":"34.818879","lng":"137.365265"},{"town":"下野川町二丁目","lat":"34.819514","lng":"137.363570"},{"town":"宿町","lat":"34.807714","lng":"137.361532"},{"town":"白雲町一丁目","lat":"34.836134","lng":"137.394970"},{"town":"白雲町二丁目","lat":"34.835555","lng":"137.394254"},{"town":"白雲町三丁目","lat":"34.835475","lng":"137.393016"},{"town":"白鳥二丁目","lat":"34.832483","lng":"137.332617"},{"town":"白鳥三丁目","lat":"34.831363","lng":"137.337653"},{"town":"白鳥四丁目","lat":"34.830615","lng":"137.334272"},{"town":"白鳥五丁目","lat":"34.829381","lng":"137.337672"},{"town":"白鳥六丁目","lat":"34.828387","lng":"137.340755"},{"town":"白鳥七丁目","lat":"34.826611","lng":"137.342929"},{"town":"白鳥町","lat":"34.823625","lng":"137.344457"},{"town":"新青馬町一丁目","lat":"34.834657","lng":"137.322481"},{"town":"新青馬町二丁目","lat":"34.834232","lng":"137.322352"},{"town":"新青馬町三丁目","lat":"34.834048","lng":"137.322999"},{"town":"新青馬町四丁目","lat":"34.833795","lng":"137.323130"},{"town":"新青馬町五丁目","lat":"34.833562","lng":"137.323502"},{"town":"新青馬町六丁目","lat":"34.833252","lng":"137.323406"},{"town":"新青馬町七丁目","lat":"34.832953","lng":"137.323365"},{"town":"新青馬町八丁目","lat":"34.832730","lng":"137.323718"},{"town":"新栄町一丁目","lat":"34.837002","lng":"137.327414"},{"town":"新栄町二丁目","lat":"34.836276","lng":"137.326094"},{"town":"新栄町三丁目","lat":"34.834722","lng":"137.327354"},{"town":"新桜町通一丁目","lat":"34.813881","lng":"137.373319"},{"town":"新桜町通二丁目","lat":"34.813017","lng":"137.368881"},{"town":"新桜町通三丁目","lat":"34.813735","lng":"137.362944"},{"town":"新宿町一丁目","lat":"34.819276","lng":"137.392743"},{"town":"新宿町二丁目","lat":"34.820236","lng":"137.390632"},{"town":"新道町一丁目","lat":"34.824141","lng":"137.364111"},{"town":"新道町二丁目","lat":"34.821254","lng":"137.363242"},{"town":"新豊町一丁目","lat":"34.832905","lng":"137.403193"},{"town":"新豊町二丁目","lat":"34.831081","lng":"137.403811"},{"town":"末広通一丁目","lat":"34.825039","lng":"137.387114"},{"town":"末広通二丁目","lat":"34.827605","lng":"137.389403"},{"town":"末広通三丁目","lat":"34.830595","lng":"137.392970"},{"town":"末広通四丁目","lat":"34.832919","lng":"137.396321"},{"town":"住吉町一丁目","lat":"34.817191","lng":"137.402492"},{"town":"住吉町二丁目","lat":"34.817007","lng":"137.404642"},{"town":"諏訪一丁目","lat":"34.827220","lng":"137.373883"},{"town":"諏訪二丁目","lat":"34.824114","lng":"137.373687"},{"town":"諏訪三丁目","lat":"34.826069","lng":"137.368932"},{"town":"諏訪四丁目","lat":"34.827167","lng":"137.365274"},{"town":"諏訪西町一丁目","lat":"34.828118","lng":"137.361648"},{"town":"諏訪西町二丁目","lat":"34.830538","lng":"137.362523"},{"town":"瀬木町","lat":"34.811768","lng":"137.400374"},{"town":"蔵子一丁目","lat":"34.816283","lng":"137.355373"},{"town":"蔵子二丁目","lat":"34.818757","lng":"137.353749"},{"town":"蔵子三丁目","lat":"34.821286","lng":"137.352411"},{"town":"蔵子四丁目","lat":"34.826134","lng":"137.357401"},{"town":"蔵子五丁目","lat":"34.823414","lng":"137.356427"},{"town":"蔵子六丁目","lat":"34.819808","lng":"137.358196"},{"town":"蔵子七丁目","lat":"34.818436","lng":"137.360999"},{"town":"代田町一丁目","lat":"34.824449","lng":"137.360867"},{"town":"代田町二丁目","lat":"34.827186","lng":"137.359985"},{"town":"高見町一丁目","lat":"34.812296","lng":"137.375111"},{"town":"高見町二丁目","lat":"34.813116","lng":"137.374614"},{"town":"高見町三丁目","lat":"34.813743","lng":"137.374813"},{"town":"高見町四丁目","lat":"34.811454","lng":"137.373062"},{"town":"高見町五丁目","lat":"34.812244","lng":"137.372064"},{"town":"高見町六丁目","lat":"34.812837","lng":"137.372033"},{"town":"為当町","lat":"34.820329","lng":"137.323739"},{"town":"樽井町","lat":"34.843039","lng":"137.392995"},{"town":"千両町","lat":"34.869945","lng":"137.377278"},{"town":"千歳通一丁目","lat":"34.820909","lng":"137.384933"},{"town":"千歳通二丁目","lat":"34.818212","lng":"137.383152"},{"town":"千歳通三丁目","lat":"34.816531","lng":"137.380778"},{"town":"千歳通四丁目","lat":"34.815201","lng":"137.376900"},{"town":"中央通一丁目","lat":"34.820732","lng":"137.393737"},{"town":"中央通二丁目","lat":"34.821354","lng":"137.391248"},{"town":"中央通三丁目","lat":"34.822375","lng":"137.387463"},{"town":"中央通四丁目","lat":"34.823604","lng":"137.383134"},{"town":"中央通五丁目","lat":"34.825324","lng":"137.379439"},{"town":"中条町","lat":"34.814014","lng":"137.392107"},{"town":"中条町一丁目","lat":"34.816145","lng":"137.387187"},{"town":"中条町二丁目","lat":"34.815668","lng":"137.386398"},{"town":"中条町三丁目","lat":"34.814270","lng":"137.383978"},{"town":"中部町一丁目","lat":"34.821228","lng":"137.370182"},{"town":"中部町二丁目","lat":"34.820140","lng":"137.368183"},{"town":"天神町","lat":"34.824182","lng":"137.404930"},{"town":"東光町一丁目","lat":"34.829828","lng":"137.394687"},{"town":"東光町二丁目","lat":"34.830369","lng":"137.395125"},{"town":"東光町三丁目","lat":"34.830836","lng":"137.395880"},{"town":"東光町四丁目","lat":"34.831403","lng":"137.395751"},{"town":"当古町","lat":"34.813509","lng":"137.422165"},{"town":"東上町","lat":"34.882269","lng":"137.439192"},{"town":"東新町","lat":"34.828182","lng":"137.395214"},{"town":"塔ノ木町一丁目","lat":"34.815216","lng":"137.382450"},{"town":"塔ノ木町二丁目","lat":"34.815776","lng":"137.381310"},{"town":"東名町一丁目","lat":"34.831372","lng":"137.406819"},{"town":"東名町二丁目","lat":"34.833530","lng":"137.407506"},{"town":"土筒町","lat":"34.813921","lng":"137.411810"},{"town":"豊川栄町","lat":"34.823491","lng":"137.395514"},{"town":"豊川町","lat":"34.822844","lng":"137.400277"},{"town":"豊川仲町","lat":"34.825825","lng":"137.397746"},{"town":"豊川西町","lat":"34.826580","lng":"137.396068"},{"town":"豊川元町","lat":"34.822544","lng":"137.395572"},{"town":"豊津町","lat":"34.849542","lng":"137.431154"},{"town":"長草町","lat":"34.847231","lng":"137.386232"},{"town":"長沢町","lat":"34.867439","lng":"137.280214"},{"town":"中野川町一丁目","lat":"34.819036","lng":"137.374925"},{"town":"中野川町二丁目","lat":"34.820417","lng":"137.374206"},{"town":"西口町一丁目","lat":"34.807789","lng":"137.371837"},{"town":"西口町二丁目","lat":"34.808748","lng":"137.371368"},{"town":"西香ノ木町一丁目","lat":"34.810491","lng":"137.370687"},{"town":"西香ノ木町二丁目","lat":"34.812047","lng":"137.369998"},{"town":"西桜木町一丁目","lat":"34.829894","lng":"137.386458"},{"town":"西桜木町二丁目","lat":"34.830832","lng":"137.385887"},{"town":"西島町","lat":"34.810484","lng":"137.395093"},{"town":"西塚町一丁目","lat":"34.814770","lng":"137.370544"},{"town":"西塚町二丁目","lat":"34.814371","lng":"137.368004"},{"town":"西塚町三丁目","lat":"34.816128","lng":"137.368315"},{"town":"西原町","lat":"34.859466","lng":"137.399352"},{"town":"西本町","lat":"34.823514","lng":"137.396823"},{"town":"西豊町一丁目","lat":"34.827096","lng":"137.398936"},{"town":"西豊町二丁目","lat":"34.829396","lng":"137.398864"},{"town":"西豊町三丁目","lat":"34.830315","lng":"137.400697"},{"town":"野口町","lat":"34.837678","lng":"137.352163"},{"town":"萩町","lat":"34.877495","lng":"137.330391"},{"town":"萩山町一丁目","lat":"34.822946","lng":"137.369235"},{"town":"萩山町二丁目","lat":"34.821299","lng":"137.366665"},{"town":"萩山町三丁目","lat":"34.823639","lng":"137.366749"},{"town":"橋尾町","lat":"34.842505","lng":"137.421243"},{"town":"花井町","lat":"34.816168","lng":"137.392379"},{"town":"馬場町","lat":"34.820179","lng":"137.402347"},{"town":"東曙町","lat":"34.835533","lng":"137.397878"},{"town":"東桜木町","lat":"34.829038","lng":"137.392821"},{"town":"東豊町一丁目","lat":"34.826035","lng":"137.400422"},{"town":"東豊町二丁目","lat":"34.827827","lng":"137.401789"},{"town":"東豊町三丁目","lat":"34.827335","lng":"137.404346"},{"town":"東豊町四丁目","lat":"34.829630","lng":"137.405439"},{"town":"東豊町五丁目","lat":"34.828105","lng":"137.406810"},{"town":"平井町","lat":"34.791079","lng":"137.356508"},{"town":"平尾町","lat":"34.858439","lng":"137.338111"},{"town":"二葉町","lat":"34.828101","lng":"137.423727"},{"town":"二見町","lat":"34.818821","lng":"137.389088"},{"town":"古宿町","lat":"34.818863","lng":"137.394290"},{"town":"豊栄町","lat":"34.831507","lng":"137.397634"},{"town":"穂ノ原一丁目","lat":"34.831360","lng":"137.380179"},{"town":"穂ノ原二丁目","lat":"34.831291","lng":"137.369591"},{"town":"穂ノ原三丁目","lat":"34.836783","lng":"137.370908"},{"town":"本野ケ原一丁目","lat":"34.838190","lng":"137.401964"},{"town":"本野ケ原二丁目","lat":"34.837706","lng":"137.404355"},{"town":"本野ケ原三丁目","lat":"34.837038","lng":"137.406329"},{"town":"本野ケ原四丁目","lat":"34.840721","lng":"137.407034"},{"town":"本野ケ原五丁目","lat":"34.839431","lng":"137.401937"},{"town":"本野町","lat":"34.837890","lng":"137.380950"},{"town":"牧野町","lat":"34.822723","lng":"137.410091"},{"town":"牧野町一丁目","lat":"34.821134","lng":"137.405889"},{"town":"牧野町二丁目","lat":"34.825687","lng":"137.407559"},{"town":"正岡町","lat":"34.803509","lng":"137.388087"},{"town":"松風町","lat":"34.817505","lng":"137.389080"},{"town":"松原町","lat":"34.859757","lng":"137.436129"},{"town":"松久町一丁目","lat":"34.820114","lng":"137.378349"},{"town":"松久町二丁目","lat":"34.818561","lng":"137.378372"},{"town":"三上町","lat":"34.819051","lng":"137.429849"},{"town":"美園一丁目","lat":"34.807118","lng":"137.343150"},{"town":"美園二丁目","lat":"34.808530","lng":"137.347861"},{"town":"美園三丁目","lat":"34.806243","lng":"137.348086"},{"town":"御津町赤根","lat":"34.817667","lng":"137.298249"},{"town":"御津町安礼の崎","lat":"34.794181","lng":"137.316317"},{"town":"御津町大草","lat":"34.812927","lng":"137.302672"},{"town":"御津町御馬","lat":"34.804819","lng":"137.316534"},{"town":"御津町金野","lat":"34.842884","lng":"137.283100"},{"town":"御津町上佐脇","lat":"34.815471","lng":"137.336037"},{"town":"御津町佐脇浜","lat":"34.790090","lng":"137.314032"},{"town":"御津町下佐脇","lat":"34.803156","lng":"137.326704"},{"town":"御津町新田","lat":"34.795501","lng":"137.319229"},{"town":"御津町豊沢","lat":"34.830397","lng":"137.305629"},{"town":"御津町泙野","lat":"34.813146","lng":"137.308974"},{"town":"御津町西方","lat":"34.811770","lng":"137.315834"},{"town":"御津町広石","lat":"34.824125","lng":"137.315551"},{"town":"御津町御幸浜","lat":"34.802984","lng":"137.304730"},{"town":"緑町","lat":"34.826573","lng":"137.389616"},{"town":"南大通二丁目","lat":"34.811365","lng":"137.377320"},{"town":"南大通三丁目","lat":"34.813354","lng":"137.376243"},{"town":"南大通四丁目","lat":"34.815858","lng":"137.374830"},{"town":"南大通五丁目","lat":"34.818783","lng":"137.373190"},{"town":"南大通六丁目","lat":"34.821766","lng":"137.371788"},{"town":"南千両一丁目","lat":"34.849326","lng":"137.374665"},{"town":"南千両二丁目","lat":"34.849576","lng":"137.372956"},{"town":"三谷原町","lat":"34.820545","lng":"137.415061"},{"town":"美幸町一丁目","lat":"34.834273","lng":"137.391469"},{"town":"美幸町二丁目","lat":"34.834043","lng":"137.388670"},{"town":"美和通一丁目","lat":"34.816280","lng":"137.385981"},{"town":"美和通二丁目","lat":"34.814648","lng":"137.383159"},{"town":"美和通三丁目","lat":"34.812237","lng":"137.377818"},{"town":"向河原町","lat":"34.835648","lng":"137.422865"},{"town":"森一丁目","lat":"34.828360","lng":"137.327587"},{"town":"森二丁目","lat":"34.826629","lng":"137.328635"},{"town":"森三丁目","lat":"34.824143","lng":"137.329992"},{"town":"森四丁目","lat":"34.825543","lng":"137.333821"},{"town":"森五丁目","lat":"34.822310","lng":"137.330321"},{"town":"森六丁目","lat":"34.821021","lng":"137.331341"},{"town":"門前町","lat":"34.824229","lng":"137.395232"},{"town":"谷川町","lat":"34.829699","lng":"137.410959"},{"town":"山道町一丁目","lat":"34.818895","lng":"137.381401"},{"town":"山道町二丁目","lat":"34.817473","lng":"137.379670"},{"town":"弥生町一丁目","lat":"34.810805","lng":"137.376002"},{"town":"弥生町二丁目","lat":"34.809715","lng":"137.373854"},{"town":"八幡町","lat":"34.836702","lng":"137.341627"},{"town":"豊が丘町","lat":"34.836660","lng":"137.408590"},{"town":"四ツ谷町一丁目","lat":"34.819168","lng":"137.371685"},{"town":"四ツ谷町二丁目","lat":"34.818385","lng":"137.370545"},{"town":"四ツ谷町三丁目","lat":"34.817729","lng":"137.368586"},{"town":"六角町","lat":"34.850042","lng":"137.379173"},{"town":"若鳩町","lat":"34.827116","lng":"137.384385"},{"town":"若宮町","lat":"34.822789","lng":"137.388231"}]