[{"town":"旭町","lat":"34.474406","lng":"136.695607"},{"town":"朝熊町","lat":"34.475959","lng":"136.779724"},{"town":"有滝町","lat":"34.539991","lng":"136.698426"},{"town":"粟野町","lat":"34.484636","lng":"136.665062"},{"town":"磯町","lat":"34.517387","lng":"136.697449"},{"town":"一宇田町","lat":"34.470123","lng":"136.752992"},{"town":"一志町","lat":"34.490920","lng":"136.703791"},{"town":"一之木一丁目","lat":"34.493243","lng":"136.704345"},{"town":"一之木二丁目","lat":"34.494954","lng":"136.705451"},{"town":"一之木三丁目","lat":"34.496612","lng":"136.706541"},{"town":"一之木四丁目","lat":"34.501402","lng":"136.705749"},{"town":"一之木五丁目","lat":"34.501482","lng":"136.708804"},{"town":"一色町","lat":"34.506761","lng":"136.746528"},{"town":"岩渕一丁目","lat":"34.487640","lng":"136.710309"},{"town":"岩渕二丁目","lat":"34.487562","lng":"136.714595"},{"town":"岩渕三丁目","lat":"34.486950","lng":"136.717564"},{"town":"岩渕町","lat":"34.485795","lng":"136.719692"},{"town":"上地町","lat":"34.492261","lng":"136.659692"},{"town":"上野町","lat":"34.425861","lng":"136.666631"},{"town":"植山町","lat":"34.532838","lng":"136.684769"},{"town":"宇治今在家町","lat":"34.423472","lng":"136.729814"},{"town":"宇治浦田一丁目","lat":"34.466638","lng":"136.724056"},{"town":"宇治浦田二丁目","lat":"34.468004","lng":"136.719809"},{"town":"宇治浦田三丁目","lat":"34.466998","lng":"136.716134"},{"town":"宇治浦田町","lat":"34.462942","lng":"136.717430"},{"town":"宇治館町","lat":"34.439827","lng":"136.762276"},{"town":"宇治中之切町","lat":"34.462473","lng":"136.721516"},{"town":"浦口一丁目","lat":"34.494564","lng":"136.692628"},{"town":"浦口二丁目","lat":"34.492586","lng":"136.694513"},{"town":"浦口三丁目","lat":"34.489049","lng":"136.693721"},{"town":"浦口四丁目","lat":"34.485186","lng":"136.691636"},{"town":"浦口町","lat":"34.478585","lng":"136.691112"},{"town":"円座町","lat":"34.441523","lng":"136.649020"},{"town":"大倉町","lat":"34.474726","lng":"136.674360"},{"town":"大世古一丁目","lat":"34.492888","lng":"136.702604"},{"town":"大世古二丁目","lat":"34.495655","lng":"136.703039"},{"town":"大世古三丁目","lat":"34.497749","lng":"136.703041"},{"town":"大世古四丁目","lat":"34.499609","lng":"136.703131"},{"town":"大湊町","lat":"34.528614","lng":"136.737880"},{"town":"岡本一丁目","lat":"34.484848","lng":"136.711499"},{"town":"岡本二丁目","lat":"34.482800","lng":"136.713016"},{"town":"岡本三丁目","lat":"34.482895","lng":"136.708156"},{"town":"尾上町","lat":"34.484689","lng":"136.717382"},{"town":"小俣町明野","lat":"34.527054","lng":"136.670853"},{"town":"小俣町新村","lat":"34.517264","lng":"136.656229"},{"town":"小俣町相合","lat":"34.511496","lng":"136.665704"},{"town":"小俣町本町","lat":"34.501813","lng":"136.667120"},{"town":"小俣町宮前","lat":"34.496636","lng":"136.676280"},{"town":"小俣町元町","lat":"34.507769","lng":"136.679618"},{"town":"小俣町湯田","lat":"34.505551","lng":"136.650676"},{"town":"柏町","lat":"34.542924","lng":"136.653278"},{"town":"樫原町","lat":"34.531318","lng":"136.722086"},{"town":"鹿海町","lat":"34.490574","lng":"136.747353"},{"town":"神薗町","lat":"34.431752","lng":"136.641870"},{"town":"神社港","lat":"34.512693","lng":"136.734118"},{"town":"河崎一丁目","lat":"34.494978","lng":"136.712503"},{"town":"河崎二丁目","lat":"34.494919","lng":"136.714948"},{"town":"河崎三丁目","lat":"34.494318","lng":"136.716674"},{"town":"川端町","lat":"34.489299","lng":"136.681973"},{"town":"楠部町","lat":"34.477660","lng":"136.738632"},{"town":"久世戸町","lat":"34.480405","lng":"136.724619"},{"town":"黒瀬町","lat":"34.493252","lng":"136.735395"},{"town":"小木町","lat":"34.504903","lng":"136.725621"},{"town":"神田久志本町","lat":"34.489397","lng":"136.726414"},{"town":"桜木町","lat":"34.472875","lng":"136.716475"},{"town":"下野町","lat":"34.516158","lng":"136.737762"},{"town":"神久一丁目","lat":"34.490395","lng":"136.717838"},{"town":"神久二丁目","lat":"34.491288","lng":"136.720223"},{"town":"神久三丁目","lat":"34.494583","lng":"136.718980"},{"town":"神久四丁目","lat":"34.495437","lng":"136.723333"},{"town":"神久五丁目","lat":"34.497881","lng":"136.722748"},{"town":"神久六丁目","lat":"34.495725","lng":"136.726996"},{"town":"勢田町","lat":"34.470590","lng":"136.709939"},{"town":"佐八町","lat":"34.459856","lng":"136.660912"},{"town":"曽祢一丁目","lat":"34.493170","lng":"136.701800"},{"town":"曽祢二丁目","lat":"34.496100","lng":"136.700398"},{"town":"竹ケ鼻町","lat":"34.507639","lng":"136.730774"},{"town":"田尻町","lat":"34.501048","lng":"136.730520"},{"town":"辻久留一丁目","lat":"34.489461","lng":"136.689721"},{"town":"辻久留二丁目","lat":"34.486238","lng":"136.685453"},{"town":"辻久留三丁目","lat":"34.480359","lng":"136.684141"},{"town":"辻久留町","lat":"34.474514","lng":"136.686945"},{"town":"津村町","lat":"34.451768","lng":"136.660389"},{"town":"通町","lat":"34.500390","lng":"136.742830"},{"town":"常磐一丁目","lat":"34.495177","lng":"136.695055"},{"town":"常磐二丁目","lat":"34.492641","lng":"136.697261"},{"town":"常磐三丁目","lat":"34.489538","lng":"136.696742"},{"town":"常磐町","lat":"34.484352","lng":"136.695653"},{"town":"豊川町","lat":"34.483476","lng":"136.702303"},{"town":"中島一丁目","lat":"34.494223","lng":"136.686914"},{"town":"中島二丁目","lat":"34.490411","lng":"136.687008"},{"town":"中須町","lat":"34.484841","lng":"136.677277"},{"town":"中之町","lat":"34.476405","lng":"136.721133"},{"town":"中村町","lat":"34.471347","lng":"136.728518"},{"town":"西豊浜町","lat":"34.527580","lng":"136.689341"},{"town":"野村町","lat":"34.525973","lng":"136.662256"},{"town":"東大淀町","lat":"34.550648","lng":"136.667605"},{"town":"東豊浜町","lat":"34.535477","lng":"136.713419"},{"town":"吹上一丁目","lat":"34.490893","lng":"136.710633"},{"town":"吹上二丁目","lat":"34.490746","lng":"136.714601"},{"town":"藤里町","lat":"34.468148","lng":"136.700309"},{"town":"二俣一丁目","lat":"34.491489","lng":"136.691550"},{"town":"二俣二丁目","lat":"34.488454","lng":"136.691190"},{"town":"二俣三丁目","lat":"34.486310","lng":"136.688688"},{"town":"二俣四丁目","lat":"34.481837","lng":"136.689149"},{"town":"二俣町","lat":"34.477956","lng":"136.685618"},{"town":"二見町今一色","lat":"34.518979","lng":"136.750508"},{"town":"二見町江","lat":"34.502640","lng":"136.789888"},{"town":"二見町荘","lat":"34.508389","lng":"136.770664"},{"town":"二見町茶屋","lat":"34.506152","lng":"136.781602"},{"town":"二見町西","lat":"34.511839","lng":"136.759004"},{"town":"二見町光の街","lat":"34.495667","lng":"136.762816"},{"town":"二見町松下","lat":"34.496178","lng":"136.802936"},{"town":"二見町溝口","lat":"34.502298","lng":"136.757109"},{"town":"二見町三津","lat":"34.500154","lng":"136.776734"},{"town":"二見町山田原","lat":"34.500533","lng":"136.765689"},{"town":"船江一丁目","lat":"34.499808","lng":"136.713070"},{"town":"船江二丁目","lat":"34.499930","lng":"136.722239"},{"town":"船江三丁目","lat":"34.502438","lng":"136.718743"},{"town":"船江四丁目","lat":"34.504719","lng":"136.714516"},{"town":"古市町","lat":"34.481136","lng":"136.721964"},{"town":"本町","lat":"34.489162","lng":"136.706362"},{"town":"前山町","lat":"34.455435","lng":"136.692754"},{"town":"馬瀬町","lat":"34.518642","lng":"136.728290"},{"town":"御薗町王中島","lat":"34.511267","lng":"136.716913"},{"town":"御薗町小林","lat":"34.521083","lng":"136.720692"},{"town":"御薗町上條","lat":"34.520027","lng":"136.712901"},{"town":"御薗町新開","lat":"34.510970","lng":"136.722670"},{"town":"御薗町高向","lat":"34.504754","lng":"136.694936"},{"town":"御薗町長屋","lat":"34.507831","lng":"136.709750"},{"town":"宮川一丁目","lat":"34.496198","lng":"136.689152"},{"town":"宮川二丁目","lat":"34.497830","lng":"136.686666"},{"town":"宮後一丁目","lat":"34.491866","lng":"136.706987"},{"town":"宮後二丁目","lat":"34.493691","lng":"136.709304"},{"town":"宮後三丁目","lat":"34.497707","lng":"136.709424"},{"town":"宮町一丁目","lat":"34.492586","lng":"136.699812"},{"town":"宮町二丁目","lat":"34.495776","lng":"136.698163"},{"town":"村松町","lat":"34.541167","lng":"136.677229"},{"town":"倭町","lat":"34.485112","lng":"136.720598"},{"town":"矢持町","lat":"34.405565","lng":"136.694839"},{"town":"八日市場町","lat":"34.490538","lng":"136.700371"},{"town":"横輪町","lat":"34.409002","lng":"136.667130"}]