[{"town":"大字池村","lat":"34.513313","lng":"136.605349"},{"town":"大字上野","lat":"34.532460","lng":"136.632550"},{"town":"大字上村","lat":"34.518022","lng":"136.594541"},{"town":"大字有爾中","lat":"34.522696","lng":"136.618941"},{"town":"大字馬之上","lat":"34.554720","lng":"136.624705"},{"town":"大字大堀川新田","lat":"34.577589","lng":"136.650708"},{"town":"大字大淀","lat":"34.566850","lng":"136.654332"},{"town":"大字川尻","lat":"34.594519","lng":"136.612051"},{"town":"大字北藤原","lat":"34.593598","lng":"136.622851"},{"town":"大字金剛坂","lat":"34.532906","lng":"136.603555"},{"town":"大字斎宮","lat":"34.538437","lng":"136.624748"},{"town":"大字坂本","lat":"34.549999","lng":"136.615284"},{"town":"大字佐田","lat":"34.563711","lng":"136.625794"},{"town":"大字志貴","lat":"34.575174","lng":"136.613402"},{"town":"大字新茶屋","lat":"34.524081","lng":"136.655283"},{"town":"大字竹川","lat":"34.537000","lng":"136.609633"},{"town":"大字田屋","lat":"34.577175","lng":"136.620371"},{"town":"大字内座","lat":"34.582264","lng":"136.624001"},{"town":"大字中村","lat":"34.584361","lng":"136.615389"},{"town":"大字中海","lat":"34.557213","lng":"136.612280"},{"town":"大字根倉","lat":"34.575043","lng":"136.634516"},{"town":"大字濱田","lat":"34.588023","lng":"136.636767"},{"town":"大字平尾","lat":"34.542634","lng":"136.643204"},{"town":"大字前野","lat":"34.571668","lng":"136.622566"},{"town":"大字南藤原","lat":"34.587186","lng":"136.626404"},{"town":"大字蓑村","lat":"34.522391","lng":"136.627145"},{"town":"大字明星","lat":"34.526143","lng":"136.637194"},{"town":"大字八木戸","lat":"34.585435","lng":"136.639426"},{"town":"大字山大淀","lat":"34.569732","lng":"136.646143"},{"town":"大字行部","lat":"34.567881","lng":"136.636490"},{"town":"大字養川","lat":"34.577909","lng":"136.627443"},{"town":"大字岩内","lat":"34.518756","lng":"136.592275"}]