[{"town":"阿曽浦","lat":"34.260002","lng":"136.595635"},{"town":"泉","lat":"34.357696","lng":"136.725487"},{"town":"伊勢路","lat":"34.366164","lng":"136.655595"},{"town":"大江","lat":"34.299928","lng":"136.609321"},{"town":"相賀浦","lat":"34.293660","lng":"136.638790"},{"town":"大方竈","lat":"34.265909","lng":"136.596442"},{"town":"小方竈","lat":"34.246224","lng":"136.490870"},{"town":"押渕","lat":"34.321942","lng":"136.614312"},{"town":"神前浦","lat":"34.260021","lng":"136.505371"},{"town":"木谷","lat":"34.322944","lng":"136.722674"},{"town":"切原","lat":"34.373753","lng":"136.713443"},{"town":"河内","lat":"34.299453","lng":"136.518833"},{"town":"五ヶ所浦","lat":"34.355484","lng":"136.702194"},{"town":"古和浦","lat":"34.269681","lng":"136.451053"},{"town":"神津佐","lat":"34.351515","lng":"136.735325"},{"town":"斎田","lat":"34.352223","lng":"136.623164"},{"town":"礫浦","lat":"34.309082","lng":"136.667627"},{"town":"新桑竈","lat":"34.232896","lng":"136.436883"},{"town":"下津浦","lat":"34.330191","lng":"136.735003"},{"town":"宿浦","lat":"34.308193","lng":"136.699569"},{"town":"慥柄浦","lat":"34.292142","lng":"136.561495"},{"town":"田曽浦","lat":"34.294982","lng":"136.701744"},{"town":"棚橋竈","lat":"34.254914","lng":"136.429226"},{"town":"東宮","lat":"34.292051","lng":"136.543468"},{"town":"栃木竈","lat":"34.244610","lng":"136.471099"},{"town":"内瀬","lat":"34.348613","lng":"136.658795"},{"town":"中津浜浦","lat":"34.330078","lng":"136.686576"},{"town":"奈屋浦","lat":"34.278908","lng":"136.542068"},{"town":"贄浦","lat":"34.283462","lng":"136.553291"},{"town":"迫間浦","lat":"34.317639","lng":"136.637661"},{"town":"始神","lat":"34.340029","lng":"136.615602"},{"town":"飯満","lat":"34.345999","lng":"136.710890"},{"town":"船越","lat":"34.348395","lng":"136.680977"},{"town":"方座浦","lat":"34.252618","lng":"136.506496"},{"town":"道方","lat":"34.305308","lng":"136.572252"},{"town":"道行竈","lat":"34.282908","lng":"136.606781"},{"town":"村山","lat":"34.299570","lng":"136.480182"}]