[{"town":"阿形町","lat":"34.560537","lng":"136.504433"},{"town":"朝田町","lat":"34.568129","lng":"136.564977"},{"town":"朝日町","lat":"34.580337","lng":"136.536290"},{"town":"朝日町一区","lat":"34.579697","lng":"136.537469"},{"town":"愛宕町","lat":"34.571772","lng":"136.538087"},{"town":"愛宕町一丁目","lat":"34.571036","lng":"136.535795"},{"town":"愛宕町二丁目","lat":"34.569971","lng":"136.537896"},{"town":"愛宕町三丁目","lat":"34.570998","lng":"136.537672"},{"town":"愛宕町四丁目","lat":"34.571963","lng":"136.537122"},{"town":"荒木町","lat":"34.590717","lng":"136.544545"},{"town":"阿波曽町","lat":"34.510500","lng":"136.524765"},{"town":"安楽町","lat":"34.538299","lng":"136.572131"},{"town":"飯高町赤桶","lat":"34.445506","lng":"136.304219"},{"town":"飯高町粟野","lat":"34.424978","lng":"136.253009"},{"town":"飯高町猿山","lat":"34.362257","lng":"136.182191"},{"town":"飯高町青田","lat":"34.383653","lng":"136.142352"},{"town":"飯高町落方","lat":"34.415153","lng":"136.131463"},{"town":"飯高町乙栗子","lat":"34.407137","lng":"136.194557"},{"town":"飯高町加波","lat":"34.413098","lng":"136.170880"},{"town":"飯高町木梶","lat":"34.401451","lng":"136.099834"},{"town":"飯高町桑原","lat":"34.426586","lng":"136.168921"},{"town":"飯高町作滝","lat":"34.431146","lng":"136.316478"},{"town":"飯高町下滝野","lat":"34.448075","lng":"136.350587"},{"town":"飯高町草鹿野","lat":"34.431889","lng":"136.119339"},{"town":"飯高町田引","lat":"34.429139","lng":"136.280076"},{"town":"飯高町太良木","lat":"34.435952","lng":"136.134133"},{"town":"飯高町月出","lat":"34.440039","lng":"136.178018"},{"town":"飯高町栃谷","lat":"34.400586","lng":"136.130990"},{"town":"飯高町富永","lat":"34.430276","lng":"136.214558"},{"town":"飯高町七日市","lat":"34.411759","lng":"136.217408"},{"town":"飯高町野々口","lat":"34.416860","lng":"136.320263"},{"town":"飯高町波瀬","lat":"34.423128","lng":"136.146112"},{"town":"飯高町蓮","lat":"34.340192","lng":"136.143576"},{"town":"飯高町舟戸","lat":"34.425541","lng":"136.108444"},{"town":"飯高町宮前","lat":"34.444198","lng":"136.333270"},{"town":"飯高町宮本","lat":"34.397722","lng":"136.242758"},{"town":"飯高町森","lat":"34.375935","lng":"136.234472"},{"town":"飯南町有間野","lat":"34.422453","lng":"136.347632"},{"town":"飯南町上仁柿","lat":"34.485896","lng":"136.350935"},{"town":"飯南町粥見","lat":"34.453904","lng":"136.386066"},{"town":"飯南町下仁柿","lat":"34.475908","lng":"136.375897"},{"town":"飯南町深野","lat":"34.489968","lng":"136.398461"},{"town":"飯南町向粥見","lat":"34.431123","lng":"136.391578"},{"town":"飯南町横野","lat":"34.488536","lng":"136.386459"},{"town":"井口中町","lat":"34.558897","lng":"136.601928"},{"town":"射和町","lat":"34.510968","lng":"136.540681"},{"town":"石津町","lat":"34.588319","lng":"136.539240"},{"town":"五十鈴町","lat":"34.570921","lng":"136.533791"},{"town":"出間町","lat":"34.586385","lng":"136.605383"},{"town":"泉町","lat":"34.567747","lng":"136.521823"},{"town":"伊勢寺町","lat":"34.564380","lng":"136.465506"},{"town":"伊勢場町","lat":"34.529170","lng":"136.590589"},{"town":"市場庄町","lat":"34.605665","lng":"136.514567"},{"town":"稲木町","lat":"34.541387","lng":"136.597086"},{"town":"飯福田町","lat":"34.564576","lng":"136.398741"},{"town":"井村町","lat":"34.575805","lng":"136.510403"},{"town":"上川町","lat":"34.551133","lng":"136.560648"},{"town":"魚町","lat":"34.577231","lng":"136.529780"},{"town":"魚見町","lat":"34.570163","lng":"136.596674"},{"town":"牛草町","lat":"34.583718","lng":"136.597117"},{"town":"後山町","lat":"34.547348","lng":"136.401375"},{"town":"内五曲町","lat":"34.575331","lng":"136.521583"},{"town":"嬉野一志町","lat":"34.627330","lng":"136.461229"},{"town":"嬉野井之上町","lat":"34.613793","lng":"136.444152"},{"town":"嬉野岩倉町","lat":"34.571461","lng":"136.408429"},{"town":"嬉野上野町","lat":"34.614397","lng":"136.470153"},{"town":"嬉野小原町","lat":"34.554703","lng":"136.377687"},{"town":"嬉野上小川町","lat":"34.525941","lng":"136.354221"},{"town":"嬉野神ノ木町","lat":"34.614309","lng":"136.463235"},{"town":"嬉野釜生田町","lat":"34.616720","lng":"136.423399"},{"town":"嬉野川北町","lat":"34.630208","lng":"136.492547"},{"town":"嬉野川原木造町","lat":"34.644503","lng":"136.490003"},{"town":"嬉野黒田町","lat":"34.641807","lng":"136.479363"},{"town":"嬉野黒野町","lat":"34.599266","lng":"136.486164"},{"town":"嬉野合ケ野町","lat":"34.583584","lng":"136.390028"},{"town":"嬉野小村町","lat":"34.632697","lng":"136.507023"},{"town":"嬉野権現前町","lat":"34.620450","lng":"136.482202"},{"town":"嬉野算所町","lat":"34.615714","lng":"136.479660"},{"town":"嬉野島田町","lat":"34.627546","lng":"136.434412"},{"town":"嬉野下之庄町","lat":"34.620481","lng":"136.467497"},{"town":"嬉野須賀町","lat":"34.622231","lng":"136.492992"},{"town":"嬉野須賀領町","lat":"34.614494","lng":"136.492186"},{"town":"嬉野滝之川町","lat":"34.609914","lng":"136.422545"},{"town":"嬉野田村町","lat":"34.609254","lng":"136.485309"},{"town":"嬉野町","lat":"34.625179","lng":"136.480507"},{"town":"嬉野津屋城町","lat":"34.618056","lng":"136.499715"},{"town":"嬉野天花寺町","lat":"34.634822","lng":"136.460007"},{"town":"嬉野中川新町一丁目","lat":"34.634526","lng":"136.477600"},{"town":"嬉野中川新町二丁目","lat":"34.635208","lng":"136.481130"},{"town":"嬉野中川新町三丁目","lat":"34.632332","lng":"136.481898"},{"town":"嬉野中川新町四丁目","lat":"34.631382","lng":"136.478508"},{"town":"嬉野中川町","lat":"34.630286","lng":"136.472918"},{"town":"嬉野新屋庄町","lat":"34.637930","lng":"136.494402"},{"town":"嬉野野田町","lat":"34.636948","lng":"136.485706"},{"town":"嬉野八田町","lat":"34.615269","lng":"136.450285"},{"town":"嬉野平生町","lat":"34.645308","lng":"136.470741"},{"town":"嬉野堀之内町","lat":"34.619268","lng":"136.457803"},{"town":"嬉野見永町","lat":"34.641496","lng":"136.486759"},{"town":"嬉野宮古町","lat":"34.640484","lng":"136.468727"},{"town":"嬉野宮野町","lat":"34.601010","lng":"136.406855"},{"town":"嬉野森本町","lat":"34.584212","lng":"136.438650"},{"town":"嬉野矢下町","lat":"34.582937","lng":"136.413471"},{"town":"嬉野薬王寺町","lat":"34.606046","lng":"136.451115"},{"town":"大石町","lat":"34.491858","lng":"136.419089"},{"town":"大阿坂町","lat":"34.599958","lng":"136.469987"},{"town":"大垣内町","lat":"34.582552","lng":"136.604096"},{"town":"大口町","lat":"34.602469","lng":"136.556907"},{"town":"大黒田町","lat":"34.565867","lng":"136.526629"},{"town":"大塚町","lat":"34.590741","lng":"136.528836"},{"town":"大津町","lat":"34.566398","lng":"136.550886"},{"town":"小野町","lat":"34.607939","lng":"136.466386"},{"town":"大平尾町","lat":"34.595503","lng":"136.536876"},{"town":"大宮田町","lat":"34.573796","lng":"136.575223"},{"town":"小片野町","lat":"34.491426","lng":"136.441925"},{"town":"岡本町","lat":"34.555369","lng":"136.499685"},{"town":"岡山町","lat":"34.555754","lng":"136.477448"},{"town":"大河内町","lat":"34.518435","lng":"136.473388"},{"town":"白粉町","lat":"34.571230","lng":"136.531590"},{"town":"小津町","lat":"34.616911","lng":"136.512592"},{"town":"乙部町","lat":"34.585663","lng":"136.594183"},{"town":"小野江町","lat":"34.642094","lng":"136.515264"},{"town":"大足町","lat":"34.567985","lng":"136.506454"},{"town":"垣内田町","lat":"34.588296","lng":"136.597169"},{"town":"垣鼻町","lat":"34.565335","lng":"136.538617"},{"town":"柿木原町","lat":"34.594728","lng":"136.604253"},{"town":"笠松町","lat":"34.631452","lng":"136.528167"},{"town":"春日町一丁目","lat":"34.566275","lng":"136.533018"},{"town":"春日町二丁目","lat":"34.564093","lng":"136.531487"},{"town":"春日町三丁目","lat":"34.563771","lng":"136.534076"},{"town":"桂瀬町","lat":"34.536814","lng":"136.491740"},{"town":"鎌田町","lat":"34.583279","lng":"136.536094"},{"town":"上蛸路町","lat":"34.522420","lng":"136.525847"},{"town":"上七見町","lat":"34.565978","lng":"136.579472"},{"town":"上ノ庄町","lat":"34.599878","lng":"136.497865"},{"town":"川井町","lat":"34.581579","lng":"136.516264"},{"town":"川島町","lat":"34.579356","lng":"136.595546"},{"town":"神守町","lat":"34.586152","lng":"136.598938"},{"town":"喜多村新田町","lat":"34.614770","lng":"136.527511"},{"town":"木の郷町","lat":"34.535970","lng":"136.501787"},{"town":"京町","lat":"34.575658","lng":"136.536226"},{"town":"京町一区","lat":"34.577332","lng":"136.538460"},{"town":"櫛田町","lat":"34.553135","lng":"136.587189"},{"town":"久保田町","lat":"34.589359","lng":"136.533218"},{"town":"久保町","lat":"34.548641","lng":"136.534347"},{"town":"久米町","lat":"34.596675","lng":"136.511868"},{"town":"黒田町","lat":"34.568439","lng":"136.527055"},{"town":"小阿坂町","lat":"34.586586","lng":"136.468160"},{"town":"古井町","lat":"34.580796","lng":"136.572927"},{"town":"幸生町","lat":"34.565357","lng":"136.557762"},{"town":"郷津町","lat":"34.586994","lng":"136.546360"},{"town":"広陽町","lat":"34.531818","lng":"136.524418"},{"town":"小黒田町","lat":"34.557180","lng":"136.517588"},{"town":"五反田町一丁目","lat":"34.564679","lng":"136.520684"},{"town":"五反田町二丁目","lat":"34.565228","lng":"136.519654"},{"town":"五反田町三丁目","lat":"34.565875","lng":"136.518688"},{"town":"五反田町四丁目","lat":"34.565960","lng":"136.516914"},{"town":"五反田町五丁目","lat":"34.566437","lng":"136.515840"},{"town":"御殿山町","lat":"34.554996","lng":"136.522537"},{"town":"五主町","lat":"34.629966","lng":"136.540941"},{"town":"小舟江町","lat":"34.634882","lng":"136.516797"},{"town":"阪内町","lat":"34.525139","lng":"136.420591"},{"town":"佐久米町","lat":"34.573927","lng":"136.565048"},{"town":"桜町","lat":"34.567667","lng":"136.511466"},{"town":"笹川町","lat":"34.531020","lng":"136.485308"},{"town":"五月町","lat":"34.568203","lng":"136.518482"},{"town":"清水町","lat":"34.559511","lng":"136.588819"},{"town":"下蛸路町","lat":"34.528416","lng":"136.547808"},{"town":"下七見町","lat":"34.572463","lng":"136.585995"},{"town":"下村町","lat":"34.548396","lng":"136.545243"},{"town":"庄町","lat":"34.508555","lng":"136.510120"},{"town":"新開町","lat":"34.578171","lng":"136.601401"},{"town":"新座町","lat":"34.572742","lng":"136.529483"},{"town":"新町","lat":"34.572014","lng":"136.530739"},{"town":"新松ヶ島町","lat":"34.602891","lng":"136.536604"},{"town":"新屋敷町","lat":"34.577168","lng":"136.585504"},{"town":"末広町一丁目","lat":"34.575199","lng":"136.539613"},{"town":"末広町二丁目","lat":"34.577101","lng":"136.540887"},{"town":"菅生町","lat":"34.564220","lng":"136.584616"},{"town":"清生町","lat":"34.573048","lng":"136.542420"},{"town":"勢津町","lat":"34.531768","lng":"136.445436"},{"town":"外五曲町","lat":"34.575802","lng":"136.518055"},{"town":"曽原町","lat":"34.624790","lng":"136.519729"},{"town":"田牧町","lat":"34.575786","lng":"136.504047"},{"town":"高木町","lat":"34.550680","lng":"136.601698"},{"town":"高須町","lat":"34.597233","lng":"136.568487"},{"town":"高町","lat":"34.583707","lng":"136.553351"},{"town":"宝塚町","lat":"34.552520","lng":"136.516571"},{"town":"立野町","lat":"34.544972","lng":"136.502576"},{"town":"立田町","lat":"34.562309","lng":"136.571869"},{"town":"田村町","lat":"34.555284","lng":"136.507743"},{"town":"田原町","lat":"34.563817","lng":"136.543853"},{"town":"茅原町","lat":"34.496387","lng":"136.466496"},{"town":"茶与町","lat":"34.568944","lng":"136.532003"},{"town":"中央町","lat":"34.582053","lng":"136.540996"},{"town":"中万町","lat":"34.520435","lng":"136.555130"},{"town":"長月町","lat":"34.569900","lng":"136.534984"},{"town":"塚本町","lat":"34.593222","lng":"136.518550"},{"town":"辻原町","lat":"34.514182","lng":"136.444561"},{"town":"土古路町","lat":"34.589429","lng":"136.611326"},{"town":"殿町","lat":"34.574769","lng":"136.526509"},{"town":"殿村町","lat":"34.572910","lng":"136.501352"},{"town":"豊原町","lat":"34.547982","lng":"136.576971"},{"town":"中ノ庄町","lat":"34.605231","lng":"136.504418"},{"town":"中林町","lat":"34.630592","lng":"136.512251"},{"town":"中町","lat":"34.577385","lng":"136.531832"},{"town":"中町六丁目","lat":"34.577688","lng":"136.533997"},{"town":"中道町","lat":"34.619693","lng":"136.516520"},{"town":"虹が丘町","lat":"34.542879","lng":"136.555091"},{"town":"西黒部町","lat":"34.587386","lng":"136.574256"},{"town":"西之庄町","lat":"34.580139","lng":"136.525030"},{"town":"西野町","lat":"34.549743","lng":"136.474661"},{"town":"西野々町","lat":"34.578832","lng":"136.564313"},{"town":"西肥留町","lat":"34.637469","lng":"136.503564"},{"town":"西町","lat":"34.583051","lng":"136.525481"},{"town":"丹生寺町","lat":"34.549250","lng":"136.488424"},{"town":"野村町","lat":"34.584804","lng":"136.495306"},{"town":"甚目町","lat":"34.646041","lng":"136.505465"},{"town":"八太町","lat":"34.523199","lng":"136.536773"},{"town":"早馬瀬町","lat":"34.543500","lng":"136.588065"},{"town":"腹太町","lat":"34.567025","lng":"136.614795"},{"town":"日丘町","lat":"34.564297","lng":"136.491367"},{"town":"東久保町","lat":"34.582973","lng":"136.589386"},{"town":"東黒部町","lat":"34.594285","lng":"136.596591"},{"town":"東町","lat":"34.575522","lng":"136.551046"},{"town":"光町","lat":"34.548554","lng":"136.515653"},{"town":"挽木町","lat":"34.572301","lng":"136.537949"},{"town":"日野町","lat":"34.574916","lng":"136.533059"},{"town":"平生町","lat":"34.571805","lng":"136.534612"},{"town":"肥留町","lat":"34.638333","lng":"136.511166"},{"town":"広瀬町","lat":"34.508479","lng":"136.482637"},{"town":"深長町","lat":"34.576993","lng":"136.489650"},{"town":"藤之木町","lat":"34.561740","lng":"136.495653"},{"town":"船江町","lat":"34.590712","lng":"136.521282"},{"town":"平成町","lat":"34.555141","lng":"136.493934"},{"town":"法田町","lat":"34.527190","lng":"136.580618"},{"town":"保津町","lat":"34.571293","lng":"136.605210"},{"town":"星合町","lat":"34.641055","lng":"136.529234"},{"town":"本町","lat":"34.580363","lng":"136.530611"},{"town":"舞出町","lat":"34.645794","lng":"136.497324"},{"town":"駅部田町","lat":"34.554792","lng":"136.528063"},{"town":"曲町","lat":"34.583868","lng":"136.505807"},{"town":"町平尾町","lat":"34.600565","lng":"136.540558"},{"town":"松ヶ島町","lat":"34.603695","lng":"136.528320"},{"town":"松崎浦町","lat":"34.609554","lng":"136.521911"},{"town":"松名瀬町","lat":"34.597999","lng":"136.584546"},{"town":"御麻生薗町","lat":"34.509562","lng":"136.497573"},{"town":"湊町","lat":"34.572454","lng":"136.533820"},{"town":"南虹が丘町","lat":"34.537670","lng":"136.554564"},{"town":"南町","lat":"34.567918","lng":"136.534152"},{"town":"美濃田町","lat":"34.588510","lng":"136.491584"},{"town":"宮町","lat":"34.576235","lng":"136.543565"},{"town":"目田町","lat":"34.538484","lng":"136.586009"},{"town":"萌木町","lat":"34.539421","lng":"136.535913"},{"town":"八重田町","lat":"34.570227","lng":"136.491749"},{"town":"矢津町","lat":"34.529660","lng":"136.465344"},{"town":"山下町","lat":"34.542829","lng":"136.573888"},{"town":"山添町","lat":"34.530614","lng":"136.568301"},{"town":"山室町","lat":"34.532289","lng":"136.511332"},{"town":"柚原町","lat":"34.524322","lng":"136.384484"},{"town":"岩内町","lat":"34.570836","lng":"136.449379"},{"town":"横地町","lat":"34.531990","lng":"136.582005"},{"town":"与原町","lat":"34.555572","lng":"136.423196"},{"town":"猟師町","lat":"34.604031","lng":"136.548479"},{"town":"蓮花寺町","lat":"34.582887","lng":"136.599393"},{"town":"六呂木町","lat":"34.499229","lng":"136.445275"},{"town":"六軒町","lat":"34.611766","lng":"136.510304"},{"town":"六根町","lat":"34.565299","lng":"136.604215"},{"town":"若葉町","lat":"34.581012","lng":"136.543689"},{"town":"和屋町","lat":"34.557028","lng":"136.576639"}]