[{"town":"大字市武","lat":"33.296256","lng":"130.423805"},{"town":"大字江口","lat":"33.312154","lng":"130.467564"},{"town":"大字坂口","lat":"33.274906","lng":"130.441703"},{"town":"大字白壁","lat":"33.334195","lng":"130.470602"},{"town":"大字天建寺","lat":"33.288990","lng":"130.452961"},{"town":"大字中津隈","lat":"33.322972","lng":"130.438345"},{"town":"大字西島","lat":"33.301286","lng":"130.444777"},{"town":"大字原古賀","lat":"33.365277","lng":"130.431098"},{"town":"大字東尾","lat":"33.327329","lng":"130.454671"},{"town":"大字東津","lat":"33.276514","lng":"130.418301"},{"town":"大字簑原","lat":"33.370167","lng":"130.445042"},{"town":"大字寄人","lat":"33.288755","lng":"130.413616"}]