[{"town":"市田","lat":"34.895080","lng":"135.759142"},{"town":"大橋辺","lat":"34.897652","lng":"135.717638"},{"town":"相島","lat":"34.899191","lng":"135.736637"},{"town":"北川顔","lat":"34.895236","lng":"135.721479"},{"town":"栄一丁目","lat":"34.879960","lng":"135.764602"},{"town":"栄二丁目","lat":"34.878662","lng":"135.765037"},{"town":"栄三丁目","lat":"34.878636","lng":"135.760635"},{"town":"栄四丁目","lat":"34.879942","lng":"135.760622"},{"town":"佐古","lat":"34.881864","lng":"135.760996"},{"town":"佐山","lat":"34.873905","lng":"135.751470"},{"town":"島田","lat":"34.883855","lng":"135.733598"},{"town":"下津屋","lat":"34.876376","lng":"135.737958"},{"town":"田井","lat":"34.881171","lng":"135.737413"},{"town":"中島","lat":"34.895323","lng":"135.730095"},{"town":"西一口","lat":"34.900615","lng":"135.731390"},{"town":"野村","lat":"34.888534","lng":"135.741425"},{"town":"林","lat":"34.878165","lng":"135.757010"},{"town":"東一口","lat":"34.904810","lng":"135.744345"},{"town":"藤和田","lat":"34.889585","lng":"135.723948"},{"town":"坊之池","lat":"34.890380","lng":"135.731894"},{"town":"森","lat":"34.897699","lng":"135.746566"}]