[{"town":"旭町","lat":"35.084241","lng":"135.571804"},{"town":"余部町","lat":"35.014646","lng":"135.563595"},{"town":"荒塚町","lat":"35.013230","lng":"135.580401"},{"town":"荒塚町一丁目","lat":"35.010793","lng":"135.574171"},{"town":"荒塚町二丁目","lat":"35.011162","lng":"135.575742"},{"town":"内丸町","lat":"35.012781","lng":"135.578387"},{"town":"宇津根町","lat":"35.022159","lng":"135.572526"},{"town":"馬路町","lat":"35.058131","lng":"135.559701"},{"town":"追分町","lat":"35.017121","lng":"135.581205"},{"town":"大井町かすみケ丘","lat":"35.033276","lng":"135.555603"},{"town":"大井町北金岐","lat":"35.032234","lng":"135.540122"},{"town":"大井町小金岐","lat":"35.038052","lng":"135.541637"},{"town":"大井町小金岐一丁目","lat":"35.038638","lng":"135.542957"},{"town":"大井町小金岐二丁目","lat":"35.037557","lng":"135.545609"},{"town":"大井町小金岐三丁目","lat":"35.036195","lng":"135.547366"},{"town":"大井町小金岐四丁目","lat":"35.033153","lng":"135.547863"},{"town":"大井町土田","lat":"35.036633","lng":"135.537095"},{"town":"大井町土田一丁目","lat":"35.036526","lng":"135.551125"},{"town":"大井町土田二丁目","lat":"35.033073","lng":"135.553113"},{"town":"大井町土田三丁目","lat":"35.034302","lng":"135.549899"},{"town":"大井町並河","lat":"35.029287","lng":"135.564016"},{"town":"大井町並河一丁目","lat":"35.029539","lng":"135.558529"},{"town":"大井町並河二丁目","lat":"35.029020","lng":"135.555517"},{"town":"大井町並河三丁目","lat":"35.029187","lng":"135.552414"},{"town":"大井町南金岐","lat":"35.028926","lng":"135.541747"},{"town":"上矢田町","lat":"34.993584","lng":"135.575388"},{"town":"河原林町河原尻","lat":"35.044747","lng":"135.567448"},{"town":"河原林町勝林島","lat":"35.031922","lng":"135.571243"},{"town":"河原町","lat":"35.019805","lng":"135.573409"},{"town":"北河原町一丁目","lat":"35.020047","lng":"135.569138"},{"town":"北河原町二丁目","lat":"35.021505","lng":"135.567492"},{"town":"北古世町一丁目","lat":"35.011283","lng":"135.585576"},{"town":"北古世町二丁目","lat":"35.011503","lng":"135.588190"},{"town":"北町","lat":"35.015164","lng":"135.577758"},{"town":"京町","lat":"35.008270","lng":"135.582334"},{"town":"古世町","lat":"35.013789","lng":"135.587156"},{"town":"古世町一丁目","lat":"35.006711","lng":"135.582484"},{"town":"古世町二丁目","lat":"35.006362","lng":"135.584733"},{"town":"古世町三丁目","lat":"35.006250","lng":"135.587474"},{"town":"呉服町","lat":"35.009018","lng":"135.582111"},{"town":"紺屋町","lat":"35.010953","lng":"135.577494"},{"town":"塩屋町","lat":"35.009124","lng":"135.578782"},{"town":"篠町馬堀","lat":"35.008508","lng":"135.600885"},{"town":"篠町馬堀駅前一丁目","lat":"35.009977","lng":"135.601482"},{"town":"篠町馬堀駅前二丁目","lat":"35.010594","lng":"135.604170"},{"town":"篠町王子","lat":"34.997731","lng":"135.631456"},{"town":"篠町柏原","lat":"34.974100","lng":"135.587892"},{"town":"篠町篠","lat":"34.991371","lng":"135.606095"},{"town":"篠町浄法寺","lat":"35.001644","lng":"135.591905"},{"town":"篠町野条","lat":"35.003471","lng":"135.599728"},{"town":"篠町広田","lat":"34.983057","lng":"135.588199"},{"town":"篠町広田一丁目","lat":"35.004601","lng":"135.596035"},{"town":"篠町広田二丁目","lat":"35.000693","lng":"135.594967"},{"town":"篠町広田三丁目","lat":"34.996425","lng":"135.594258"},{"town":"篠町見晴一丁目","lat":"35.010233","lng":"135.605602"},{"town":"篠町見晴二丁目","lat":"35.009734","lng":"135.609937"},{"town":"篠町見晴三丁目","lat":"35.009206","lng":"135.608131"},{"town":"篠町見晴四丁目","lat":"35.009782","lng":"135.606340"},{"town":"篠町見晴五丁目","lat":"35.008485","lng":"135.605905"},{"town":"篠町見晴六丁目","lat":"35.007235","lng":"135.609049"},{"town":"篠町見晴七丁目","lat":"35.007227","lng":"135.606992"},{"town":"篠町森","lat":"34.985635","lng":"135.599555"},{"town":"篠町山本","lat":"35.010981","lng":"135.616238"},{"town":"篠町夕日ケ丘一丁目","lat":"34.996833","lng":"135.609700"},{"town":"篠町夕日ケ丘三丁目","lat":"34.997560","lng":"135.607088"},{"town":"下矢田町","lat":"34.990575","lng":"135.568304"},{"town":"下矢田町一丁目","lat":"35.008465","lng":"135.572969"},{"town":"下矢田町二丁目","lat":"35.008402","lng":"135.575524"},{"town":"下矢田町三丁目","lat":"35.007996","lng":"135.579177"},{"town":"下矢田町四丁目","lat":"35.006593","lng":"135.578831"},{"town":"新町","lat":"35.009924","lng":"135.580697"},{"town":"曽我部町穴太","lat":"35.007505","lng":"135.544134"},{"town":"曽我部町犬飼","lat":"34.990381","lng":"135.513794"},{"town":"曽我部町春日部","lat":"34.972496","lng":"135.536958"},{"town":"曽我部町重利","lat":"35.005392","lng":"135.555658"},{"town":"曽我部町寺","lat":"34.980471","lng":"135.550970"},{"town":"曽我部町中","lat":"34.978070","lng":"135.533380"},{"town":"曽我部町南条","lat":"34.996298","lng":"135.552941"},{"town":"曽我部町西条","lat":"35.002316","lng":"135.544033"},{"town":"曽我部町法貴","lat":"34.982515","lng":"135.524986"},{"town":"千歳町国分","lat":"35.048987","lng":"135.597529"},{"town":"千歳町千歳","lat":"35.057674","lng":"135.586228"},{"town":"千歳町毘沙門","lat":"35.041094","lng":"135.595557"},{"town":"千代川町今津","lat":"35.049132","lng":"135.550966"},{"town":"千代川町今津一丁目","lat":"35.049567","lng":"135.547348"},{"town":"千代川町今津二丁目","lat":"35.050405","lng":"135.548451"},{"town":"千代川町今津三丁目","lat":"35.046973","lng":"135.551271"},{"town":"千代川町小川一丁目","lat":"35.046663","lng":"135.544860"},{"town":"千代川町小川二丁目","lat":"35.046972","lng":"135.546580"},{"town":"千代川町小川三丁目","lat":"35.046223","lng":"135.550368"},{"town":"千代川町小林","lat":"35.040799","lng":"135.551253"},{"town":"千代川町川関","lat":"35.060340","lng":"135.544000"},{"town":"千代川町北ノ庄","lat":"35.049485","lng":"135.532790"},{"town":"千代川町高野林","lat":"35.044109","lng":"135.550351"},{"town":"千代川町千原","lat":"35.054645","lng":"135.541909"},{"town":"千代川町千原一丁目","lat":"35.049167","lng":"135.544350"},{"town":"千代川町千原二丁目","lat":"35.050524","lng":"135.546038"},{"town":"千代川町拝田","lat":"35.056039","lng":"135.534652"},{"town":"千代川町日吉台","lat":"35.041102","lng":"135.543994"},{"town":"千代川町湯井","lat":"35.042107","lng":"135.534308"},{"town":"突抜町","lat":"35.009407","lng":"135.585458"},{"town":"中矢田町","lat":"35.002779","lng":"135.581302"},{"town":"南郷町","lat":"35.013958","lng":"135.579634"},{"town":"西竪町","lat":"35.008323","lng":"135.584828"},{"town":"西つつじケ丘雲仙台一丁目","lat":"35.002570","lng":"135.587091"},{"town":"西つつじケ丘雲仙台二丁目","lat":"35.002115","lng":"135.584873"},{"town":"西つつじケ丘霧島台一丁目","lat":"34.999430","lng":"135.589453"},{"town":"西つつじケ丘霧島台二丁目","lat":"34.998747","lng":"135.586435"},{"town":"西つつじケ丘五月台一丁目","lat":"35.003772","lng":"135.588739"},{"town":"西つつじケ丘五月台二丁目","lat":"35.003787","lng":"135.586305"},{"town":"西つつじケ丘大山台一丁目","lat":"35.001344","lng":"135.589157"},{"town":"西つつじケ丘大山台二丁目","lat":"35.001049","lng":"135.586628"},{"town":"西つつじケ丘美山台一丁目","lat":"34.999237","lng":"135.584302"},{"town":"西つつじケ丘美山台二丁目","lat":"34.997105","lng":"135.584696"},{"town":"西別院町犬甘野","lat":"34.971902","lng":"135.501330"},{"town":"西別院町大槻並","lat":"34.953329","lng":"135.526803"},{"town":"西別院町神地","lat":"34.950635","lng":"135.492009"},{"town":"西別院町寺田","lat":"34.939856","lng":"135.517011"},{"town":"西別院町牧","lat":"34.959135","lng":"135.487272"},{"town":"西別院町万願寺","lat":"34.943810","lng":"135.524842"},{"town":"西別院町柚原","lat":"34.954454","lng":"135.510609"},{"town":"西別院町笑路","lat":"34.970180","lng":"135.517462"},{"town":"西町","lat":"35.013795","lng":"135.576784"},{"town":"旅籠町","lat":"35.010024","lng":"135.582160"},{"town":"畑野町千ケ畑","lat":"35.019670","lng":"135.437421"},{"town":"畑野町土ケ畑","lat":"35.018863","lng":"135.393812"},{"town":"畑野町広野","lat":"35.008983","lng":"135.428324"},{"town":"稗田野町芦ノ山","lat":"35.017740","lng":"135.510769"},{"town":"稗田野町太田","lat":"35.023292","lng":"135.541662"},{"town":"稗田野町奥条","lat":"35.031143","lng":"135.514969"},{"town":"稗田野町柿花","lat":"35.024693","lng":"135.510749"},{"town":"稗田野町佐伯","lat":"35.005462","lng":"135.512808"},{"town":"稗田野町天川","lat":"35.011123","lng":"135.542003"},{"town":"稗田野町鹿谷","lat":"35.030727","lng":"135.528651"},{"town":"東竪町","lat":"35.008447","lng":"135.586921"},{"town":"東つつじケ丘曙台一丁目","lat":"34.996784","lng":"135.596973"},{"town":"東つつじケ丘曙台二丁目","lat":"34.995085","lng":"135.596962"},{"town":"東つつじケ丘曙台三丁目","lat":"34.994708","lng":"135.595394"},{"town":"東つつじケ丘曙台四丁目","lat":"34.992070","lng":"135.593938"},{"town":"東つつじケ丘都台一丁目","lat":"35.001280","lng":"135.596945"},{"town":"東つつじケ丘都台二丁目","lat":"34.998952","lng":"135.596443"},{"town":"東つつじケ丘都台三丁目","lat":"34.998199","lng":"135.597543"},{"town":"東別院町大野","lat":"34.962375","lng":"135.534605"},{"town":"東別院町栢原","lat":"34.928956","lng":"135.568689"},{"town":"東別院町鎌倉","lat":"34.925783","lng":"135.550910"},{"town":"東別院町神原","lat":"34.981937","lng":"135.561371"},{"town":"東別院町倉谷","lat":"34.931596","lng":"135.544914"},{"town":"東別院町小泉","lat":"34.966540","lng":"135.564448"},{"town":"東別院町東掛","lat":"34.954214","lng":"135.550147"},{"town":"東別院町南掛","lat":"34.941515","lng":"135.540963"},{"town":"東別院町湯谷","lat":"34.932584","lng":"135.530776"},{"town":"東本梅町赤熊","lat":"35.042267","lng":"135.462726"},{"town":"東本梅町大内","lat":"35.062501","lng":"135.487092"},{"town":"東本梅町中野","lat":"35.037049","lng":"135.459464"},{"town":"東本梅町東大谷","lat":"35.044728","lng":"135.459155"},{"town":"東本梅町松熊","lat":"35.051639","lng":"135.481729"},{"town":"保津町","lat":"35.035844","lng":"135.608949"},{"town":"本町","lat":"35.010672","lng":"135.579193"},{"town":"本梅町井手","lat":"35.011087","lng":"135.493259"},{"town":"本梅町中野","lat":"35.026777","lng":"135.479593"},{"town":"本梅町西加舎","lat":"35.007516","lng":"135.468439"},{"town":"本梅町東加舎","lat":"35.000128","lng":"135.487187"},{"town":"本梅町平松","lat":"35.016825","lng":"135.486208"},{"town":"南つつじケ丘大葉台一丁目","lat":"34.995906","lng":"135.590340"},{"town":"南つつじケ丘大葉台二丁目","lat":"34.992644","lng":"135.588934"},{"town":"南つつじケ丘桜台一丁目","lat":"34.987602","lng":"135.589083"},{"town":"南つつじケ丘桜台二丁目","lat":"34.990002","lng":"135.586591"},{"town":"南つつじケ丘桜台三丁目","lat":"34.986017","lng":"135.586117"},{"town":"南つつじケ丘桜台四丁目","lat":"34.983565","lng":"135.587085"},{"town":"南つつじケ丘桜台五丁目","lat":"34.986967","lng":"135.583903"},{"town":"三宅町","lat":"35.011183","lng":"135.591194"},{"town":"三宅町一丁目","lat":"35.006392","lng":"135.590910"},{"town":"三宅町二丁目","lat":"35.005493","lng":"135.588961"},{"town":"宮前町猪倉","lat":"35.032376","lng":"135.497230"},{"town":"宮前町神前","lat":"35.050104","lng":"135.507951"},{"town":"宮前町宮川","lat":"35.040561","lng":"135.482834"},{"town":"安町","lat":"35.013713","lng":"135.571535"},{"town":"矢田町","lat":"35.008685","lng":"135.580521"},{"town":"柳町","lat":"35.009747","lng":"135.578839"},{"town":"横町","lat":"35.010139","lng":"135.583291"},{"town":"吉川町穴川","lat":"35.018462","lng":"135.554237"},{"town":"吉川町吉田","lat":"35.018326","lng":"135.545779"},{"town":"篠町夕日ケ丘二丁目","lat":"34.997858","lng":"135.609524"}]