[{"town":"大明見五丁目","koaza":"","lat":"35.487726","lng":"138.818102"},{"town":"大明見四丁目","koaza":"","lat":"35.485248","lng":"138.816873"},{"town":"大明見三丁目","koaza":"","lat":"35.481330","lng":"138.815686"},{"town":"大明見二丁目","koaza":"","lat":"35.480393","lng":"138.819534"},{"town":"下吉田八丁目","koaza":"","lat":"35.493877","lng":"138.812074"},{"town":"下吉田七丁目","koaza":"","lat":"35.489247","lng":"138.810801"},{"town":"下吉田六丁目","koaza":"","lat":"35.484370","lng":"138.808221"},{"town":"下吉田東三丁目","koaza":"","lat":"35.493107","lng":"138.816494"},{"town":"下吉田東二丁目","koaza":"","lat":"35.489463","lng":"138.814799"},{"town":"下吉田東一丁目","koaza":"","lat":"35.480503","lng":"138.812742"},{"town":"下吉田五丁目","koaza":"","lat":"35.487158","lng":"138.803593"},{"town":"下吉田四丁目","koaza":"","lat":"35.489615","lng":"138.799219"},{"town":"下吉田三丁目","koaza":"","lat":"35.492315","lng":"138.802243"},{"town":"下吉田二丁目","koaza":"","lat":"35.490722","lng":"138.805591"},{"town":"中曽根四丁目","koaza":"","lat":"35.479595","lng":"138.807906"},{"town":"中曽根三丁目","koaza":"","lat":"35.481645","lng":"138.805262"},{"town":"中曽根二丁目","koaza":"","lat":"35.483280","lng":"138.802265"},{"town":"中曽根一丁目","koaza":"","lat":"35.484752","lng":"138.799789"},{"town":"上吉田","koaza":"","lat":"35.426397","lng":"138.753165"},{"town":"新屋","koaza":"","lat":"35.418964","lng":"138.802556"},{"town":"松山四丁目","koaza":"","lat":"35.485417","lng":"138.792234"},{"town":"松山一丁目","koaza":"","lat":"35.487649","lng":"138.797269"},{"town":"上吉田七丁目","koaza":"","lat":"35.474821","lng":"138.794418"},{"town":"上吉田五丁目","koaza":"","lat":"35.477523","lng":"138.795970"},{"town":"上吉田三丁目","koaza":"","lat":"35.479593","lng":"138.797955"},{"town":"上吉田四丁目","koaza":"","lat":"35.480103","lng":"138.794250"},{"town":"上吉田一丁目","koaza":"","lat":"35.481609","lng":"138.799612"},{"town":"上吉田二丁目","koaza":"","lat":"35.482683","lng":"138.795542"},{"town":"新西原一丁目","koaza":"","lat":"35.481772","lng":"138.790720"},{"town":"上吉田六丁目","koaza":"","lat":"35.477138","lng":"138.791941"},{"town":"新西原二丁目","koaza":"","lat":"35.479520","lng":"138.788577"},{"town":"新西原四丁目","koaza":"","lat":"35.483295","lng":"138.781065"},{"town":"新西原三丁目","koaza":"","lat":"35.483843","lng":"138.785946"},{"town":"松山五丁目","koaza":"","lat":"35.485783","lng":"138.788161"},{"town":"松山二丁目","koaza":"","lat":"35.486151","lng":"138.795894"},{"town":"松山三丁目","koaza":"","lat":"35.488184","lng":"138.793148"},{"town":"松山","koaza":"","lat":"35.468223","lng":"138.766796"},{"town":"新西原五丁目","koaza":"","lat":"35.486031","lng":"138.781237"},{"town":"ときわ台一丁目","koaza":"","lat":"35.488280","lng":"138.789636"},{"town":"ときわ台二丁目","koaza":"","lat":"35.488050","lng":"138.786037"},{"town":"緑ケ丘一丁目","koaza":"","lat":"35.492271","lng":"138.798590"},{"town":"竜ケ丘三丁目","koaza":"","lat":"35.490675","lng":"138.788490"},{"town":"竜ケ丘一丁目","koaza":"","lat":"35.491666","lng":"138.793230"},{"town":"緑ケ丘二丁目","koaza":"","lat":"35.492757","lng":"138.795630"},{"town":"旭一丁目","koaza":"","lat":"35.495458","lng":"138.793013"},{"town":"竜ケ丘二丁目","koaza":"","lat":"35.493052","lng":"138.789244"},{"town":"旭四丁目","koaza":"","lat":"35.499132","lng":"138.788212"},{"town":"旭三丁目","koaza":"","lat":"35.498454","lng":"138.791523"},{"town":"旭二丁目","koaza":"","lat":"35.496026","lng":"138.790072"},{"town":"旭五丁目","koaza":"","lat":"35.496489","lng":"138.787792"},{"town":"大明見","koaza":"","lat":"35.477311","lng":"138.840231"},{"town":"上暮地三丁目","koaza":"","lat":"35.513184","lng":"138.830509"},{"town":"上暮地四丁目","koaza":"","lat":"35.514485","lng":"138.828939"},{"town":"上暮地六丁目","koaza":"","lat":"35.518461","lng":"138.833007"},{"town":"上暮地八丁目","koaza":"","lat":"35.521114","lng":"138.827903"},{"town":"上暮地七丁目","koaza":"","lat":"35.518370","lng":"138.829486"},{"town":"上暮地二丁目","koaza":"","lat":"35.512306","lng":"138.832260"},{"town":"上暮地五丁目","koaza":"","lat":"35.517610","lng":"138.835291"},{"town":"大明見一丁目","koaza":"","lat":"35.484444","lng":"138.825962"},{"town":"上暮地","koaza":"","lat":"35.520134","lng":"138.811623"},{"town":"上暮地一丁目","koaza":"","lat":"35.508065","lng":"138.827476"},{"town":"下吉田東四丁目","koaza":"","lat":"35.498504","lng":"138.819543"},{"town":"富士見七丁目","koaza":"","lat":"35.505065","lng":"138.823407"},{"town":"富士見六丁目","koaza":"","lat":"35.503730","lng":"138.820127"},{"town":"下吉田一丁目","koaza":"","lat":"35.493989","lng":"138.806725"},{"town":"富士見五丁目","koaza":"","lat":"35.503023","lng":"138.816671"},{"town":"下吉田九丁目","koaza":"","lat":"35.497357","lng":"138.814017"},{"town":"富士見四丁目","koaza":"","lat":"35.501845","lng":"138.813608"},{"town":"富士見一丁目","koaza":"","lat":"35.497544","lng":"138.808109"},{"town":"新倉","koaza":"","lat":"35.502049","lng":"138.791530"},{"town":"下吉田","koaza":"","lat":"35.506523","lng":"138.808356"},{"town":"富士見二丁目","koaza":"","lat":"35.499528","lng":"138.808757"},{"town":"富士見三丁目","koaza":"","lat":"35.501138","lng":"138.810741"},{"town":"大明見六丁目","koaza":"","lat":"35.490471","lng":"138.818593"},{"town":"小明見一丁目","koaza":"","lat":"35.492917","lng":"138.820706"},{"town":"小明見二丁目","koaza":"","lat":"35.496420","lng":"138.823867"},{"town":"向原三丁目","koaza":"","lat":"35.492767","lng":"138.836942"},{"town":"向原二丁目","koaza":"","lat":"35.494295","lng":"138.839200"},{"town":"向原四丁目","koaza":"","lat":"35.493414","lng":"138.831298"},{"town":"向原一丁目","koaza":"","lat":"35.497640","lng":"138.831973"},{"town":"小明見三丁目","koaza":"","lat":"35.501140","lng":"138.826775"},{"town":"小明見","koaza":"","lat":"35.494086","lng":"138.847371"},{"town":"小明見四丁目","koaza":"","lat":"35.495326","lng":"138.826854"},{"town":"小明見五丁目","koaza":"","lat":"35.492390","lng":"138.828351"},{"town":"浅間一丁目","koaza":"","lat":"35.501902","lng":"138.795614"},{"town":"浅間二丁目","koaza":"","lat":"35.501315","lng":"138.798834"},{"town":"新町一丁目","koaza":"","lat":"35.495316","lng":"138.801075"},{"town":"新町二丁目","koaza":"","lat":"35.497272","lng":"138.801920"},{"town":"新町三丁目","koaza":"","lat":"35.498163","lng":"138.801144"},{"town":"新町四丁目","koaza":"","lat":"35.495524","lng":"138.796492"},{"town":"上吉田東一丁目","koaza":"","lat":"35.475943","lng":"138.799067"},{"town":"上吉田東五丁目","koaza":"","lat":"35.469143","lng":"138.803560"},{"town":"上吉田東三丁目","koaza":"","lat":"35.473045","lng":"138.801098"},{"town":"上吉田東四丁目","koaza":"","lat":"35.475543","lng":"138.806184"},{"town":"上吉田東二丁目","koaza":"","lat":"35.477685","lng":"138.803165"},{"town":"上吉田東九丁目","koaza":"","lat":"35.464209","lng":"138.810232"},{"town":"上吉田東七丁目","koaza":"","lat":"35.463524","lng":"138.805941"},{"town":"上吉田東八丁目","koaza":"","lat":"35.471993","lng":"138.812195"},{"town":"上吉田東六丁目","koaza":"","lat":"35.473798","lng":"138.809068"}]