[{"town":"相生一丁目","koaza":"","lat":35.657086,"lng":138.564392},{"town":"相生二丁目","koaza":"","lat":35.656546,"lng":138.568548},{"town":"相生三丁目","koaza":"","lat":35.653266,"lng":138.567641},{"town":"青沼一丁目","koaza":"","lat":35.654665,"lng":138.574619},{"town":"青沼二丁目","koaza":"","lat":35.65404,"lng":138.57772},{"town":"青沼三丁目","koaza":"","lat":35.651813,"lng":138.576132},{"town":"青葉町","koaza":"","lat":35.645627,"lng":138.583977},{"town":"朝気一丁目","koaza":"","lat":35.654022,"lng":138.582031},{"town":"朝気二丁目","koaza":"","lat":35.653463,"lng":138.586037},{"town":"朝気三丁目","koaza":"","lat":35.64955,"lng":138.581744},{"town":"朝日一丁目","koaza":"","lat":35.669849,"lng":138.566743},{"town":"朝日二丁目","koaza":"","lat":35.670092,"lng":138.564725},{"town":"朝日三丁目","koaza":"","lat":35.670748,"lng":138.562613},{"town":"朝日四丁目","koaza":"","lat":35.672909,"lng":138.568061},{"town":"朝日五丁目","koaza":"","lat":35.673368,"lng":138.566277},{"town":"愛宕町","koaza":"","lat":35.667449,"lng":138.577169},{"town":"荒川一丁目","koaza":"","lat":35.675009,"lng":138.540914},{"town":"荒川二丁目","koaza":"","lat":35.677012,"lng":138.536479},{"town":"飯田一丁目","koaza":"","lat":35.668689,"lng":138.55808},{"town":"飯田二丁目","koaza":"","lat":35.668918,"lng":138.551999},{"town":"飯田三丁目","koaza":"","lat":35.665162,"lng":138.558056},{"town":"飯田四丁目","koaza":"","lat":35.666374,"lng":138.554035},{"town":"飯田五丁目","koaza":"","lat":35.663294,"lng":138.554842},{"town":"猪狩町","koaza":"","lat":35.752903,"lng":138.5593},{"town":"池田一丁目","koaza":"","lat":35.67191,"lng":138.544693},{"town":"池田二丁目","koaza":"","lat":35.671493,"lng":138.539671},{"town":"池田三丁目","koaza":"","lat":35.671572,"lng":138.535485},{"town":"伊勢一丁目","koaza":"","lat":35.650378,"lng":138.567779},{"town":"伊勢二丁目","koaza":"","lat":35.646511,"lng":138.567574},{"town":"伊勢三丁目","koaza":"","lat":35.643445,"lng":138.567247},{"town":"伊勢四丁目","koaza":"","lat":35.63939,"lng":138.566298},{"town":"岩窪町","koaza":"","lat":35.683204,"lng":138.587149},{"town":"後屋町","koaza":"","lat":35.628704,"lng":138.563038},{"town":"右左口町","koaza":"","lat":35.56487,"lng":138.589406},{"town":"大里町","koaza":"","lat":35.621109,"lng":138.564265},{"town":"太田町","koaza":"","lat":35.651044,"lng":138.57141},{"town":"大津町","koaza":"","lat":35.602055,"lng":138.56389},{"town":"大手一丁目","koaza":"","lat":35.680929,"lng":138.575719},{"town":"大手二丁目","koaza":"","lat":35.679738,"lng":138.577666},{"town":"大手三丁目","koaza":"","lat":35.684284,"lng":138.578295},{"town":"落合町","koaza":"","lat":35.613786,"lng":138.589643},{"town":"音羽町","koaza":"","lat":35.677803,"lng":138.541975},{"town":"小曲町","koaza":"","lat":35.606586,"lng":138.583725},{"town":"梯町","koaza":"","lat":35.536097,"lng":138.596545},{"town":"金竹町","koaza":"","lat":35.667649,"lng":138.537807},{"town":"上阿原町","koaza":"","lat":35.646391,"lng":138.606728},{"town":"上石田一丁目","koaza":"","lat":35.657799,"lng":138.552319},{"town":"上石田二丁目","koaza":"","lat":35.656065,"lng":138.55736},{"town":"上石田三丁目","koaza":"","lat":35.652651,"lng":138.555805},{"town":"上石田四丁目","koaza":"","lat":35.649782,"lng":138.554962},{"town":"上今井町","koaza":"","lat":35.621049,"lng":138.576221},{"town":"上帯那町","koaza":"","lat":35.751774,"lng":138.590571},{"town":"上小河原町","koaza":"","lat":35.631872,"lng":138.565584},{"town":"上条新居町","koaza":"","lat":35.62977,"lng":138.553701},{"town":"上積翠寺町","koaza":"","lat":35.708557,"lng":138.60121},{"town":"上曽根町","koaza":"","lat":35.601566,"lng":138.594879},{"town":"上町","koaza":"","lat":35.63091,"lng":138.586194},{"town":"上向山町","koaza":"","lat":35.582175,"lng":138.588924},{"town":"川窪町","koaza":"","lat":35.760036,"lng":138.579194},{"town":"川田町","koaza":"","lat":35.652814,"lng":138.629433},{"town":"北口一丁目","koaza":"","lat":35.669573,"lng":138.568635},{"town":"北口二丁目","koaza":"","lat":35.668875,"lng":138.570826},{"town":"北口三丁目","koaza":"","lat":35.668955,"lng":138.572979},{"town":"北新一丁目","koaza":"","lat":35.679872,"lng":138.566911},{"town":"北新二丁目","koaza":"","lat":35.681812,"lng":138.565256},{"town":"貢川一丁目","koaza":"","lat":35.660039,"lng":138.539496},{"town":"貢川二丁目","koaza":"","lat":35.660792,"lng":138.5349},{"town":"貢川本町","koaza":"","lat":35.654516,"lng":138.549876},{"town":"国玉町","koaza":"","lat":35.65045,"lng":138.600346},{"town":"黒平町","koaza":"","lat":35.83179,"lng":138.609457},{"town":"国母一丁目","koaza":"","lat":35.645752,"lng":138.558772},{"town":"国母二丁目","koaza":"","lat":35.642212,"lng":138.56055},{"town":"国母三丁目","koaza":"","lat":35.642985,"lng":138.554823},{"town":"国母四丁目","koaza":"","lat":35.638011,"lng":138.559775},{"town":"国母五丁目","koaza":"","lat":35.640194,"lng":138.552184},{"town":"国母六丁目","koaza":"","lat":35.63635,"lng":138.557148},{"town":"国母七丁目","koaza":"","lat":35.638132,"lng":138.549457},{"town":"国母八丁目","koaza":"","lat":35.633959,"lng":138.553357},{"town":"小瀬町","koaza":"","lat":35.625646,"lng":138.586941},{"town":"寿町","koaza":"","lat":35.657996,"lng":138.560027},{"town":"古府中町","koaza":"","lat":35.688647,"lng":138.576582},{"town":"小松町","koaza":"","lat":35.68951,"lng":138.567323},{"town":"幸町","koaza":"","lat":35.646081,"lng":138.571844},{"town":"酒折一丁目","koaza":"","lat":35.656829,"lng":138.597428},{"town":"酒折二丁目","koaza":"","lat":35.657234,"lng":138.602385},{"town":"酒折三丁目","koaza":"","lat":35.660872,"lng":138.598529},{"town":"酒折町","koaza":"","lat":35.663855,"lng":138.601347},{"town":"桜井町","koaza":"","lat":35.666089,"lng":138.620053},{"town":"里吉一丁目","koaza":"","lat":35.65172,"lng":138.588348},{"town":"里吉二丁目","koaza":"","lat":35.650828,"lng":138.592495},{"town":"里吉三丁目","koaza":"","lat":35.648039,"lng":138.58624},{"town":"里吉四丁目","koaza":"","lat":35.646829,"lng":138.590982},{"town":"里吉町","koaza":"","lat":35.650605,"lng":138.595608},{"town":"塩部一丁目","koaza":"","lat":35.672825,"lng":138.560655},{"town":"塩部二丁目","koaza":"","lat":35.670987,"lng":138.55642},{"town":"塩部三丁目","koaza":"","lat":35.674541,"lng":138.557952},{"town":"塩部四丁目","koaza":"","lat":35.675347,"lng":138.554628},{"town":"下飯田一丁目","koaza":"","lat":35.667425,"lng":138.546012},{"town":"下飯田二丁目","koaza":"","lat":35.664498,"lng":138.547218},{"town":"下飯田三丁目","koaza":"","lat":35.660949,"lng":138.552532},{"town":"下飯田四丁目","koaza":"","lat":35.661549,"lng":138.547132},{"town":"下石田二丁目","koaza":"","lat":35.647325,"lng":138.552602},{"town":"下今井町","koaza":"","lat":35.610082,"lng":138.579947},{"town":"下帯那町","koaza":"","lat":35.710361,"lng":138.559659},{"town":"下鍛冶屋町","koaza":"","lat":35.619656,"lng":138.587227},{"town":"下河原町","koaza":"","lat":35.664755,"lng":138.532779},{"town":"下小河原町","koaza":"","lat":35.632223,"lng":138.578062},{"town":"下積翠寺町","koaza":"","lat":35.696599,"lng":138.583836},{"town":"下曽根町","koaza":"","lat":35.593947,"lng":138.572635},{"town":"下向山町","koaza":"","lat":35.585614,"lng":138.576725},{"town":"白井町","koaza":"","lat":35.609753,"lng":138.604383},{"town":"心経寺町","koaza":"","lat":35.570986,"lng":138.608364},{"town":"新田町","koaza":"","lat":35.663278,"lng":138.540088},{"town":"城東一丁目","koaza":"","lat":35.660891,"lng":138.579852},{"town":"城東二丁目","koaza":"","lat":35.657664,"lng":138.578586},{"town":"城東三丁目","koaza":"","lat":35.659744,"lng":138.584683},{"town":"城東四丁目","koaza":"","lat":35.657876,"lng":138.583537},{"town":"城東五丁目","koaza":"","lat":35.658823,"lng":138.588342},{"town":"砂田町","koaza":"","lat":35.654598,"lng":138.591722},{"town":"住吉一丁目","koaza":"","lat":35.640384,"lng":138.572131},{"town":"住吉二丁目","koaza":"","lat":35.637599,"lng":138.567615},{"town":"住吉三丁目","koaza":"","lat":35.64103,"lng":138.581369},{"town":"住吉四丁目","koaza":"","lat":35.638798,"lng":138.581475},{"town":"住吉五丁目","koaza":"","lat":35.636858,"lng":138.577975},{"town":"住吉本町","koaza":"","lat":35.638732,"lng":138.590704},{"town":"善光寺一丁目","koaza":"","lat":35.658256,"lng":138.592661},{"town":"善光寺二丁目","koaza":"","lat":35.664153,"lng":138.591338},{"town":"善光寺三丁目","koaza":"","lat":35.663964,"lng":138.594021},{"town":"善光寺町","koaza":"","lat":35.680481,"lng":138.598934},{"town":"草鹿沢町","koaza":"","lat":35.774654,"lng":138.547281},{"town":"高成町","koaza":"","lat":35.748902,"lng":138.576876},{"town":"高畑一丁目","koaza":"","lat":35.651773,"lng":138.563177},{"town":"高畑二丁目","koaza":"","lat":35.648691,"lng":138.560587},{"town":"高畑三丁目","koaza":"","lat":35.644415,"lng":138.564168},{"town":"高町","koaza":"","lat":35.767291,"lng":138.572879},{"town":"高室町","koaza":"","lat":35.610728,"lng":138.556216},{"town":"宝一丁目","koaza":"","lat":35.666083,"lng":138.562255},{"town":"宝二丁目","koaza":"","lat":35.661475,"lng":138.560887},{"town":"武田一丁目","koaza":"","lat":35.67233,"lng":138.569777},{"town":"武田二丁目","koaza":"","lat":35.671852,"lng":138.571868},{"town":"武田三丁目","koaza":"","lat":35.675086,"lng":138.571923},{"town":"武田四丁目","koaza":"","lat":35.67803,"lng":138.573061},{"town":"竹日向町","koaza":"","lat":35.737747,"lng":138.579986},{"town":"大和町","koaza":"","lat":35.679611,"lng":138.554889},{"town":"千塚一丁目","koaza":"","lat":35.679549,"lng":138.543401},{"town":"千塚二丁目","koaza":"","lat":35.679424,"lng":138.538436},{"town":"千塚三丁目","koaza":"","lat":35.683265,"lng":138.542208},{"town":"千塚四丁目","koaza":"","lat":35.684597,"lng":138.535981},{"town":"千塚五丁目","koaza":"","lat":35.686343,"lng":138.539388},{"town":"中央一丁目","koaza":"","lat":35.6598,"lng":138.569071},{"town":"中央二丁目","koaza":"","lat":35.663389,"lng":138.573561},{"town":"中央三丁目","koaza":"","lat":35.662312,"lng":138.576615},{"town":"中央四丁目","koaza":"","lat":35.658726,"lng":138.572412},{"town":"中央五丁目","koaza":"","lat":35.658235,"lng":138.575415},{"town":"長松寺町","koaza":"","lat":35.666637,"lng":138.540914},{"town":"塚原町","koaza":"","lat":35.698642,"lng":138.571298},{"town":"天神町","koaza":"","lat":35.677354,"lng":138.568279},{"town":"塔岩町","koaza":"","lat":35.732598,"lng":138.573281},{"town":"東光寺一丁目","koaza":"","lat":35.662521,"lng":138.58255},{"town":"東光寺二丁目","koaza":"","lat":35.664374,"lng":138.586645},{"town":"東光寺三丁目","koaza":"","lat":35.667022,"lng":138.588837},{"town":"東光寺町","koaza":"","lat":35.669877,"lng":138.587118},{"town":"徳行一丁目","koaza":"","lat":35.653882,"lng":138.543796},{"town":"徳行二丁目","koaza":"","lat":35.650516,"lng":138.547821},{"town":"徳行三丁目","koaza":"","lat":35.648452,"lng":138.540977},{"town":"徳行四丁目","koaza":"","lat":35.65031,"lng":138.537642},{"town":"徳行五丁目","koaza":"","lat":35.652736,"lng":138.53614},{"town":"富竹一丁目","koaza":"","lat":35.657423,"lng":138.547164},{"town":"富竹二丁目","koaza":"","lat":35.65873,"lng":138.544238},{"town":"富竹三丁目","koaza":"","lat":35.656549,"lng":138.541471},{"town":"富竹四丁目","koaza":"","lat":35.655491,"lng":138.538847},{"town":"中小河原一丁目","koaza":"","lat":35.635193,"lng":138.571133},{"town":"中小河原町","koaza":"","lat":35.63048,"lng":138.572884},{"town":"中町","koaza":"","lat":35.617118,"lng":138.572147},{"town":"中畑町","koaza":"","lat":35.565431,"lng":138.60498},{"town":"中村町","koaza":"","lat":35.666161,"lng":138.535214},{"town":"七沢町","koaza":"","lat":35.639631,"lng":138.60423},{"town":"西油川町","koaza":"","lat":35.623107,"lng":138.595896},{"town":"西下条町","koaza":"","lat":35.606275,"lng":138.572213},{"town":"西高橋町","koaza":"","lat":35.639131,"lng":138.597136},{"town":"西田町","koaza":"","lat":35.685634,"lng":138.568342},{"town":"羽黒町","koaza":"","lat":35.693761,"lng":138.546751},{"town":"東下条町","koaza":"","lat":35.61168,"lng":138.574143},{"town":"平瀬町","koaza":"","lat":35.71311,"lng":138.543932},{"town":"富士見一丁目","koaza":"","lat":35.673116,"lng":138.55054},{"town":"富士見二丁目","koaza":"","lat":35.674177,"lng":138.54679},{"town":"古上条町","koaza":"","lat":35.629602,"lng":138.558058},{"town":"古関町","koaza":"","lat":35.5253,"lng":138.620758},{"town":"堀之内町","koaza":"","lat":35.611678,"lng":138.562063},{"town":"増坪町","koaza":"","lat":35.634275,"lng":138.592533},{"town":"丸の内一丁目","koaza":"","lat":35.664953,"lng":138.570319},{"town":"丸の内二丁目","koaza":"","lat":35.664866,"lng":138.565909},{"town":"丸の内三丁目","koaza":"","lat":35.660359,"lng":138.564884},{"town":"美咲一丁目","koaza":"","lat":35.673988,"lng":138.563674},{"town":"美咲二丁目","koaza":"","lat":35.677261,"lng":138.564624},{"town":"御岳町","koaza":"","lat":35.779728,"lng":138.566723},{"town":"緑が丘一丁目","koaza":"","lat":35.677895,"lng":138.560048},{"town":"緑が丘二丁目","koaza":"","lat":35.682421,"lng":138.55869},{"town":"南口町","koaza":"","lat":35.644218,"lng":138.578255},{"town":"宮原町","koaza":"","lat":35.617563,"lng":138.555837},{"town":"宮前町","koaza":"","lat":35.674229,"lng":138.575493},{"town":"向町","koaza":"","lat":35.64694,"lng":138.616091},{"town":"元紺屋町","koaza":"","lat":35.672436,"lng":138.578041},{"town":"屋形一丁目","koaza":"","lat":35.682174,"lng":138.570738},{"town":"屋形二丁目","koaza":"","lat":35.68196,"lng":138.573795},{"town":"屋形三丁目","koaza":"","lat":35.685236,"lng":138.573456},{"town":"山宮町","koaza":"","lat":35.694989,"lng":138.53351},{"town":"湯田一丁目","koaza":"","lat":35.649198,"lng":138.576193},{"town":"湯田二丁目","koaza":"","lat":35.645449,"lng":138.575713},{"town":"湯村一丁目","koaza":"","lat":35.677393,"lng":138.551351},{"town":"湯村二丁目","koaza":"","lat":35.678562,"lng":138.547761},{"town":"湯村三丁目","koaza":"","lat":35.688701,"lng":138.550292},{"town":"横根町","koaza":"","lat":35.670838,"lng":138.608514},{"town":"蓬沢一丁目","koaza":"","lat":35.64285,"lng":138.590468},{"town":"蓬沢町","koaza":"","lat":35.64237,"lng":138.595277},{"town":"若松町","koaza":"","lat":35.655076,"lng":138.571775},{"town":"和田町","koaza":"","lat":35.692084,"lng":138.558753},{"town":"和戸町","koaza":"","lat":35.652015,"lng":138.615404},{"town":"和戸町","koaza":"藤塚","lat":35.653234,"lng":138.615633}]