[{"town":"峯","koaza":"","lat":33.508592,"lng":133.205127},{"town":"鎌井田桑藪","koaza":"","lat":33.60111,"lng":133.250751},{"town":"浅尾","koaza":"","lat":33.565255,"lng":133.248594},{"town":"今成","koaza":"","lat":33.538813,"lng":133.250712},{"town":"大平","koaza":"","lat":33.521781,"lng":133.17947},{"town":"越知","koaza":"","lat":33.531046,"lng":133.249807},{"town":"越知","koaza":"丙","lat":33.533381,"lng":133.242264},{"town":"越知","koaza":"甲","lat":33.530418,"lng":133.254405},{"town":"越知丁","koaza":"","lat":33.538032,"lng":133.20445},{"town":"片岡","koaza":"","lat":33.590238,"lng":133.275633},{"town":"鎌井田清助","koaza":"","lat":33.596565,"lng":133.22649},{"town":"鎌井田日ノ浦","koaza":"","lat":33.580343,"lng":133.232166},{"town":"鎌井田本村","koaza":"","lat":33.578427,"lng":133.251941},{"town":"桐見川","koaza":"","lat":33.511498,"lng":133.161143},{"town":"黒瀬","koaza":"","lat":33.578145,"lng":133.294696},{"town":"五味","koaza":"","lat":33.528036,"lng":133.219781},{"town":"佐之国","koaza":"","lat":33.49035,"lng":133.19164},{"town":"柴尾","koaza":"","lat":33.542912,"lng":133.260637},{"town":"長者","koaza":"","lat":33.491355,"lng":133.150513},{"town":"野老山","koaza":"","lat":33.556645,"lng":133.199585},{"town":"中大平","koaza":"","lat":33.522596,"lng":133.200755},{"town":"南片岡","koaza":"","lat":33.562892,"lng":133.286409},{"town":"南ノ川","koaza":"","lat":33.481288,"lng":133.17559},{"town":"宮地","koaza":"","lat":33.553314,"lng":133.258729},{"town":"山室","koaza":"","lat":33.511189,"lng":133.241785},{"town":"横畠北","koaza":"","lat":33.575715,"lng":133.221815},{"town":"横畠中","koaza":"","lat":33.563699,"lng":133.230203},{"town":"横畠東","koaza":"","lat":33.556337,"lng":133.243983},{"town":"横畠南","koaza":"","lat":33.548926,"lng":133.235285}]