[{"town":"大字落合","lat":"33.489634","lng":"130.862296"},{"town":"大字庄","lat":"33.572631","lng":"130.8451"},{"town":"大字添田","lat":"33.561985","lng":"130.868137"},{"town":"大字中元寺","lat":"33.528365","lng":"130.840741"},{"town":"大字津野","lat":"33.534824","lng":"130.907415"},{"town":"大字野田","lat":"33.551656","lng":"130.86269"},{"town":"大字英彦山","lat":"33.475905","lng":"130.907053"},{"town":"大字桝田","lat":"33.521138","lng":"130.876404"}]