[{"town":"大字赤地","lat":"33.728356","lng":"130.728331"},{"town":"大字植木","lat":"33.779172","lng":"130.707618"},{"town":"大字永満寺","lat":"33.734551","lng":"130.773632"},{"town":"大字上境","lat":"33.730633","lng":"130.757183"},{"town":"大字上新入","lat":"33.748776","lng":"130.704176"},{"town":"大字上頓野","lat":"33.76959","lng":"130.779623"},{"town":"大字感田","lat":"33.764472","lng":"130.737746"},{"town":"大字下境","lat":"33.729828","lng":"130.742529"},{"town":"大字下新入","lat":"33.761219","lng":"130.699456"},{"town":"大字知古","lat":"33.759305","lng":"130.72788"},{"town":"大字頓野","lat":"33.752084","lng":"130.766981"},{"town":"大字中泉","lat":"33.712862","lng":"130.737788"},{"town":"大字直方","lat":"33.740356","lng":"130.724868"},{"town":"大字畑","lat":"33.74601","lng":"130.77397"},{"town":"大字山部","lat":"33.743612","lng":"130.720643"},{"town":"神正町","lat":"33.753709","lng":"130.724433"},{"town":"新知町","lat":"33.757675","lng":"130.720944"},{"town":"新町一丁目","lat":"33.740801","lng":"130.72876"},{"town":"新町二丁目","lat":"33.738344","lng":"130.727701"},{"town":"新町三丁目","lat":"33.736286","lng":"130.726312"},{"town":"須崎町","lat":"33.750839","lng":"130.725791"},{"town":"知古一丁目","lat":"33.754417","lng":"130.726413"},{"town":"知古二丁目","lat":"33.757971","lng":"130.724237"},{"town":"知古三丁目","lat":"33.759506","lng":"130.723391"},{"town":"津田町","lat":"33.747921","lng":"130.730523"},{"town":"殿町","lat":"33.74417","lng":"130.729409"},{"town":"日吉町","lat":"33.752013","lng":"130.729077"},{"town":"古町","lat":"33.7473","lng":"130.727153"},{"town":"丸山町","lat":"33.733421","lng":"130.725186"},{"town":"溝堀一丁目","lat":"33.738624","lng":"130.730737"},{"town":"溝堀二丁目","lat":"33.733393","lng":"130.729082"},{"town":"溝堀三丁目","lat":"33.733738","lng":"130.731078"},{"town":"湯野原一丁目","lat":"33.767585","lng":"130.747108"},{"town":"湯野原二丁目","lat":"33.76895","lng":"130.750289"}]