[{"town":"大字和泉","lat":"33.207351","lng":"130.494048"},{"town":"大字一条","lat":"33.247149","lng":"130.510214"},{"town":"大字江口","lat":"33.217876","lng":"130.466255"},{"town":"大字尾島","lat":"33.186853","lng":"130.501876"},{"town":"大字折地","lat":"33.194048","lng":"130.466099"},{"town":"大字上北島","lat":"33.198307","lng":"130.492805"},{"town":"大字北長田","lat":"33.184594","lng":"130.511972"},{"town":"大字久恵","lat":"33.193714","lng":"130.5222"},{"town":"大字熊野","lat":"33.22792","lng":"130.496465"},{"town":"大字蔵数","lat":"33.23556","lng":"130.49819"},{"town":"大字古島","lat":"33.197195","lng":"130.470993"},{"town":"大字四ケ所","lat":"33.210382","lng":"130.461736"},{"town":"大字島田","lat":"33.203604","lng":"130.472219"},{"town":"大字志","lat":"33.187554","lng":"130.497465"},{"town":"大字下北島","lat":"33.199076","lng":"130.481184"},{"town":"大字下妻","lat":"33.177035","lng":"130.469705"},{"town":"大字庄島","lat":"33.207434","lng":"130.479121"},{"town":"大字新溝","lat":"33.196123","lng":"130.516176"},{"town":"大字井田","lat":"33.199326","lng":"130.458577"},{"town":"大字高江","lat":"33.221441","lng":"130.479003"},{"town":"大字津島","lat":"33.179881","lng":"130.494545"},{"town":"大字常用","lat":"33.187462","lng":"130.486522"},{"town":"大字鶴田","lat":"33.19285","lng":"130.507483"},{"town":"大字徳久","lat":"33.214242","lng":"130.505328"},{"town":"大字富重","lat":"33.218807","lng":"130.473025"},{"town":"大字富久","lat":"33.210873","lng":"130.46926"},{"town":"大字富安","lat":"33.175146","lng":"130.457046"},{"town":"大字中折地","lat":"33.186959","lng":"130.475104"},{"town":"大字長崎","lat":"33.20685","lng":"130.484846"},{"town":"大字長浜","lat":"33.207065","lng":"130.513948"},{"town":"大字中牟田","lat":"33.187514","lng":"130.465196"},{"town":"大字西牟田","lat":"33.234732","lng":"130.480757"},{"town":"大字野町","lat":"33.199072","lng":"130.500688"},{"town":"大字羽犬塚","lat":"33.216798","lng":"130.500235"},{"town":"大字久富","lat":"33.223065","lng":"130.488561"},{"town":"大字前津","lat":"33.226082","lng":"130.513796"},{"town":"大字馬間田","lat":"33.180941","lng":"130.463232"},{"town":"大字水田","lat":"33.194745","lng":"130.482972"},{"town":"大字溝口","lat":"33.187019","lng":"130.525321"},{"town":"大字山ノ井","lat":"33.20815","lng":"130.502226"},{"town":"大字若菜","lat":"33.212811","lng":"130.482628"}]