[{"town":"字州崎","koaza":"","lat":26.336232,"lng":127.854274},{"town":"字宇堅","koaza":"","lat":26.381598,"lng":127.870679},{"town":"字赤野","koaza":"","lat":26.374309,"lng":127.865531},{"town":"字具志川","koaza":"","lat":26.354983,"lng":127.87205},{"town":"字仲嶺","koaza":"","lat":26.358409,"lng":127.852638},{"town":"字川田","koaza":"","lat":26.346502,"lng":127.866224},{"town":"字塩屋","koaza":"","lat":26.347637,"lng":127.859282},{"town":"字赤道","koaza":"","lat":26.358509,"lng":127.828268},{"town":"字宮里","koaza":"","lat":26.3518,"lng":127.834942},{"town":"字高江洲","koaza":"","lat":26.352846,"lng":127.841399},{"town":"字豊原","koaza":"","lat":26.34738,"lng":127.852351},{"town":"字喜屋武","koaza":"","lat":26.360368,"lng":127.848096},{"town":"字上江洲","koaza":"","lat":26.35818,"lng":127.857916},{"town":"字大田","koaza":"","lat":26.353503,"lng":127.865781},{"town":"字兼箇段","koaza":"","lat":26.370189,"lng":127.837828},{"town":"字川崎","koaza":"","lat":26.383322,"lng":127.842151},{"town":"字天願","koaza":"","lat":26.390102,"lng":127.858842},{"town":"字昆布","koaza":"","lat":26.395932,"lng":127.846062},{"town":"字栄野比","koaza":"","lat":26.392716,"lng":127.832209},{"town":"字安慶名","koaza":"","lat":26.381987,"lng":127.851705},{"town":"字平良川","koaza":"","lat":26.367828,"lng":127.849706},{"town":"字西原","koaza":"","lat":26.375257,"lng":127.843901},{"town":"字田場","koaza":"","lat":26.36824,"lng":127.864218},{"town":"字前原","koaza":"","lat":26.341061,"lng":127.849133},{"town":"字江洲","koaza":"","lat":26.347405,"lng":127.832255},{"town":"字前原","koaza":"幸崎原","lat":26.337858,"lng":127.844785},{"town":"安慶名一丁目","koaza":"","lat":26.373448,"lng":127.854435},{"town":"安慶名二丁目","koaza":"","lat":26.377266,"lng":127.850568},{"town":"安慶名三丁目","koaza":"","lat":26.373332,"lng":127.85079},{"town":"石川","koaza":"","lat":26.434546,"lng":127.822079},{"town":"石川一丁目","koaza":"","lat":26.430656,"lng":127.825987},{"town":"石川二丁目","koaza":"","lat":26.42766,"lng":127.823742},{"town":"石川赤崎一丁目","koaza":"","lat":26.431014,"lng":127.835268},{"town":"石川赤崎二丁目","koaza":"","lat":26.433633,"lng":127.837202},{"town":"石川赤崎三丁目","koaza":"","lat":26.429392,"lng":127.840248},{"town":"石川東山一丁目","koaza":"","lat":26.436983,"lng":127.836407},{"town":"石川東山二丁目","koaza":"","lat":26.437237,"lng":127.838926},{"town":"石川東山本町一丁目","koaza":"","lat":26.435839,"lng":127.830947},{"town":"石川東山本町二丁目","koaza":"","lat":26.436457,"lng":127.833715},{"town":"石川曙一丁目","koaza":"","lat":26.419623,"lng":127.828403},{"town":"石川曙二丁目","koaza":"","lat":26.418189,"lng":127.827059},{"town":"石川曙三丁目","koaza":"","lat":26.417451,"lng":127.824532},{"town":"石川石崎一丁目","koaza":"","lat":26.426156,"lng":127.829321},{"town":"石川石崎二丁目","koaza":"","lat":26.429772,"lng":127.830569},{"town":"石川伊波","koaza":"","lat":26.425597,"lng":127.811208},{"town":"石川嘉手苅","koaza":"","lat":26.422076,"lng":127.807505},{"town":"石川白浜一丁目","koaza":"","lat":26.429433,"lng":127.828765},{"town":"石川白浜二丁目","koaza":"","lat":26.424904,"lng":127.826206},{"town":"石川楚南","koaza":"","lat":26.400536,"lng":127.812352},{"town":"石川東恩納","koaza":"","lat":26.407634,"lng":127.830574},{"town":"石川東恩納崎","koaza":"","lat":26.416703,"lng":127.837423},{"town":"石川山城","koaza":"","lat":26.412997,"lng":127.80416},{"town":"勝連内間","koaza":"","lat":26.314422,"lng":127.900807},{"town":"勝連津堅","koaza":"","lat":26.252115,"lng":127.942203},{"town":"勝連南風原","koaza":"","lat":26.332998,"lng":127.877681},{"town":"勝連浜","koaza":"","lat":26.320984,"lng":127.953648},{"town":"勝連比嘉","koaza":"","lat":26.318333,"lng":127.959749},{"town":"勝連平敷屋","koaza":"","lat":26.304394,"lng":127.912465},{"town":"勝連平安名","koaza":"","lat":26.316901,"lng":127.892694},{"town":"喜仲一丁目","koaza":"","lat":26.358956,"lng":127.84401},{"town":"喜仲二丁目","koaza":"","lat":26.356447,"lng":127.843497},{"town":"喜仲三丁目","koaza":"","lat":26.355028,"lng":127.845783},{"town":"喜仲四丁目","koaza":"","lat":26.353566,"lng":127.848432},{"town":"みどり町一丁目","koaza":"","lat":26.380437,"lng":127.858763},{"town":"みどり町二丁目","koaza":"","lat":26.379224,"lng":127.862199},{"town":"みどり町三丁目","koaza":"","lat":26.375507,"lng":127.859198},{"town":"みどり町四丁目","koaza":"","lat":26.3766,"lng":127.856367},{"town":"みどり町五丁目","koaza":"","lat":26.378283,"lng":127.853469},{"town":"みどり町六丁目","koaza":"","lat":26.381365,"lng":127.854941},{"town":"与那城","koaza":"","lat":26.328382,"lng":127.894635},{"town":"与那城安勢理","koaza":"","lat":26.315775,"lng":127.905527},{"town":"与那城伊計","koaza":"","lat":26.391472,"lng":127.995315},{"town":"与那城池味","koaza":"","lat":26.378646,"lng":127.986301},{"town":"与那城上原","koaza":"","lat":26.370738,"lng":127.977716},{"town":"与那城中央","koaza":"","lat":26.3292,"lng":127.90566},{"town":"与那城照間","koaza":"","lat":26.338803,"lng":127.886642},{"town":"与那城桃原","koaza":"","lat":26.358455,"lng":127.976222},{"town":"与那城西原","koaza":"","lat":26.330432,"lng":127.886667},{"town":"与那城饒辺","koaza":"","lat":26.314093,"lng":127.913397},{"town":"与那城平宮","koaza":"","lat":26.353754,"lng":127.966947},{"town":"与那城平安座","koaza":"","lat":26.349798,"lng":127.95429},{"town":"与那城宮城","koaza":"","lat":26.367086,"lng":127.989363},{"town":"与那城屋慶名","koaza":"","lat":26.324285,"lng":127.905662},{"town":"与那城屋平","koaza":"","lat":26.331746,"lng":127.929245}]