[{"town":"字屋宜原","koaza":"","lat":26.31292,"lng":127.789516,"zip":"9012300"},{"town":"字比嘉","koaza":"","lat":26.314296,"lng":127.7971,"zip":"9012300"},{"town":"字美崎","koaza":"","lat":26.30471,"lng":127.821937,"zip":"9012300"},{"town":"字渡口","koaza":"","lat":26.307454,"lng":127.805036,"zip":"9012300"},{"town":"字和仁屋","koaza":"","lat":26.299593,"lng":127.806309,"zip":"9012300"},{"town":"字仲順","koaza":"","lat":26.304351,"lng":127.799565,"zip":"9012300"},{"town":"字喜舎場","koaza":"","lat":26.303253,"lng":127.792088,"zip":"9012300"},{"town":"字島袋","koaza":"","lat":26.319991,"lng":127.801114,"zip":"9012300"},{"town":"字熱田","koaza":"","lat":26.292314,"lng":127.807247,"zip":"9012300"},{"town":"字大城","koaza":"","lat":26.290114,"lng":127.800121,"zip":"9012300"},{"town":"字荻道","koaza":"","lat":26.292846,"lng":127.79694,"zip":"9012300"},{"town":"字瑞慶覧","koaza":"","lat":26.306015,"lng":127.781073,"zip":"9012300"},{"town":"字安谷屋","koaza":"","lat":26.296118,"lng":127.787601,"zip":"9012300"}]