[{"town":"字屋宜原","koaza":"","lat":"26.312920","lng":"127.789516"},{"town":"字比嘉","koaza":"","lat":"26.314296","lng":"127.797100"},{"town":"字美崎","koaza":"","lat":"26.304710","lng":"127.821937"},{"town":"字渡口","koaza":"","lat":"26.307454","lng":"127.805036"},{"town":"字和仁屋","koaza":"","lat":"26.299593","lng":"127.806309"},{"town":"字仲順","koaza":"","lat":"26.304351","lng":"127.799565"},{"town":"字喜舎場","koaza":"","lat":"26.303253","lng":"127.792088"},{"town":"字島袋","koaza":"","lat":"26.319991","lng":"127.801114"},{"town":"字熱田","koaza":"","lat":"26.292314","lng":"127.807247"},{"town":"字大城","koaza":"","lat":"26.290114","lng":"127.800121"},{"town":"字荻道","koaza":"","lat":"26.292846","lng":"127.796940"},{"town":"字瑞慶覧","koaza":"","lat":"26.306015","lng":"127.781073"},{"town":"字安谷屋","koaza":"","lat":"26.296118","lng":"127.787601"}]