[{"town":"字黒島","koaza":"","lat":24.237087,"lng":124.011919,"zip":"9070000"},{"town":"字小浜","koaza":"","lat":24.339076,"lng":123.980159,"zip":"9070000"},{"town":"字南風見","koaza":"","lat":24.282777,"lng":123.845756,"zip":"9070000"},{"town":"字南風見仲","koaza":"","lat":24.288198,"lng":123.887955,"zip":"9070000"},{"town":"字古見","koaza":"","lat":24.322048,"lng":123.878137,"zip":"9070000"},{"town":"字西表","koaza":"","lat":24.344406,"lng":123.782476,"zip":"9070000"},{"town":"字高那","koaza":"","lat":24.372131,"lng":123.88956,"zip":"9070000"},{"town":"字上原","koaza":"","lat":24.375079,"lng":123.825219,"zip":"9070000"},{"town":"字波照間","koaza":"","lat":24.058586,"lng":123.782432,"zip":"9070000"},{"town":"字新城","koaza":"","lat":24.234027,"lng":123.944947,"zip":"9070000"},{"town":"字崎山","koaza":"","lat":24.305231,"lng":123.685666,"zip":"9070000"},{"town":"字鳩間","koaza":"","lat":24.472254,"lng":123.820428,"zip":"9070000"},{"town":"字竹富","koaza":"","lat":24.326125,"lng":124.089079,"zip":"9070000"}]