[{"town":"字川平","koaza":"","lat":26.709901,"lng":127.770723,"zip":"9050500"},{"town":"字東江前","koaza":"","lat":26.719193,"lng":127.821909,"zip":"9050500"},{"town":"字西江前","koaza":"","lat":26.717716,"lng":127.76148,"zip":"9050500"},{"town":"字東江上","koaza":"","lat":26.727023,"lng":127.79742,"zip":"9050500"},{"town":"字西江上","koaza":"","lat":26.726717,"lng":127.766156,"zip":"9050500"}]