[{"town":"字運天","koaza":"","lat":26.687458,"lng":127.999249},{"town":"字天底","koaza":"","lat":26.670799,"lng":127.982006},{"town":"字上運天","koaza":"","lat":26.679944,"lng":127.994791},{"town":"字玉城","koaza":"","lat":26.671032,"lng":127.970248},{"town":"字謝名","koaza":"","lat":26.677117,"lng":127.962658},{"town":"字仲尾次","koaza":"","lat":26.687214,"lng":127.950743},{"town":"字今泊","koaza":"","lat":26.688035,"lng":127.927078},{"town":"字兼次","koaza":"","lat":26.68386,"lng":127.938551},{"town":"字湧川","koaza":"","lat":26.653025,"lng":127.981431},{"town":"字呉我山","koaza":"","lat":26.652139,"lng":127.966167},{"town":"字古宇利","koaza":"","lat":26.704348,"lng":128.018102},{"town":"字勢理客","koaza":"","lat":26.678553,"lng":127.985227},{"town":"字渡喜仁","koaza":"","lat":26.688807,"lng":127.984378},{"town":"字崎山","koaza":"","lat":26.697634,"lng":127.960631},{"town":"字与那嶺","koaza":"","lat":26.689765,"lng":127.947015},{"town":"字諸志","koaza":"","lat":26.688952,"lng":127.942081},{"town":"字越地","koaza":"","lat":26.691006,"lng":127.969611},{"town":"字平敷","koaza":"","lat":26.689848,"lng":127.96058},{"town":"字仲宗根","koaza":"","lat":26.688716,"lng":127.975541}]