[{"town":"字真栄田","koaza":"","lat":26.430632,"lng":127.762751},{"town":"字瀬良垣","koaza":"","lat":26.494988,"lng":127.873102},{"town":"字恩納","koaza":"","lat":26.485385,"lng":127.858389},{"town":"字山田","koaza":"","lat":26.428754,"lng":127.781438},{"town":"字安富祖","koaza":"","lat":26.497743,"lng":127.890744},{"town":"字名嘉真","koaza":"","lat":26.515275,"lng":127.924507},{"town":"字喜瀬武原","koaza":"","lat":26.491938,"lng":127.90959},{"town":"字谷茶","koaza":"","lat":26.464243,"lng":127.830718},{"town":"字冨着","koaza":"","lat":26.454068,"lng":127.819568},{"town":"字仲泊","koaza":"","lat":26.434395,"lng":127.798825},{"town":"字前兼久","koaza":"","lat":26.447528,"lng":127.807698}]