[{"town":"字仲田","koaza":"","lat":26.925141,"lng":127.946139,"zip":"9050600"},{"town":"字伊是名","koaza":"","lat":26.920257,"lng":127.932435,"zip":"9050600"},{"town":"字内花","koaza":"","lat":26.945592,"lng":127.94097,"zip":"9050600"},{"town":"字勢理客","koaza":"","lat":26.938118,"lng":127.924191,"zip":"9050600"},{"town":"字諸見","koaza":"","lat":26.938176,"lng":127.949325,"zip":"9050600"}]