[{"town":"字与根","koaza":"","lat":"26.167310","lng":"127.658747"},{"town":"字平良","koaza":"","lat":"26.171551","lng":"127.692086"},{"town":"字渡橋名","koaza":"","lat":"26.166330","lng":"127.675575"},{"town":"字饒波","koaza":"","lat":"26.176235","lng":"127.695998"},{"town":"字上田","koaza":"","lat":"26.173050","lng":"127.679252"},{"town":"字高嶺","koaza":"","lat":"26.167685","lng":"127.689537"},{"town":"字渡嘉敷","koaza":"","lat":"26.169995","lng":"127.682150"},{"town":"字伊良波","koaza":"","lat":"26.172076","lng":"127.666585"},{"town":"字豊崎","koaza":"","lat":"26.156532","lng":"127.657786"},{"town":"字保栄茂","koaza":"","lat":"26.161578","lng":"127.684696"},{"town":"字翁長","koaza":"","lat":"26.158194","lng":"127.671659"},{"town":"字座安","koaza":"","lat":"26.167347","lng":"127.670020"},{"town":"字瀬長","koaza":"","lat":"26.175914","lng":"127.649778"},{"town":"字根差部","koaza":"","lat":"26.186940","lng":"127.693159"},{"town":"字嘉数","koaza":"","lat":"26.188048","lng":"127.700634"},{"town":"字金良","koaza":"","lat":"26.177798","lng":"127.706959"},{"town":"字長堂","koaza":"","lat":"26.184557","lng":"127.706383"},{"town":"字宜保","koaza":"","lat":"26.180394","lng":"127.678015"},{"town":"字高安","koaza":"","lat":"26.180875","lng":"127.688232"},{"town":"字真玉橋","koaza":"","lat":"26.192922","lng":"127.692928"},{"town":"字我那覇","koaza":"","lat":"26.179630","lng":"127.670657"},{"town":"字豊見城","koaza":"","lat":"26.187706","lng":"127.683024"},{"town":"字田頭","koaza":"","lat":"26.177376","lng":"127.660406"},{"town":"字名嘉地","koaza":"","lat":"26.177753","lng":"127.665349"},{"town":"宜保一丁目","koaza":"","lat":"26.178144","lng":"127.679488"},{"town":"宜保五丁目","koaza":"","lat":"26.180376","lng":"127.680099"},{"town":"宜保三丁目","koaza":"","lat":"26.178885","lng":"127.675235"},{"town":"宜保四丁目","koaza":"","lat":"26.180378","lng":"127.676391"},{"town":"宜保二丁目","koaza":"","lat":"26.178069","lng":"127.676821"}]