[{"town":"大字下谷","koaza":"","lat":34.089304,"lng":131.872165},{"town":"大字中須南","koaza":"","lat":34.086169,"lng":131.895498},{"town":"大字切山","koaza":"","lat":34.047705,"lng":131.923769},{"town":"大字大藤谷","koaza":"","lat":34.071901,"lng":131.917152},{"town":"大字山田","koaza":"","lat":34.047008,"lng":131.90626},{"town":"大字山田","koaza":"梅ノ木原","lat":34.049726,"lng":131.904929},{"town":"大字平田","koaza":"","lat":34.01268,"lng":131.846881},{"town":"大字末武上","koaza":"","lat":34.043716,"lng":131.869753},{"town":"大字末武下","koaza":"","lat":34.012311,"lng":131.85747},{"town":"大字末武下","koaza":"中筋潮入","lat":34.012563,"lng":131.858177},{"town":"大字末武中","koaza":"","lat":34.025145,"lng":131.842818},{"town":"大字来巻","koaza":"","lat":34.01456,"lng":131.923474},{"town":"大字東豊井","koaza":"","lat":33.995495,"lng":131.88306},{"town":"大字河内","koaza":"","lat":34.012997,"lng":131.897707},{"town":"大字温見","koaza":"","lat":34.078174,"lng":131.903288},{"town":"大字瀬戸","koaza":"","lat":34.0679,"lng":131.888941},{"town":"大字生野屋","koaza":"","lat":34.047097,"lng":131.887271},{"town":"大字笠戸島","koaza":"","lat":33.960021,"lng":131.854722},{"town":"大字笠戸島","koaza":"大松ケ浦","lat":33.950058,"lng":131.842416},{"town":"大字笠戸島","koaza":"小深浦","lat":33.947029,"lng":131.833319},{"town":"大字笠戸島","koaza":"尾郷","lat":33.96087,"lng":131.850747},{"town":"大字笠戸島","koaza":"江ノ浦","lat":33.953482,"lng":131.850735},{"town":"大字笠戸島","koaza":"深浦","lat":33.944788,"lng":131.82466},{"town":"大字西豊井","koaza":"","lat":34.01401,"lng":131.873761},{"town":"東海岸通り","koaza":"","lat":33.985342,"lng":131.88333},{"town":"葉山一丁目","koaza":"","lat":34.02463,"lng":131.911411},{"town":"葉山二丁目","koaza":"","lat":34.022066,"lng":131.906861},{"town":"青柳一丁目","koaza":"","lat":34.004935,"lng":131.871849},{"town":"青柳二丁目","koaza":"","lat":34.005966,"lng":131.872845},{"town":"生野屋一丁目","koaza":"","lat":34.038902,"lng":131.884963},{"town":"生野屋二丁目","koaza":"","lat":34.037782,"lng":131.886885},{"town":"生野屋三丁目","koaza":"","lat":34.041473,"lng":131.890362},{"town":"生野屋四丁目","koaza":"","lat":34.038156,"lng":131.889871},{"town":"生野屋五丁目","koaza":"","lat":34.036677,"lng":131.892245},{"town":"生野屋西一丁目","koaza":"","lat":34.035671,"lng":131.880332},{"town":"生野屋西二丁目","koaza":"","lat":34.037653,"lng":131.879931},{"town":"生野屋西三丁目","koaza":"","lat":34.040942,"lng":131.880487},{"town":"生野屋西四丁目","koaza":"","lat":34.039307,"lng":131.88315},{"town":"生野屋南一丁目","koaza":"","lat":34.031981,"lng":131.876664},{"town":"生野屋南二丁目","koaza":"","lat":34.033874,"lng":131.883211},{"town":"生野屋南三丁目","koaza":"","lat":34.03488,"lng":131.890969},{"town":"駅南一丁目","koaza":"","lat":34.010145,"lng":131.86615},{"town":"駅南二丁目","koaza":"","lat":34.009056,"lng":131.864924},{"town":"大手町一丁目","koaza":"","lat":34.012374,"lng":131.865997},{"town":"大手町二丁目","koaza":"","lat":34.013366,"lng":131.868087},{"town":"大手町三丁目","koaza":"","lat":34.01498,"lng":131.870018},{"town":"清瀬町一丁目","koaza":"","lat":34.030612,"lng":131.858385},{"town":"清瀬町二丁目","koaza":"","lat":34.02942,"lng":131.855856},{"town":"清瀬町三丁目","koaza":"","lat":34.030064,"lng":131.852966},{"town":"清瀬町四丁目","koaza":"","lat":34.032513,"lng":131.855797},{"town":"楠木町一丁目","koaza":"","lat":34.020849,"lng":131.863635},{"town":"楠木町二丁目","koaza":"","lat":34.025074,"lng":131.866341},{"town":"琴平町一丁目","koaza":"","lat":34.003001,"lng":131.873518},{"town":"琴平町二丁目","koaza":"","lat":34.004034,"lng":131.874635},{"town":"栄町一丁目","koaza":"","lat":34.010997,"lng":131.867265},{"town":"栄町二丁目","koaza":"","lat":34.011458,"lng":131.868475},{"town":"栄町三丁目","koaza":"","lat":34.012125,"lng":131.869632},{"town":"桜町一丁目","koaza":"","lat":34.017001,"lng":131.870455},{"town":"桜町二丁目","koaza":"","lat":34.020032,"lng":131.871492},{"town":"桜町三丁目","koaza":"","lat":34.019923,"lng":131.867619},{"town":"潮音町一丁目","koaza":"","lat":34.016815,"lng":131.854522},{"town":"潮音町二丁目","koaza":"","lat":34.017704,"lng":131.852374},{"town":"潮音町三丁目","koaza":"","lat":34.021247,"lng":131.850773},{"town":"潮音町四丁目","koaza":"","lat":34.023517,"lng":131.847093},{"town":"潮音町五丁目","koaza":"","lat":34.021186,"lng":131.84675},{"town":"潮音町六丁目","koaza":"","lat":34.018361,"lng":131.849538},{"town":"潮音町七丁目","koaza":"","lat":34.018399,"lng":131.845338},{"town":"潮音町八丁目","koaza":"","lat":34.016518,"lng":131.847329},{"town":"昭和町一丁目","koaza":"","lat":34.017836,"lng":131.880814},{"town":"昭和町二丁目","koaza":"","lat":34.016642,"lng":131.881869},{"town":"新川一丁目","koaza":"","lat":34.006648,"lng":131.865106},{"town":"新川二丁目","koaza":"","lat":34.007504,"lng":131.86309},{"town":"新川三丁目","koaza":"","lat":34.008793,"lng":131.861696},{"town":"新川四丁目","koaza":"","lat":34.00504,"lng":131.859121},{"town":"中央町","koaza":"","lat":34.017719,"lng":131.862645},{"town":"藤光町一丁目","koaza":"","lat":34.024082,"lng":131.86845},{"town":"藤光町二丁目","koaza":"","lat":34.027753,"lng":131.86956},{"town":"東陽一丁目","koaza":"","lat":34.033372,"lng":131.908195},{"town":"東陽二丁目","koaza":"","lat":34.035818,"lng":131.90957},{"town":"東陽三丁目","koaza":"","lat":34.037017,"lng":131.914417},{"town":"東陽四丁目","koaza":"","lat":34.034531,"lng":131.915629},{"town":"東陽五丁目","koaza":"","lat":34.031693,"lng":131.915949},{"town":"東陽六丁目","koaza":"","lat":34.031965,"lng":131.911918},{"town":"東陽七丁目","koaza":"","lat":34.033534,"lng":131.913283},{"town":"東和一丁目","koaza":"","lat":34.027869,"lng":131.924904},{"town":"東和二丁目","koaza":"","lat":34.028878,"lng":131.924179},{"town":"中市一丁目","koaza":"","lat":34.011904,"lng":131.863632},{"town":"中市二丁目","koaza":"","lat":34.010421,"lng":131.862446},{"town":"西柳一丁目","koaza":"","lat":34.015642,"lng":131.866658},{"town":"西柳二丁目","koaza":"","lat":34.01664,"lng":131.864959},{"town":"望町一丁目","koaza":"","lat":34.028624,"lng":131.861032},{"town":"望町二丁目","koaza":"","lat":34.025358,"lng":131.859134},{"town":"望町三丁目","koaza":"","lat":34.026418,"lng":131.857478},{"town":"望町四丁目","koaza":"","lat":34.027053,"lng":131.855056},{"town":"望町五丁目","koaza":"","lat":34.027418,"lng":131.852246},{"town":"旗岡一丁目","koaza":"","lat":34.010634,"lng":131.875531},{"town":"旗岡二丁目","koaza":"","lat":34.011995,"lng":131.876182},{"town":"旗岡三丁目","koaza":"","lat":34.012033,"lng":131.877907},{"town":"旗岡四丁目","koaza":"","lat":34.008998,"lng":131.878601},{"town":"旗岡五丁目","koaza":"","lat":34.008104,"lng":131.876665},{"town":"東柳一丁目","koaza":"","lat":34.013449,"lng":131.864588},{"town":"東柳二丁目","koaza":"","lat":34.014315,"lng":131.866746},{"town":"古川町一丁目","koaza":"","lat":34.007911,"lng":131.869547},{"town":"古川町二丁目","koaza":"","lat":34.008589,"lng":131.870897},{"town":"古川町三丁目","koaza":"","lat":34.007211,"lng":131.871892},{"town":"古川町四丁目","koaza":"","lat":34.006512,"lng":131.87057},{"town":"北斗町","koaza":"","lat":34.009986,"lng":131.869296},{"town":"星が丘一丁目","koaza":"","lat":34.021025,"lng":131.897794},{"town":"星が丘二丁目","koaza":"","lat":34.020724,"lng":131.899528},{"town":"星が丘三丁目","koaza":"","lat":34.018807,"lng":131.897749},{"town":"美里町一丁目","koaza":"","lat":34.025849,"lng":131.865049},{"town":"美里町二丁目","koaza":"","lat":34.026643,"lng":131.862978},{"town":"美里町三丁目","koaza":"","lat":34.023098,"lng":131.861182},{"town":"美里町四丁目","koaza":"","lat":34.020705,"lng":131.858702},{"town":"瑞穂町一丁目","koaza":"","lat":34.022101,"lng":131.855493},{"town":"瑞穂町二丁目","koaza":"","lat":34.023632,"lng":131.852817},{"town":"瑞穂町三丁目","koaza":"","lat":34.026548,"lng":131.849968},{"town":"瑞穂町四丁目","koaza":"","lat":34.025118,"lng":131.848426},{"town":"南花岡一丁目","koaza":"","lat":34.032901,"lng":131.862015},{"town":"南花岡二丁目","koaza":"","lat":34.033503,"lng":131.865805},{"town":"南花岡三丁目","koaza":"","lat":34.033913,"lng":131.86885},{"town":"南花岡四丁目","koaza":"","lat":34.034209,"lng":131.872728},{"town":"南花岡五丁目","koaza":"","lat":34.032406,"lng":131.871459},{"town":"南花岡六丁目","koaza":"","lat":34.03059,"lng":131.864755},{"town":"南花岡七丁目","koaza":"","lat":34.030075,"lng":131.867525},{"town":"桃山町","koaza":"","lat":34.026851,"lng":131.917925},{"town":"若宮町","koaza":"","lat":34.022699,"lng":131.881784}]