[{"town":"赤土町","koaza":"","lat":36.627376,"lng":140.450515},{"town":"芦間町","koaza":"","lat":36.569478,"lng":140.492396},{"town":"新地町","koaza":"","lat":36.527205,"lng":140.454711},{"town":"新宿町","koaza":"","lat":36.544281,"lng":140.51012},{"town":"粟原町","koaza":"","lat":36.498362,"lng":140.502365},{"town":"磯部町","koaza":"","lat":36.518971,"lng":140.531597},{"town":"稲木町","koaza":"","lat":36.531692,"lng":140.516358},{"town":"岩手町","koaza":"","lat":36.560778,"lng":140.47386},{"town":"内田町","koaza":"","lat":36.512383,"lng":140.548392},{"town":"内堀町","koaza":"","lat":36.543078,"lng":140.527155},{"town":"大方町","koaza":"","lat":36.538476,"lng":140.468937},{"town":"大里町","koaza":"","lat":36.532651,"lng":140.490206},{"town":"大菅町","koaza":"","lat":36.680014,"lng":140.515346},{"town":"大平町","koaza":"","lat":36.54971,"lng":140.495709},{"town":"大中町","koaza":"","lat":36.731811,"lng":140.490583},{"town":"大森町","koaza":"","lat":36.522033,"lng":140.589207},{"town":"岡田町","koaza":"","lat":36.52201,"lng":140.554161},{"town":"小沢町","koaza":"","lat":36.525598,"lng":140.543},{"town":"小島町","koaza":"","lat":36.504695,"lng":140.481912},{"town":"落合町","koaza":"","lat":36.508356,"lng":140.546182},{"town":"小目町","koaza":"","lat":36.517028,"lng":140.56439},{"town":"折橋町","koaza":"","lat":36.73215,"lng":140.534107},{"town":"堅磐町","koaza":"","lat":36.501142,"lng":140.55801},{"town":"金井町","koaza":"","lat":36.538047,"lng":140.529435},{"town":"上大門町","koaza":"","lat":36.604716,"lng":140.511867},{"town":"上河合町","koaza":"","lat":36.509811,"lng":140.513478},{"town":"上高倉町","koaza":"","lat":36.728961,"lng":140.457119},{"town":"上利員町","koaza":"","lat":36.596247,"lng":140.442128},{"town":"上土木内町","koaza":"","lat":36.506116,"lng":140.56031},{"town":"上深荻町","koaza":"","lat":36.665995,"lng":140.528177},{"town":"上宮河内町","koaza":"","lat":36.642878,"lng":140.434712},{"town":"亀作町","koaza":"","lat":36.540743,"lng":140.565488},{"town":"河内西町","koaza":"","lat":36.650558,"lng":140.513957},{"town":"木崎一町","koaza":"","lat":36.534773,"lng":140.521632},{"town":"木崎二町","koaza":"","lat":36.53336,"lng":140.523666},{"town":"薬谷町","koaza":"","lat":36.529572,"lng":140.474522},{"town":"国安町","koaza":"","lat":36.599788,"lng":140.489299},{"town":"久米町","koaza":"","lat":36.54634,"lng":140.47789},{"town":"天下野町","koaza":"","lat":36.665921,"lng":140.4735},{"town":"小菅町","koaza":"","lat":36.700026,"lng":140.516973},{"town":"小妻町","koaza":"","lat":36.776001,"lng":140.514743},{"town":"寿町","koaza":"","lat":36.540278,"lng":140.520106},{"town":"小中町","koaza":"","lat":36.754682,"lng":140.512226},{"town":"栄町","koaza":"","lat":36.547788,"lng":140.521745},{"town":"里川町","koaza":"","lat":36.825159,"lng":140.53434},{"town":"里野宮町","koaza":"","lat":36.568611,"lng":140.539155},{"town":"沢目町","koaza":"","lat":36.515109,"lng":140.551913},{"town":"三才町","koaza":"","lat":36.528948,"lng":140.53609},{"town":"島町","koaza":"","lat":36.50642,"lng":140.497855},{"town":"下大門町","koaza":"","lat":36.577586,"lng":140.512011},{"town":"下河合町","koaza":"","lat":36.506479,"lng":140.528551},{"town":"下高倉町","koaza":"","lat":36.697982,"lng":140.4669},{"town":"下利員町","koaza":"","lat":36.560946,"lng":140.439203},{"town":"下宮河内町","koaza":"","lat":36.618827,"lng":140.436248},{"town":"白羽町","koaza":"","lat":36.575288,"lng":140.553797},{"town":"常福地町","koaza":"","lat":36.587409,"lng":140.530916},{"town":"瑞龍町","koaza":"","lat":36.569738,"lng":140.527402},{"town":"千寿町","koaza":"","lat":36.57571,"lng":140.463886},{"town":"高柿町","koaza":"","lat":36.555142,"lng":140.468873},{"town":"高貫町","koaza":"","lat":36.556727,"lng":140.566761},{"town":"竹合町","koaza":"","lat":36.545645,"lng":140.459197},{"town":"棚谷町","koaza":"","lat":36.598543,"lng":140.464539},{"town":"玉造町","koaza":"","lat":36.558406,"lng":140.489297},{"town":"田渡町","koaza":"","lat":36.565599,"lng":140.558898},{"town":"茅根町","koaza":"","lat":36.587327,"lng":140.56837},{"town":"天神林町","koaza":"","lat":36.526051,"lng":140.503026},{"town":"東連地町","koaza":"","lat":36.57506,"lng":140.477347},{"town":"徳田町","koaza":"","lat":36.79135,"lng":140.483218},{"town":"中城町","koaza":"","lat":36.545331,"lng":140.526658},{"town":"中城町","koaza":"西鯉沼","lat":36.544878,"lng":140.52988},{"town":"中染町","koaza":"","lat":36.635715,"lng":140.491608},{"town":"中利員町","koaza":"","lat":36.579799,"lng":140.447582},{"town":"中野町","koaza":"","lat":36.51147,"lng":140.476537},{"town":"西一町","koaza":"","lat":36.541544,"lng":140.522371},{"town":"西河内上町","koaza":"","lat":36.63222,"lng":140.512388},{"town":"西河内下町","koaza":"","lat":36.612051,"lng":140.534193},{"town":"西河内中町","koaza":"","lat":36.623544,"lng":140.527911},{"town":"西三町","koaza":"","lat":36.537215,"lng":140.521721},{"town":"西染町","koaza":"","lat":36.624907,"lng":140.469398},{"town":"西二町","koaza":"","lat":36.539751,"lng":140.5225},{"town":"西宮町","koaza":"","lat":36.548847,"lng":140.537636},{"town":"長谷町","koaza":"","lat":36.554166,"lng":140.556613},{"town":"幡町","koaza":"","lat":36.540277,"lng":140.542474},{"town":"花房町","koaza":"","lat":36.53341,"lng":140.459014},{"town":"塙町","koaza":"","lat":36.54134,"lng":140.528813},{"town":"春友町","koaza":"","lat":36.597813,"lng":140.56235},{"town":"馬場町","koaza":"","lat":36.552701,"lng":140.523962},{"town":"東一町","koaza":"","lat":36.541476,"lng":140.523828},{"town":"東三町","koaza":"","lat":36.537959,"lng":140.524096},{"town":"東染町","koaza":"","lat":36.663291,"lng":140.504989},{"town":"東二町","koaza":"","lat":36.53974,"lng":140.524252},{"town":"藤田町","koaza":"","lat":36.517925,"lng":140.491854},{"town":"増井町","koaza":"","lat":36.562805,"lng":140.517589},{"town":"町田町","koaza":"","lat":36.620247,"lng":140.491827},{"town":"町屋町","koaza":"","lat":36.608288,"lng":140.561962},{"town":"松栄町","koaza":"","lat":36.514175,"lng":140.46467},{"town":"松平町","koaza":"","lat":36.588644,"lng":140.491815},{"town":"真弓町","koaza":"","lat":36.539715,"lng":140.58163},{"town":"箕町","koaza":"","lat":36.556964,"lng":140.447811},{"town":"宮の郷町","koaza":"","lat":36.546406,"lng":140.44967},{"town":"宮本町","koaza":"","lat":36.54542,"lng":140.517728},{"town":"谷河原町","koaza":"","lat":36.515791,"lng":140.519431},{"town":"山下町","koaza":"","lat":36.5286,"lng":140.529527},{"town":"和久町","koaza":"","lat":36.611291,"lng":140.484508},{"town":"和田町","koaza":"","lat":36.581125,"lng":140.49401}]