[{"town":"伊久間区","koaza":"","lat":35.505654,"lng":137.869245},{"town":"加々須区","koaza":"","lat":35.502829,"lng":137.910624},{"town":"大和知区","koaza":"","lat":35.48671,"lng":137.899324},{"town":"大島区","koaza":"","lat":35.491861,"lng":137.952999},{"town":"富田区","koaza":"","lat":35.475576,"lng":137.892676},{"town":"小川区上平","koaza":"","lat":35.497677,"lng":137.897163},{"town":"小川区両平","koaza":"","lat":35.510141,"lng":137.88121},{"town":"小川区田上川","koaza":"","lat":35.500004,"lng":137.885863},{"town":"小川区馬場","koaza":"","lat":35.516788,"lng":137.871572},{"town":"氏乗区","koaza":"","lat":35.463112,"lng":137.934055},{"town":"阿島区北","koaza":"","lat":35.527423,"lng":137.882373},{"town":"阿島区南","koaza":"","lat":35.519613,"lng":137.876225},{"town":"阿島区寺の前","koaza":"","lat":35.521607,"lng":137.892676},{"town":"阿島区帰牛原","koaza":"","lat":35.514129,"lng":137.887193},{"town":"阿島区町","koaza":"","lat":35.522604,"lng":137.880047},{"town":"阿島区郭","koaza":"","lat":35.519613,"lng":137.884534}]