[{"town":"東扇島","lat":"35.497190","lng":"139.753955"},{"town":"水江町","lat":"35.508049","lng":"139.741088"},{"town":"扇町","lat":"35.502051","lng":"139.722870"},{"town":"浅田四丁目","lat":"35.504065","lng":"139.700647"},{"town":"千鳥町","lat":"35.517255","lng":"139.756416"},{"town":"塩浜四丁目","lat":"35.529443","lng":"139.746603"},{"town":"殿町二丁目","lat":"35.540683","lng":"139.747211"},{"town":"夜光二丁目","lat":"35.521961","lng":"139.747628"},{"town":"白石町","lat":"35.500755","lng":"139.709607"},{"town":"田辺新田","lat":"35.504962","lng":"139.707006"},{"town":"塩浜三丁目","lat":"35.521309","lng":"139.740982"},{"town":"江川二丁目","lat":"35.536212","lng":"139.747828"},{"town":"田町二丁目","lat":"35.534631","lng":"139.745668"},{"town":"大川町","lat":"35.494112","lng":"139.713901"},{"town":"扇島","lat":"35.483570","lng":"139.726853"},{"town":"夜光一丁目","lat":"35.528243","lng":"139.753494"},{"town":"浮島町","lat":"35.522870","lng":"139.776179"},{"town":"小島町","lat":"35.533188","lng":"139.756973"},{"town":"殿町三丁目","lat":"35.539552","lng":"139.758373"},{"town":"田町三丁目","lat":"35.534947","lng":"139.749801"},{"town":"日ノ出二丁目","lat":"35.531639","lng":"139.744358"},{"town":"中島一丁目","lat":"35.530108","lng":"139.716496"},{"town":"鋼管通五丁目","lat":"35.509983","lng":"139.712782"},{"town":"南渡田町","lat":"35.508603","lng":"139.717094"},{"town":"小田六丁目","lat":"35.509099","lng":"139.705399"},{"town":"浅田一丁目","lat":"35.506845","lng":"139.705012"},{"town":"夜光三丁目","lat":"35.517540","lng":"139.742183"},{"town":"四谷下町","lat":"35.526084","lng":"139.738288"},{"town":"池上新町三丁目","lat":"35.521155","lng":"139.733625"},{"town":"浜町四丁目","lat":"35.515902","lng":"139.722055"},{"town":"浜町三丁目","lat":"35.517386","lng":"139.719968"},{"town":"大島三丁目","lat":"35.520330","lng":"139.718200"},{"town":"桜本二丁目","lat":"35.521742","lng":"139.725051"},{"town":"大島五丁目","lat":"35.523877","lng":"139.717482"},{"town":"浅野町","lat":"35.512828","lng":"139.726088"},{"town":"浜町二丁目","lat":"35.513944","lng":"139.717987"},{"town":"浜町一丁目","lat":"35.516758","lng":"139.717770"},{"town":"桜本一丁目","lat":"35.519326","lng":"139.722649"},{"town":"池上町","lat":"35.517271","lng":"139.730213"},{"town":"鋼管通三丁目","lat":"35.513788","lng":"139.713894"},{"town":"小田七丁目","lat":"35.509028","lng":"139.708889"},{"town":"鋼管通四丁目","lat":"35.511637","lng":"139.713140"},{"town":"大島二丁目","lat":"35.521290","lng":"139.714715"},{"town":"鋼管通二丁目","lat":"35.516319","lng":"139.715354"},{"town":"追分町","lat":"35.519787","lng":"139.714624"},{"town":"鋼管通一丁目","lat":"35.518189","lng":"139.712657"},{"town":"渡田三丁目","lat":"35.518861","lng":"139.705083"},{"town":"大島上町","lat":"35.520868","lng":"139.710200"},{"town":"田島町","lat":"35.517083","lng":"139.710045"},{"town":"大島四丁目","lat":"35.524345","lng":"139.714691"},{"town":"渡田一丁目","lat":"35.523024","lng":"139.707731"},{"town":"境町","lat":"35.525108","lng":"139.708365"},{"town":"大島一丁目","lat":"35.524009","lng":"139.711731"},{"town":"小田三丁目","lat":"35.514017","lng":"139.703836"},{"town":"小田四丁目","lat":"35.510694","lng":"139.700414"},{"town":"渡田東町","lat":"35.518302","lng":"139.708078"},{"town":"小田栄一丁目","lat":"35.515782","lng":"139.704749"},{"town":"小田五丁目","lat":"35.511570","lng":"139.706424"},{"town":"小田栄二丁目","lat":"35.513587","lng":"139.708705"},{"town":"浅田二丁目","lat":"35.506970","lng":"139.702678"},{"town":"京町三丁目","lat":"35.508803","lng":"139.697073"},{"town":"浅田三丁目","lat":"35.507460","lng":"139.699996"},{"town":"小田一丁目","lat":"35.515985","lng":"139.699053"},{"town":"小田二丁目","lat":"35.513489","lng":"139.699584"},{"town":"渡田二丁目","lat":"35.520905","lng":"139.706322"},{"town":"渡田四丁目","lat":"35.518352","lng":"139.702886"},{"town":"渡田新町一丁目","lat":"35.522026","lng":"139.700128"},{"town":"元木一丁目","lat":"35.524102","lng":"139.699217"},{"town":"新川通","lat":"35.526319","lng":"139.705158"},{"town":"渡田山王町","lat":"35.519162","lng":"139.696324"},{"town":"渡田向町","lat":"35.521358","lng":"139.702868"},{"town":"貝塚二丁目","lat":"35.524523","lng":"139.704534"},{"town":"渡田新町三丁目","lat":"35.519441","lng":"139.699407"},{"town":"京町二丁目","lat":"35.513738","lng":"139.695328"},{"town":"京町一丁目","lat":"35.517933","lng":"139.693751"},{"town":"渡田新町二丁目","lat":"35.521067","lng":"139.699324"},{"town":"元木二丁目","lat":"35.522445","lng":"139.696011"},{"town":"下並木","lat":"35.523144","lng":"139.689816"},{"town":"池田一丁目","lat":"35.521530","lng":"139.691448"},{"town":"池田二丁目","lat":"35.520540","lng":"139.692629"},{"town":"塩浜二丁目","lat":"35.523555","lng":"139.737509"},{"town":"塩浜一丁目","lat":"35.528691","lng":"139.740769"},{"town":"日ノ出一丁目","lat":"35.531914","lng":"139.741726"},{"town":"出来野","lat":"35.533646","lng":"139.739799"},{"town":"四谷上町","lat":"35.527750","lng":"139.734338"},{"town":"池上新町一丁目","lat":"35.523061","lng":"139.728261"},{"town":"昭和一丁目","lat":"35.533251","lng":"139.737189"},{"town":"昭和二丁目","lat":"35.530496","lng":"139.737533"},{"town":"江川一丁目","lat":"35.536344","lng":"139.744178"},{"town":"殿町一丁目","lat":"35.540843","lng":"139.743347"},{"town":"東門前二丁目","lat":"35.533390","lng":"139.734694"},{"town":"東門前三丁目","lat":"35.535690","lng":"139.736483"},{"town":"大師河原二丁目","lat":"35.536090","lng":"139.739724"},{"town":"田町一丁目","lat":"35.535343","lng":"139.742030"},{"town":"大師本町","lat":"35.535618","lng":"139.730287"},{"town":"池上新町二丁目","lat":"35.524058","lng":"139.730688"},{"town":"観音二丁目","lat":"35.527450","lng":"139.729597"},{"town":"観音一丁目","lat":"35.527226","lng":"139.726093"},{"town":"藤崎四丁目","lat":"35.524408","lng":"139.722328"},{"town":"大師町","lat":"35.533810","lng":"139.730888"},{"town":"大師公園","lat":"35.531721","lng":"139.731413"},{"town":"台町","lat":"35.530270","lng":"139.732695"},{"town":"東門前一丁目","lat":"35.535414","lng":"139.733436"},{"town":"中島二丁目","lat":"35.528741","lng":"139.716280"},{"town":"藤崎一丁目","lat":"35.529413","lng":"139.720801"},{"town":"藤崎三丁目","lat":"35.528253","lng":"139.723750"},{"town":"川中島二丁目","lat":"35.530438","lng":"139.727184"},{"town":"大師駅前一丁目","lat":"35.534908","lng":"139.726919"},{"town":"川中島一丁目","lat":"35.532355","lng":"139.726893"},{"town":"大師駅前二丁目","lat":"35.534241","lng":"139.723358"},{"town":"中島三丁目","lat":"35.526887","lng":"139.716061"},{"town":"藤崎二丁目","lat":"35.526767","lng":"139.720665"},{"town":"中瀬三丁目","lat":"35.539254","lng":"139.732078"},{"town":"大師河原一丁目","lat":"35.541128","lng":"139.738156"},{"town":"中瀬二丁目","lat":"35.537619","lng":"139.727849"},{"town":"中瀬一丁目","lat":"35.541223","lng":"139.728673"},{"town":"鈴木町","lat":"35.538858","lng":"139.722793"},{"town":"伊勢町","lat":"35.531981","lng":"139.721555"},{"town":"小川町","lat":"35.527528","lng":"139.698112"},{"town":"貝塚一丁目","lat":"35.525225","lng":"139.702012"},{"town":"港町","lat":"35.535292","lng":"139.714131"},{"town":"旭町一丁目","lat":"35.535443","lng":"139.709710"},{"town":"富士見二丁目","lat":"35.527831","lng":"139.710559"},{"town":"宮本町","lat":"35.531094","lng":"139.704116"},{"town":"堀之内町","lat":"35.533105","lng":"139.705826"},{"town":"榎町","lat":"35.531238","lng":"139.706405"},{"town":"宮前町","lat":"35.528364","lng":"139.705427"},{"town":"南町","lat":"35.525841","lng":"139.698811"},{"town":"東田町","lat":"35.528561","lng":"139.702468"},{"town":"砂子一丁目","lat":"35.531796","lng":"139.701441"},{"town":"砂子二丁目","lat":"35.529262","lng":"139.700321"},{"town":"本町二丁目","lat":"35.535091","lng":"139.705541"},{"town":"駅前本町","lat":"35.532434","lng":"139.699600"},{"town":"本町一丁目","lat":"35.533300","lng":"139.703119"},{"town":"富士見一丁目","lat":"35.531636","lng":"139.710917"},{"town":"旭町二丁目","lat":"35.532275","lng":"139.716636"},{"town":"堤根","lat":"35.524993","lng":"139.688584"},{"town":"日進町","lat":"35.526463","lng":"139.692935"}]