[{"town":"大山","lat":"35.427170","lng":"139.246068"},{"town":"石田","lat":"35.416184","lng":"139.341011"},{"town":"高森","lat":"35.421737","lng":"139.324884"},{"town":"子易","lat":"35.417935","lng":"139.270342"},{"town":"上粕屋","lat":"35.416489","lng":"139.288808"},{"town":"粟窪","lat":"35.413577","lng":"139.317794"},{"town":"高森七丁目","lat":"35.418092","lng":"139.333263"},{"town":"高森台一丁目","lat":"35.421196","lng":"139.332108"},{"town":"東富岡","lat":"35.415644","lng":"139.311489"},{"town":"西富岡","lat":"35.420688","lng":"139.300686"},{"town":"日向","lat":"35.437168","lng":"139.266978"},{"town":"歌川三丁目","lat":"35.400519","lng":"139.342316"},{"town":"歌川一丁目","lat":"35.402931","lng":"139.341760"},{"town":"歌川二丁目","lat":"35.403053","lng":"139.345278"},{"town":"東大竹二丁目","lat":"35.393512","lng":"139.306241"},{"town":"大住台一丁目","lat":"35.389651","lng":"139.276377"},{"town":"大住台三丁目","lat":"35.387209","lng":"139.274595"},{"town":"東成瀬","lat":"35.410944","lng":"139.344476"},{"town":"下平間","lat":"35.383534","lng":"139.324102"},{"town":"下谷","lat":"35.386921","lng":"139.340134"},{"town":"沼目七丁目","lat":"35.394426","lng":"139.333003"},{"town":"沼目四丁目","lat":"35.394953","lng":"139.330513"},{"town":"沼目五丁目","lat":"35.389841","lng":"139.329179"},{"town":"沼目三丁目","lat":"35.394333","lng":"139.327906"},{"town":"上平間","lat":"35.386015","lng":"139.328272"},{"town":"沼目一丁目","lat":"35.395275","lng":"139.324611"},{"town":"沼目六丁目","lat":"35.389254","lng":"139.331459"},{"town":"沼目","lat":"35.392804","lng":"139.334460"},{"town":"沼目二丁目","lat":"35.391412","lng":"139.325331"},{"town":"上谷","lat":"35.397309","lng":"139.338929"},{"town":"八幡台二丁目","lat":"35.385436","lng":"139.309922"},{"town":"岡崎","lat":"35.378707","lng":"139.315512"},{"town":"八幡台一丁目","lat":"35.387711","lng":"139.309331"},{"town":"小稲葉","lat":"35.389334","lng":"139.350222"},{"town":"桜台四丁目","lat":"35.389517","lng":"139.316840"},{"town":"桜台二丁目","lat":"35.396223","lng":"139.317953"},{"town":"伊勢原一丁目","lat":"35.397478","lng":"139.313730"},{"town":"桜台一丁目","lat":"35.392832","lng":"139.312713"},{"town":"東大竹","lat":"35.388704","lng":"139.311387"},{"town":"桜台五丁目","lat":"35.389645","lng":"139.320559"},{"town":"桜台三丁目","lat":"35.392549","lng":"139.318111"},{"town":"伊勢原二丁目","lat":"35.397143","lng":"139.307292"},{"town":"東大竹一丁目","lat":"35.395451","lng":"139.307956"},{"town":"伊勢原三丁目","lat":"35.399630","lng":"139.307452"},{"town":"坪ノ内","lat":"35.393211","lng":"139.277001"},{"town":"伊勢原四丁目","lat":"35.400460","lng":"139.311819"},{"town":"池端","lat":"35.399361","lng":"139.324832"},{"town":"串橋","lat":"35.388004","lng":"139.288958"},{"town":"笠窪","lat":"35.386240","lng":"139.281849"},{"town":"大住台二丁目","lat":"35.387970","lng":"139.276746"},{"town":"善波","lat":"35.389922","lng":"139.261036"},{"town":"下落合","lat":"35.402172","lng":"139.348720"},{"town":"高森六丁目","lat":"35.414123","lng":"139.333806"},{"town":"見附島","lat":"35.405214","lng":"139.340181"},{"town":"高森四丁目","lat":"35.416901","lng":"139.328983"},{"town":"高森五丁目","lat":"35.414129","lng":"139.330804"},{"town":"高森三丁目","lat":"35.413921","lng":"139.326438"},{"town":"田中","lat":"35.404131","lng":"139.311509"},{"town":"高森二丁目","lat":"35.411397","lng":"139.325869"},{"town":"高森一丁目","lat":"35.412406","lng":"139.320841"},{"town":"下糟屋","lat":"35.403838","lng":"139.328447"},{"town":"三ノ宮","lat":"35.404081","lng":"139.274308"},{"town":"神戸","lat":"35.396068","lng":"139.288234"},{"town":"白根","lat":"35.399867","lng":"139.294062"},{"town":"鈴川","lat":"35.392688","lng":"139.296923"},{"town":"板戸","lat":"35.397473","lng":"139.301567"},{"town":"高森台三丁目","lat":"35.424164","lng":"139.328494"},{"town":"高森台二丁目","lat":"35.422554","lng":"139.330769"}]