[{"town":"上新城二丁目","lat":"35.587220","lng":"139.630813"},{"town":"上小田中二丁目","lat":"35.588425","lng":"139.636380"},{"town":"上小田中三丁目","lat":"35.586945","lng":"139.633167"},{"town":"上小田中六丁目","lat":"35.582178","lng":"139.645375"},{"town":"等々力","lat":"35.589180","lng":"139.653175"},{"town":"宮内四丁目","lat":"35.586060","lng":"139.644465"},{"town":"上丸子天神町","lat":"35.586928","lng":"139.663570"},{"town":"宮内二丁目","lat":"35.590908","lng":"139.638814"},{"town":"新城三丁目","lat":"35.585398","lng":"139.630159"},{"town":"新城五丁目","lat":"35.586216","lng":"139.628985"},{"town":"上丸子八幡町","lat":"35.582599","lng":"139.667963"},{"town":"小杉陣屋町二丁目","lat":"35.585132","lng":"139.656040"},{"town":"小杉陣屋町一丁目","lat":"35.585031","lng":"139.658407"},{"town":"新城一丁目","lat":"35.585260","lng":"139.631542"},{"town":"井田一丁目","lat":"35.562932","lng":"139.643385"},{"town":"上小田中四丁目","lat":"35.583537","lng":"139.640258"},{"town":"下小田中四丁目","lat":"35.576185","lng":"139.637997"},{"town":"井田二丁目","lat":"35.561114","lng":"139.640893"},{"town":"井田杉山町","lat":"35.569529","lng":"139.642792"},{"town":"上丸子山王町二丁目","lat":"35.576142","lng":"139.666579"},{"town":"田尻町","lat":"35.559488","lng":"139.672165"},{"town":"北谷町","lat":"35.562575","lng":"139.671567"},{"town":"大倉町","lat":"35.556774","lng":"139.665973"},{"town":"西加瀬","lat":"35.560117","lng":"139.659823"},{"town":"木月二丁目","lat":"35.564023","lng":"139.655470"},{"town":"木月四丁目","lat":"35.559027","lng":"139.654425"},{"town":"木月一丁目","lat":"35.565429","lng":"139.652818"},{"town":"井田三丁目","lat":"35.562737","lng":"139.636755"},{"town":"苅宿","lat":"35.561763","lng":"139.663954"},{"town":"市ノ坪","lat":"35.567422","lng":"139.664481"},{"town":"上丸子","lat":"35.574764","lng":"139.664298"},{"town":"新丸子東三丁目","lat":"35.574728","lng":"139.661200"},{"town":"新丸子東二丁目","lat":"35.577759","lng":"139.662374"},{"town":"下沼部","lat":"35.574007","lng":"139.668804"},{"town":"上丸子山王町一丁目","lat":"35.578982","lng":"139.668365"},{"town":"小杉町二丁目","lat":"35.579455","lng":"139.656175"},{"town":"小杉町一丁目","lat":"35.579357","lng":"139.658607"},{"town":"新丸子東一丁目","lat":"35.580086","lng":"139.663177"},{"town":"丸子通二丁目","lat":"35.583280","lng":"139.661594"},{"town":"中丸子","lat":"35.568518","lng":"139.668859"},{"town":"上平間","lat":"35.559946","lng":"139.677571"},{"town":"小杉町三丁目","lat":"35.574686","lng":"139.657252"},{"town":"木月祗園町","lat":"35.568179","lng":"139.650850"},{"town":"木月三丁目","lat":"35.562816","lng":"139.650428"},{"town":"丸子通一丁目","lat":"35.582999","lng":"139.664550"},{"town":"新丸子町","lat":"35.579381","lng":"139.660603"},{"town":"木月大町","lat":"35.571152","lng":"139.650340"},{"town":"木月伊勢町","lat":"35.569092","lng":"139.654940"},{"town":"今井仲町","lat":"35.574457","lng":"139.651479"},{"town":"小杉御殿町一丁目","lat":"35.583962","lng":"139.652437"},{"town":"上小田中七丁目","lat":"35.581033","lng":"139.648845"},{"town":"小杉御殿町二丁目","lat":"35.579423","lng":"139.653391"},{"town":"下小田中二丁目","lat":"35.577623","lng":"139.643486"},{"town":"今井西町","lat":"35.575397","lng":"139.648380"},{"town":"今井上町","lat":"35.578438","lng":"139.649884"},{"town":"井田中ノ町","lat":"35.565289","lng":"139.643876"},{"town":"下小田中六丁目","lat":"35.571220","lng":"139.637288"},{"town":"下小田中五丁目","lat":"35.574075","lng":"139.634110"},{"town":"下新城二丁目","lat":"35.577461","lng":"139.632675"},{"town":"井田三舞町","lat":"35.569301","lng":"139.646265"},{"town":"下小田中三丁目","lat":"35.573154","lng":"139.643202"},{"town":"下小田中一丁目","lat":"35.579784","lng":"139.637806"},{"town":"上小田中五丁目","lat":"35.582758","lng":"139.636621"},{"town":"新城中町","lat":"35.583254","lng":"139.633532"},{"town":"下新城三丁目","lat":"35.579671","lng":"139.630402"},{"town":"新城四丁目","lat":"35.582792","lng":"139.630059"},{"town":"下新城一丁目","lat":"35.579922","lng":"139.633538"},{"town":"新城二丁目","lat":"35.582811","lng":"139.631640"},{"town":"上小田中一丁目","lat":"35.593112","lng":"139.630566"},{"town":"宮内三丁目","lat":"35.590812","lng":"139.643723"},{"town":"上新城一丁目","lat":"35.590571","lng":"139.628885"},{"town":"新城","lat":"35.587962","lng":"139.627724"},{"town":"宮内一丁目","lat":"35.594809","lng":"139.644987"},{"town":"今井南町","lat":"35.572501","lng":"139.654761"},{"town":"木月住吉町","lat":"35.565849","lng":"139.658919"}]