[{"town":"須賀","lat":"35.320696","lng":"139.370693"},{"town":"土屋","lat":"35.342870","lng":"139.255023"},{"town":"田村","lat":"35.374842","lng":"139.370601"},{"town":"追分","lat":"35.337371","lng":"139.341919"},{"town":"富士見町","lat":"35.337735","lng":"139.336478"},{"town":"堤町","lat":"35.338765","lng":"139.359027"},{"town":"馬入","lat":"35.335615","lng":"139.370198"},{"town":"下吉沢","lat":"35.335689","lng":"139.288575"},{"town":"根坂間","lat":"35.339812","lng":"139.305576"},{"town":"日向岡一丁目","lat":"35.338798","lng":"139.298663"},{"town":"四之宮","lat":"35.360093","lng":"139.367607"},{"town":"達上ケ丘","lat":"35.335465","lng":"139.327589"},{"town":"南原一丁目","lat":"35.337265","lng":"139.326267"},{"town":"諏訪町","lat":"35.336776","lng":"139.333173"},{"town":"徳延","lat":"35.337426","lng":"139.318148"},{"town":"南原四丁目","lat":"35.338484","lng":"139.322345"},{"town":"浅間町","lat":"35.335265","lng":"139.348479"},{"town":"河内","lat":"35.341899","lng":"139.309657"},{"town":"上吉沢","lat":"35.342692","lng":"139.283808"},{"town":"大神","lat":"35.392338","lng":"139.366101"},{"town":"中堂","lat":"35.335072","lng":"139.360188"},{"town":"唐ケ原","lat":"35.316658","lng":"139.329018"},{"town":"千石河岸","lat":"35.316625","lng":"139.364754"},{"town":"久領堤","lat":"35.327093","lng":"139.362659"},{"town":"馬入本町","lat":"35.330603","lng":"139.361383"},{"town":"榎木町","lat":"35.332290","lng":"139.360839"},{"town":"八千代町","lat":"35.331769","lng":"139.356191"},{"town":"老松町","lat":"35.330188","lng":"139.356427"},{"town":"高浜台","lat":"35.317671","lng":"139.357645"},{"town":"札場町","lat":"35.323045","lng":"139.364881"},{"town":"龍城ケ丘","lat":"35.317841","lng":"139.345724"},{"town":"菫平","lat":"35.318188","lng":"139.341330"},{"town":"袖ケ浜","lat":"35.317622","lng":"139.350611"},{"town":"松風町","lat":"35.321944","lng":"139.349070"},{"town":"八重咲町","lat":"35.326143","lng":"139.349132"},{"town":"紅谷町","lat":"35.328437","lng":"139.347785"},{"town":"宝町","lat":"35.328983","lng":"139.351959"},{"town":"宮の前","lat":"35.331599","lng":"139.351737"},{"town":"代官町","lat":"35.326793","lng":"139.356013"},{"town":"平塚二丁目","lat":"35.329634","lng":"139.338398"},{"town":"虹ケ浜","lat":"35.315227","lng":"139.339575"},{"town":"花水台","lat":"35.318097","lng":"139.336045"},{"town":"桃浜町","lat":"35.323756","lng":"139.344660"},{"town":"平塚一丁目","lat":"35.326580","lng":"139.339295"},{"town":"錦町","lat":"35.327578","lng":"139.343235"},{"town":"見附町","lat":"35.330500","lng":"139.341798"},{"town":"明石町","lat":"35.331099","lng":"139.347360"},{"town":"豊原町","lat":"35.333397","lng":"139.337199"},{"town":"立野町","lat":"35.334052","lng":"139.341481"},{"town":"撫子原","lat":"35.318026","lng":"139.331337"},{"town":"平塚三丁目","lat":"35.325364","lng":"139.334691"},{"town":"夕陽ケ丘","lat":"35.323914","lng":"139.356235"},{"town":"幸町","lat":"35.321227","lng":"139.360200"},{"town":"黒部丘","lat":"35.322912","lng":"139.338007"},{"town":"平塚四丁目","lat":"35.328112","lng":"139.335045"},{"town":"平塚五丁目","lat":"35.327997","lng":"139.331077"},{"town":"桜ケ丘","lat":"35.327980","lng":"139.326709"},{"town":"中里","lat":"35.331770","lng":"139.331150"},{"town":"上平塚","lat":"35.332586","lng":"139.322825"},{"town":"山下","lat":"35.330532","lng":"139.316632"},{"town":"高村","lat":"35.333785","lng":"139.307162"},{"town":"出縄","lat":"35.331254","lng":"139.300425"},{"town":"万田","lat":"35.327120","lng":"139.303263"},{"town":"高根","lat":"35.325141","lng":"139.314564"},{"town":"田村二丁目","lat":"35.369890","lng":"139.358595"},{"town":"田村三丁目","lat":"35.374004","lng":"139.358497"},{"town":"田村六丁目","lat":"35.377964","lng":"139.363328"},{"town":"田村八丁目","lat":"35.376567","lng":"139.367334"},{"town":"田村九丁目","lat":"35.379389","lng":"139.367827"},{"town":"田村七丁目","lat":"35.371785","lng":"139.366544"},{"town":"田村五丁目","lat":"35.370660","lng":"139.362844"},{"town":"西真土三丁目","lat":"35.357676","lng":"139.347931"},{"town":"東真土三丁目","lat":"35.357764","lng":"139.352240"},{"town":"めぐみが丘一丁目","lat":"35.349139","lng":"139.296116"},{"town":"四之宮四丁目","lat":"35.358771","lng":"139.364260"},{"town":"四之宮五丁目","lat":"35.358539","lng":"139.360213"},{"town":"東真土二丁目","lat":"35.356508","lng":"139.355939"},{"town":"四之宮七丁目","lat":"35.366253","lng":"139.364527"},{"town":"中原下宿","lat":"35.346782","lng":"139.322874"},{"town":"東真土一丁目","lat":"35.354438","lng":"139.352027"},{"town":"東真土四丁目","lat":"35.361913","lng":"139.353931"},{"town":"西真土四丁目","lat":"35.362471","lng":"139.347693"},{"town":"めぐみが丘二丁目","lat":"35.348644","lng":"139.292537"},{"town":"南原","lat":"35.343394","lng":"139.320899"},{"town":"西八幡四丁目","lat":"35.344873","lng":"139.347055"},{"town":"南原三丁目","lat":"35.342268","lng":"139.325133"},{"town":"日向岡二丁目","lat":"35.340989","lng":"139.299977"},{"town":"東八幡四丁目","lat":"35.348740","lng":"139.358987"},{"town":"四之宮三丁目","lat":"35.351705","lng":"139.362367"},{"town":"長瀞","lat":"35.340073","lng":"139.363241"},{"town":"西八幡二丁目","lat":"35.341860","lng":"139.351338"},{"town":"東八幡二丁目","lat":"35.345396","lng":"139.354935"},{"town":"中原一丁目","lat":"35.342587","lng":"139.335410"},{"town":"大原","lat":"35.342523","lng":"139.341370"},{"town":"東中原一丁目","lat":"35.354377","lng":"139.340423"},{"town":"東中原二丁目","lat":"35.352944","lng":"139.336846"},{"town":"西真土一丁目","lat":"35.353426","lng":"139.347688"},{"town":"西真土二丁目","lat":"35.356674","lng":"139.343890"},{"town":"南原二丁目","lat":"35.340107","lng":"139.327056"},{"town":"御殿一丁目","lat":"35.341184","lng":"139.331577"},{"town":"新町","lat":"35.348077","lng":"139.340401"},{"town":"西八幡三丁目","lat":"35.345785","lng":"139.351506"},{"town":"西八幡一丁目","lat":"35.340743","lng":"139.347968"},{"town":"中原三丁目","lat":"35.351467","lng":"139.332418"},{"town":"四之宮一丁目","lat":"35.349172","lng":"139.347638"},{"town":"四之宮二丁目","lat":"35.350023","lng":"139.353897"},{"town":"御殿三丁目","lat":"35.347622","lng":"139.328261"},{"town":"東八幡三丁目","lat":"35.343510","lng":"139.358194"},{"town":"豊田打間木","lat":"35.363878","lng":"139.342333"},{"town":"御殿二丁目","lat":"35.344605","lng":"139.329437"},{"town":"中原二丁目","lat":"35.346825","lng":"139.334418"},{"town":"御殿四丁目","lat":"35.346060","lng":"139.323896"},{"town":"南豊田","lat":"35.356262","lng":"139.329279"},{"town":"豊田本郷","lat":"35.358490","lng":"139.325787"},{"town":"豊田宮下","lat":"35.358743","lng":"139.329661"},{"town":"豊田平等寺","lat":"35.354065","lng":"139.323407"},{"town":"纒","lat":"35.342717","lng":"139.318504"},{"town":"長持","lat":"35.347492","lng":"139.318673"},{"town":"入部","lat":"35.350643","lng":"139.308076"},{"town":"入野","lat":"35.352462","lng":"139.314822"},{"town":"寺田縄","lat":"35.359083","lng":"139.315840"},{"town":"片岡","lat":"35.360239","lng":"139.300619"},{"town":"飯島","lat":"35.359065","lng":"139.306206"},{"town":"東八幡五丁目","lat":"35.347330","lng":"139.364259"},{"town":"八幡","lat":"35.347267","lng":"139.368550"},{"town":"田村四丁目","lat":"35.378442","lng":"139.359039"},{"town":"下島","lat":"35.369316","lng":"139.340799"},{"town":"横内","lat":"35.372266","lng":"139.350308"},{"town":"大島","lat":"35.380734","lng":"139.345856"},{"town":"四之宮六丁目","lat":"35.360702","lng":"139.358036"},{"town":"田村一丁目","lat":"35.365722","lng":"139.358703"},{"town":"豊田小嶺","lat":"35.360354","lng":"139.333123"},{"town":"東豊田","lat":"35.361494","lng":"139.339452"},{"town":"北豊田","lat":"35.364197","lng":"139.327984"},{"town":"千須谷","lat":"35.350822","lng":"139.290165"},{"town":"公所","lat":"35.346389","lng":"139.301608"},{"town":"広川","lat":"35.353683","lng":"139.302412"},{"town":"吉際","lat":"35.391245","lng":"139.357944"},{"town":"城所","lat":"35.375417","lng":"139.323459"},{"town":"小鍋島","lat":"35.376118","lng":"139.331666"},{"town":"ふじみ野一丁目","lat":"35.379221","lng":"139.304417"},{"town":"ふじみ野二丁目","lat":"35.381788","lng":"139.304067"},{"town":"岡崎","lat":"35.374816","lng":"139.303475"},{"town":"真田四丁目","lat":"35.369297","lng":"139.276714"},{"town":"東八幡一丁目","lat":"35.341072","lng":"139.354210"},{"town":"天沼","lat":"35.335700","lng":"139.355342"},{"town":"宮松町","lat":"35.335986","lng":"139.351743"},{"town":"真田三丁目","lat":"35.372534","lng":"139.278023"},{"town":"真田二丁目","lat":"35.370618","lng":"139.281795"},{"town":"真田一丁目","lat":"35.371089","lng":"139.285857"},{"town":"北金目一丁目","lat":"35.368321","lng":"139.283476"},{"town":"北金目二丁目","lat":"35.365173","lng":"139.284190"},{"town":"北金目","lat":"35.365864","lng":"139.289980"},{"town":"北金目三丁目","lat":"35.363386","lng":"139.279885"},{"town":"北金目四丁目","lat":"35.363250","lng":"139.274253"},{"town":"南金目","lat":"35.357958","lng":"139.283252"}]