[{"town":"上郷町","lat":"35.352083","lng":"139.579606"},{"town":"笠間三丁目","lat":"35.360283","lng":"139.532856"},{"town":"桂台西一丁目","lat":"35.358170","lng":"139.561651"},{"town":"桂台北","lat":"35.357838","lng":"139.564559"},{"town":"桂台中","lat":"35.354200","lng":"139.566043"},{"town":"桂台西二丁目","lat":"35.353700","lng":"139.561596"},{"town":"桂台南一丁目","lat":"35.351900","lng":"139.567138"},{"town":"小菅ケ谷町","lat":"35.373185","lng":"139.556640"},{"town":"小菅ケ谷三丁目","lat":"35.373462","lng":"139.553970"},{"town":"本郷台一丁目","lat":"35.371737","lng":"139.547809"},{"town":"本郷台三丁目","lat":"35.375305","lng":"139.544774"},{"town":"本郷台二丁目","lat":"35.370973","lng":"139.545187"},{"town":"笠間四丁目","lat":"35.363363","lng":"139.533500"},{"town":"長倉町","lat":"35.346923","lng":"139.583418"},{"town":"笠間町","lat":"35.363498","lng":"139.537961"},{"town":"小菅ケ谷二丁目","lat":"35.366416","lng":"139.542331"},{"town":"小菅ケ谷一丁目","lat":"35.365911","lng":"139.547620"},{"town":"本郷台四丁目","lat":"35.375944","lng":"139.548375"},{"town":"小菅ケ谷四丁目","lat":"35.378157","lng":"139.552358"},{"town":"亀井町","lat":"35.360227","lng":"139.568278"},{"town":"庄戸二丁目","lat":"35.355430","lng":"139.587965"},{"town":"庄戸三丁目","lat":"35.352272","lng":"139.587793"},{"town":"庄戸一丁目","lat":"35.354426","lng":"139.583783"},{"town":"庄戸五丁目","lat":"35.348829","lng":"139.586281"},{"town":"庄戸四丁目","lat":"35.351650","lng":"139.582515"},{"town":"野七里二丁目","lat":"35.344000","lng":"139.579973"},{"town":"桂台南二丁目","lat":"35.349468","lng":"139.571053"},{"town":"野七里一丁目","lat":"35.349240","lng":"139.577249"},{"town":"上之町","lat":"35.355684","lng":"139.576982"},{"town":"桂台東","lat":"35.355859","lng":"139.569536"},{"town":"笠間二丁目","lat":"35.357962","lng":"139.536004"},{"town":"笠間一丁目","lat":"35.356891","lng":"139.532050"},{"town":"長尾台町","lat":"35.363228","lng":"139.527667"},{"town":"犬山町","lat":"35.355129","lng":"139.572967"},{"town":"尾月","lat":"35.360845","lng":"139.572607"},{"town":"若竹町","lat":"35.367512","lng":"139.569313"},{"town":"公田町","lat":"35.354933","lng":"139.554893"},{"town":"柏陽","lat":"35.367254","lng":"139.555327"},{"town":"鍛冶ケ谷二丁目","lat":"35.369391","lng":"139.560509"},{"town":"小山台二丁目","lat":"35.375917","lng":"139.556270"},{"town":"鍛冶ケ谷町","lat":"35.373119","lng":"139.558398"},{"town":"元大橋一丁目","lat":"35.371020","lng":"139.569223"},{"town":"元大橋二丁目","lat":"35.367314","lng":"139.566841"},{"town":"中野町","lat":"35.363234","lng":"139.561680"},{"town":"鍛冶ケ谷一丁目","lat":"35.368694","lng":"139.564558"},{"town":"桂町","lat":"35.362969","lng":"139.549530"},{"town":"笠間五丁目","lat":"35.360203","lng":"139.541608"},{"town":"長沼町","lat":"35.378659","lng":"139.537675"},{"town":"小山台一丁目","lat":"35.379772","lng":"139.558564"},{"town":"本郷台五丁目","lat":"35.381637","lng":"139.550936"},{"town":"飯島町","lat":"35.371317","lng":"139.537064"},{"town":"田谷町","lat":"35.367658","lng":"139.523066"},{"town":"金井町","lat":"35.375533","lng":"139.526313"},{"town":"東上郷町","lat":"35.359127","lng":"139.583094"}]