[{"town":"中島","lat":"35.328485","lng":"139.375121"},{"town":"茅ヶ崎二丁目","lat":"35.335297","lng":"139.407270"},{"town":"浜竹三丁目","lat":"35.333959","lng":"139.441114"},{"town":"浜之郷","lat":"35.337985","lng":"139.390613"},{"town":"本村二丁目","lat":"35.335459","lng":"139.418042"},{"town":"小桜町","lat":"35.336718","lng":"139.427738"},{"town":"本村三丁目","lat":"35.338268","lng":"139.418785"},{"town":"矢畑","lat":"35.338035","lng":"139.397875"},{"town":"本宿町","lat":"35.339029","lng":"139.438325"},{"town":"代官町","lat":"35.337901","lng":"139.435110"},{"town":"本村四丁目","lat":"35.336533","lng":"139.412593"},{"town":"茅ヶ崎三丁目","lat":"35.338229","lng":"139.405240"},{"town":"今宿","lat":"35.336704","lng":"139.381283"},{"town":"下町屋三丁目","lat":"35.335832","lng":"139.388729"},{"town":"萩園","lat":"35.344395","lng":"139.377864"},{"town":"平太夫新田","lat":"35.341939","lng":"139.371861"},{"town":"中海岸三丁目","lat":"35.319796","lng":"139.402880"},{"town":"東海岸南六丁目","lat":"35.319367","lng":"139.416922"},{"town":"東海岸南四丁目","lat":"35.318547","lng":"139.413108"},{"town":"南湖四丁目","lat":"35.320697","lng":"139.395932"},{"town":"常盤町","lat":"35.325606","lng":"139.438679"},{"town":"出口町","lat":"35.334319","lng":"139.429768"},{"town":"汐見台","lat":"35.321917","lng":"139.436893"},{"town":"富士見町","lat":"35.325799","lng":"139.434410"},{"town":"白浜町","lat":"35.321171","lng":"139.424662"},{"town":"平和町","lat":"35.326855","lng":"139.428886"},{"town":"松浪二丁目","lat":"35.328994","lng":"139.434852"},{"town":"浜竹二丁目","lat":"35.334690","lng":"139.438740"},{"town":"浜須賀","lat":"35.322880","lng":"139.429606"},{"town":"緑が浜","lat":"35.322742","lng":"139.433896"},{"town":"菱沼海岸","lat":"35.320737","lng":"139.420260"},{"town":"松が丘二丁目","lat":"35.327443","lng":"139.424907"},{"town":"浜竹四丁目","lat":"35.330334","lng":"139.440304"},{"town":"美住町","lat":"35.330512","lng":"139.428901"},{"town":"ひばりが丘","lat":"35.334068","lng":"139.424315"},{"town":"東海岸南五丁目","lat":"35.323473","lng":"139.417294"},{"town":"若松町","lat":"35.333214","lng":"139.418291"},{"town":"東海岸北五丁目","lat":"35.326752","lng":"139.417401"},{"town":"東海岸北三丁目","lat":"35.329129","lng":"139.412250"},{"town":"旭が丘","lat":"35.331353","lng":"139.423195"},{"town":"浜竹一丁目","lat":"35.334568","lng":"139.434841"},{"town":"松浪一丁目","lat":"35.331511","lng":"139.435174"},{"town":"東海岸北二丁目","lat":"35.326520","lng":"139.411350"},{"town":"東海岸南一丁目","lat":"35.321201","lng":"139.406916"},{"town":"中海岸二丁目","lat":"35.322853","lng":"139.402935"},{"town":"中海岸一丁目","lat":"35.326015","lng":"139.404008"},{"town":"東海岸北一丁目","lat":"35.326234","lng":"139.406759"},{"town":"中海岸四丁目","lat":"35.320378","lng":"139.398639"},{"town":"本村一丁目","lat":"35.333940","lng":"139.412758"},{"town":"十間坂一丁目","lat":"35.329845","lng":"139.400205"},{"town":"新栄町","lat":"35.330790","lng":"139.404251"},{"town":"東海岸南三丁目","lat":"35.319966","lng":"139.409505"},{"town":"東海岸南二丁目","lat":"35.323392","lng":"139.411603"},{"town":"幸町","lat":"35.330494","lng":"139.409971"},{"town":"元町","lat":"35.332309","lng":"139.408234"},{"town":"南湖三丁目","lat":"35.325915","lng":"139.395888"},{"town":"十間坂二丁目","lat":"35.328644","lng":"139.396673"},{"town":"共恵一丁目","lat":"35.328019","lng":"139.403355"},{"town":"共恵二丁目","lat":"35.325717","lng":"139.400486"},{"town":"茅ヶ崎一丁目","lat":"35.333515","lng":"139.402710"},{"town":"南湖六丁目","lat":"35.318581","lng":"139.393039"},{"town":"南湖七丁目","lat":"35.318497","lng":"139.388585"},{"town":"十間坂三丁目","lat":"35.331148","lng":"139.398233"},{"town":"東海岸北四丁目","lat":"35.329899","lng":"139.417661"},{"town":"松が丘一丁目","lat":"35.327042","lng":"139.421477"},{"town":"南湖一丁目","lat":"35.328809","lng":"139.391829"},{"town":"南湖二丁目","lat":"35.325979","lng":"139.391801"},{"town":"下町屋二丁目","lat":"35.332424","lng":"139.388673"},{"town":"柳島海岸","lat":"35.319363","lng":"139.384327"},{"town":"南湖五丁目","lat":"35.322513","lng":"139.391069"},{"town":"下町屋一丁目","lat":"35.330451","lng":"139.386184"},{"town":"松尾","lat":"35.326390","lng":"139.385760"},{"town":"浜見平","lat":"35.323290","lng":"139.387789"},{"town":"柳島一丁目","lat":"35.326018","lng":"139.383596"},{"town":"柳島","lat":"35.322093","lng":"139.377635"},{"town":"柳島二丁目","lat":"35.325007","lng":"139.380454"},{"town":"みずき三丁目","lat":"35.363380","lng":"139.405809"},{"town":"みずき二丁目","lat":"35.363150","lng":"139.402655"},{"town":"香川七丁目","lat":"35.360856","lng":"139.402692"},{"town":"香川六丁目","lat":"35.357852","lng":"139.401553"},{"town":"香川三丁目","lat":"35.353591","lng":"139.402133"},{"town":"みずき一丁目","lat":"35.361425","lng":"139.399496"},{"town":"みずき四丁目","lat":"35.359626","lng":"139.405395"},{"town":"香川二丁目","lat":"35.356087","lng":"139.405362"},{"town":"円蔵二丁目","lat":"35.344696","lng":"139.406241"},{"town":"香川一丁目","lat":"35.352679","lng":"139.406426"},{"town":"赤松町","lat":"35.340530","lng":"139.441465"},{"town":"松林一丁目","lat":"35.338649","lng":"139.425070"},{"town":"菱沼二丁目","lat":"35.342623","lng":"139.431347"},{"town":"小和田一丁目","lat":"35.339329","lng":"139.429813"},{"town":"小和田二丁目","lat":"35.340114","lng":"139.433867"},{"town":"松林二丁目","lat":"35.341846","lng":"139.425078"},{"town":"茅ヶ崎","lat":"35.339706","lng":"139.408975"},{"town":"高田四丁目","lat":"35.342329","lng":"139.412885"},{"town":"高田三丁目","lat":"35.342708","lng":"139.416503"},{"town":"小和田三丁目","lat":"35.343783","lng":"139.439580"},{"town":"菱沼三丁目","lat":"35.343803","lng":"139.435580"},{"town":"菱沼一丁目","lat":"35.344804","lng":"139.430330"},{"town":"松林三丁目","lat":"35.344319","lng":"139.425207"},{"town":"室田三丁目","lat":"35.341231","lng":"139.420612"},{"town":"室田一丁目","lat":"35.345139","lng":"139.422291"},{"town":"高田五丁目","lat":"35.343812","lng":"139.411515"},{"town":"高田二丁目","lat":"35.345911","lng":"139.416306"},{"town":"高田一丁目","lat":"35.347545","lng":"139.416984"},{"town":"円蔵一丁目","lat":"35.344053","lng":"139.409271"},{"town":"鶴が台","lat":"35.348259","lng":"139.407663"},{"town":"赤羽根","lat":"35.354603","lng":"139.431798"},{"town":"松風台","lat":"35.356321","lng":"139.409509"},{"town":"香川","lat":"35.360687","lng":"139.406942"},{"town":"室田二丁目","lat":"35.343513","lng":"139.420031"},{"town":"本村五丁目","lat":"35.339706","lng":"139.414689"},{"town":"香川四丁目","lat":"35.353983","lng":"139.398085"},{"town":"円蔵","lat":"35.345504","lng":"139.400349"},{"town":"西久保","lat":"35.347977","lng":"139.393594"},{"town":"甘沼","lat":"35.354976","lng":"139.418837"},{"town":"香川五丁目","lat":"35.358411","lng":"139.397793"},{"town":"下寺尾","lat":"35.364457","lng":"139.398917"},{"town":"行谷","lat":"35.370544","lng":"139.410854"},{"town":"堤","lat":"35.364374","lng":"139.425435"},{"town":"芹沢","lat":"35.377617","lng":"139.418424"}]