[{"town":"三九郎","koaza":"","lat":40.590251,"lng":141.38252},{"town":"内山平","koaza":"","lat":40.628545,"lng":141.423777},{"town":"前谷地","koaza":"","lat":40.591067,"lng":141.376857},{"town":"外小橋","koaza":"","lat":40.625814,"lng":141.37448},{"town":"舘越","koaza":"","lat":40.598391,"lng":141.37351},{"town":"萱の前","koaza":"","lat":40.588881,"lng":141.376965},{"town":"風嵐","koaza":"","lat":40.604481,"lng":141.45001},{"town":"青葉一丁目","koaza":"","lat":40.658651,"lng":141.368781},{"town":"青葉十丁目","koaza":"","lat":40.649433,"lng":141.367222},{"town":"青葉二丁目","koaza":"","lat":40.657818,"lng":141.372097},{"town":"青葉三丁目","koaza":"","lat":40.655733,"lng":141.374692},{"town":"青葉四丁目","koaza":"","lat":40.656317,"lng":141.36895},{"town":"青葉五丁目","koaza":"","lat":40.651875,"lng":141.372654},{"town":"青葉六丁目","koaza":"","lat":40.650219,"lng":141.369949},{"town":"青葉七丁目","koaza":"","lat":40.658168,"lng":141.362981},{"town":"青葉八丁目","koaza":"","lat":40.655044,"lng":141.363466},{"town":"青葉九丁目","koaza":"","lat":40.652013,"lng":141.36464},{"town":"赤田前","koaza":"","lat":40.596212,"lng":141.363595},{"town":"秋堂","koaza":"","lat":40.595636,"lng":141.422238},{"town":"明土","koaza":"","lat":40.594855,"lng":141.384607},{"town":"阿光坊","koaza":"","lat":40.60721,"lng":141.378456},{"town":"洗平","koaza":"","lat":40.60385,"lng":141.348695},{"town":"犬毛谷地","koaza":"","lat":40.603599,"lng":141.42059},{"town":"牛込平","koaza":"","lat":40.600833,"lng":141.438087},{"town":"後田","koaza":"","lat":40.598725,"lng":141.437955},{"town":"鶉久保","koaza":"","lat":40.660903,"lng":141.375655},{"town":"鶉久保山","koaza":"","lat":40.659716,"lng":141.395324},{"town":"獺野","koaza":"","lat":40.600449,"lng":141.425832},{"town":"上明堂","koaza":"","lat":40.594781,"lng":141.427814},{"town":"上川原","koaza":"","lat":40.596752,"lng":141.390403},{"town":"上久保","koaza":"","lat":40.647529,"lng":141.377306},{"town":"上前田","koaza":"","lat":40.602918,"lng":141.430235},{"town":"上谷地","koaza":"","lat":40.590907,"lng":141.364166},{"town":"川端","koaza":"","lat":40.59323,"lng":141.42462},{"town":"木崎","koaza":"","lat":40.599372,"lng":141.414252},{"town":"北下田","koaza":"","lat":40.65267,"lng":141.385759},{"town":"木ノ下西","koaza":"","lat":40.642377,"lng":141.372079},{"town":"木ノ下東","koaza":"","lat":40.641358,"lng":141.39444},{"town":"木ノ下南","koaza":"","lat":40.640905,"lng":141.382108},{"town":"黒坂谷地","koaza":"","lat":40.61046,"lng":141.421929},{"town":"小前谷地","koaza":"","lat":40.589502,"lng":141.38635},{"town":"境田","koaza":"","lat":40.589935,"lng":141.412697},{"town":"三本木","koaza":"","lat":40.593448,"lng":141.404932},{"town":"下明堂","koaza":"","lat":40.595862,"lng":141.432359},{"town":"下境","koaza":"","lat":40.588668,"lng":141.422625},{"town":"下前田","koaza":"","lat":40.602929,"lng":141.43363},{"town":"下屋敷","koaza":"","lat":40.600314,"lng":141.444992},{"town":"新助川原","koaza":"","lat":40.595191,"lng":141.435776},{"town":"新田","koaza":"","lat":40.60384,"lng":141.458487},{"town":"神明前","koaza":"","lat":40.60664,"lng":141.368424},{"town":"上水下","koaza":"","lat":40.588062,"lng":141.373567},{"town":"住吉一丁目","koaza":"","lat":40.672361,"lng":141.36496},{"town":"住吉二丁目","koaza":"","lat":40.670609,"lng":141.365966},{"town":"住吉三丁目","koaza":"","lat":40.668462,"lng":141.366734},{"town":"住吉四丁目","koaza":"","lat":40.669208,"lng":141.364999},{"town":"千刈田","koaza":"","lat":40.60616,"lng":141.428982},{"town":"染屋","koaza":"","lat":40.600925,"lng":141.407014},{"town":"高田","koaza":"","lat":40.601446,"lng":141.422479},{"town":"丈の端","koaza":"","lat":40.594088,"lng":141.379604},{"town":"立蛇","koaza":"","lat":40.601651,"lng":141.389164},{"town":"土取","koaza":"","lat":40.602664,"lng":141.42609},{"town":"堤田","koaza":"","lat":40.606087,"lng":141.438296},{"town":"豊","koaza":"","lat":40.632661,"lng":141.401745},{"town":"豊栄一丁目","koaza":"","lat":40.637328,"lng":141.409848},{"town":"豊栄二丁目","koaza":"","lat":40.643211,"lng":141.412457},{"town":"豊原一丁目","koaza":"","lat":40.635019,"lng":141.378022},{"town":"豊原二丁目","koaza":"","lat":40.63949,"lng":141.369033},{"town":"苗平谷地","koaza":"","lat":40.599899,"lng":141.433457},{"town":"苗振谷地","koaza":"","lat":40.598727,"lng":141.427599},{"town":"中下田","koaza":"","lat":40.601787,"lng":141.396926},{"town":"中平下長根山","koaza":"","lat":40.606678,"lng":141.397711},{"town":"中野平","koaza":"","lat":40.605274,"lng":141.419008},{"town":"中谷地","koaza":"","lat":40.595667,"lng":141.370895},{"town":"菜飯","koaza":"","lat":40.600113,"lng":141.417966},{"town":"西後谷地","koaza":"","lat":40.612849,"lng":141.405709},{"town":"新敷","koaza":"","lat":40.604139,"lng":141.357977},{"town":"西下川原","koaza":"","lat":40.598728,"lng":141.38265},{"town":"西下谷地","koaza":"","lat":40.586227,"lng":141.398605},{"town":"西前川原","koaza":"","lat":40.596287,"lng":141.39567},{"town":"沼小屋","koaza":"","lat":40.585292,"lng":141.410706},{"town":"沼端","koaza":"","lat":40.607153,"lng":141.450756},{"town":"馳下り","koaza":"","lat":40.596907,"lng":141.398802},{"town":"浜道","koaza":"","lat":40.647982,"lng":141.404574},{"town":"東後谷地","koaza":"","lat":40.608069,"lng":141.44779},{"town":"東下川原","koaza":"","lat":40.603683,"lng":141.462042},{"town":"東下谷地","koaza":"","lat":40.613061,"lng":141.447933},{"town":"東前川原","koaza":"","lat":40.59894,"lng":141.448748},{"town":"彦七川原","koaza":"","lat":40.5913,"lng":141.419348},{"town":"一川目","koaza":"","lat":40.64419,"lng":141.445387},{"town":"一川目一丁目","koaza":"","lat":40.634831,"lng":141.445741},{"town":"一川目二丁目","koaza":"","lat":40.633426,"lng":141.440236},{"town":"一川目三丁目","koaza":"","lat":40.642152,"lng":141.443136},{"town":"一川目四丁目","koaza":"","lat":40.64181,"lng":141.436038},{"town":"深沢一丁目","koaza":"","lat":40.623343,"lng":141.448578},{"town":"深沢二丁目","koaza":"","lat":40.628448,"lng":141.445563},{"town":"深沢平","koaza":"","lat":40.625604,"lng":141.437685},{"town":"瓢","koaza":"","lat":40.616197,"lng":141.354682},{"town":"二川目一丁目","koaza":"","lat":40.649513,"lng":141.435275},{"town":"二川目二丁目","koaza":"","lat":40.652916,"lng":141.435527},{"town":"二川目三丁目","koaza":"","lat":40.656654,"lng":141.435855},{"town":"二川目四丁目","koaza":"","lat":40.665004,"lng":141.431945},{"town":"古間木山","koaza":"","lat":40.647785,"lng":141.364191},{"town":"堀ノ内","koaza":"","lat":40.60291,"lng":141.451954},{"town":"間木","koaza":"","lat":40.59759,"lng":141.408846},{"town":"松原一丁目","koaza":"","lat":40.614228,"lng":141.454217},{"town":"松原二丁目","koaza":"","lat":40.612637,"lng":141.458068},{"town":"緑ヶ丘一丁目","koaza":"","lat":40.665263,"lng":141.365924},{"town":"緑ヶ丘十丁目","koaza":"","lat":40.665267,"lng":141.372163},{"town":"緑ヶ丘二丁目","koaza":"","lat":40.662295,"lng":141.366527},{"town":"緑ヶ丘三丁目","koaza":"","lat":40.660608,"lng":141.366901},{"town":"緑ヶ丘四丁目","koaza":"","lat":40.660682,"lng":141.370374},{"town":"緑ヶ丘五丁目","koaza":"","lat":40.66232,"lng":141.369516},{"town":"緑ヶ丘六丁目","koaza":"","lat":40.664087,"lng":141.368734},{"town":"緑ヶ丘七丁目","koaza":"","lat":40.665997,"lng":141.367728},{"town":"緑ヶ丘八丁目","koaza":"","lat":40.665384,"lng":141.370096},{"town":"緑ヶ丘九丁目","koaza":"","lat":40.662838,"lng":141.37219},{"town":"南下田","koaza":"","lat":40.598215,"lng":141.376076},{"town":"向川原","koaza":"","lat":40.596858,"lng":141.403728},{"town":"向坂","koaza":"","lat":40.61827,"lng":141.423702},{"town":"向平","koaza":"","lat":40.653021,"lng":141.426494},{"town":"向山一丁目","koaza":"","lat":40.620656,"lng":141.372211},{"town":"向山二丁目","koaza":"","lat":40.625637,"lng":141.364603},{"town":"向山三丁目","koaza":"","lat":40.634863,"lng":141.362192},{"town":"向山四丁目","koaza":"","lat":40.62184,"lng":141.377569},{"town":"向山五丁目","koaza":"","lat":40.627882,"lng":141.377569},{"town":"向山東一丁目","koaza":"","lat":40.625136,"lng":141.386875},{"town":"向山東二丁目","koaza":"","lat":40.634624,"lng":141.391869},{"town":"向山東三丁目","koaza":"","lat":40.623806,"lng":141.394603},{"town":"向山東四丁目","koaza":"","lat":40.622477,"lng":141.414548},{"town":"向山南","koaza":"","lat":40.615322,"lng":141.393606},{"town":"山崎","koaza":"","lat":40.619248,"lng":141.405074},{"town":"洋光台一丁目","koaza":"","lat":40.610746,"lng":141.441085},{"town":"洋光台二丁目","koaza":"","lat":40.612642,"lng":141.440927},{"town":"洋光台三丁目","koaza":"","lat":40.611796,"lng":141.438022},{"town":"洋光台四丁目","koaza":"","lat":40.614043,"lng":141.4398},{"town":"洋光台五丁目","koaza":"","lat":40.61285,"lng":141.43726},{"town":"洋光台六丁目","koaza":"","lat":40.613288,"lng":141.435604},{"town":"若葉一丁目","koaza":"","lat":40.66231,"lng":141.359454},{"town":"若葉十丁目","koaza":"","lat":40.66645,"lng":141.364057},{"town":"若葉二丁目","koaza":"","lat":40.66144,"lng":141.357304},{"town":"若葉三丁目","koaza":"","lat":40.660458,"lng":141.362808},{"town":"若葉四丁目","koaza":"","lat":40.660701,"lng":141.365067},{"town":"若葉五丁目","koaza":"","lat":40.662477,"lng":141.362754},{"town":"若葉六丁目","koaza":"","lat":40.662646,"lng":141.364723},{"town":"若葉七丁目","koaza":"","lat":40.664146,"lng":141.362533},{"town":"若葉八丁目","koaza":"","lat":40.664316,"lng":141.364449},{"town":"若葉九丁目","koaza":"","lat":40.66652,"lng":141.36271}]