[{"town":"愛住町","koaza":"","lat":35.690028,"lng":139.719198},{"town":"赤城下町","koaza":"","lat":35.705625,"lng":139.733786},{"town":"赤城元町","koaza":"","lat":35.704664,"lng":139.736364},{"town":"揚場町","koaza":"","lat":35.70214,"lng":139.742855},{"town":"荒木町","koaza":"","lat":35.690421,"lng":139.723123},{"town":"市谷加賀町一丁目","koaza":"","lat":35.696438,"lng":139.730974},{"town":"市谷加賀町二丁目","koaza":"","lat":35.696825,"lng":139.728614},{"town":"市谷甲良町","koaza":"","lat":35.698878,"lng":139.728113},{"town":"市谷砂土原町一丁目","koaza":"","lat":35.694693,"lng":139.735376},{"town":"市谷砂土原町二丁目","koaza":"","lat":35.695627,"lng":139.735483},{"town":"市谷砂土原町三丁目","koaza":"","lat":35.696844,"lng":139.736692},{"town":"市谷左内町","koaza":"","lat":35.694183,"lng":139.733332},{"town":"市谷鷹匠町","koaza":"","lat":35.695949,"lng":139.733482},{"town":"市谷田町一丁目","koaza":"","lat":35.692921,"lng":139.73631},{"town":"市谷田町二丁目","koaza":"","lat":35.694703,"lng":139.737466},{"town":"市谷田町三丁目","koaza":"","lat":35.696372,"lng":139.738875},{"town":"市谷台町","koaza":"","lat":35.693596,"lng":139.718343},{"town":"市谷長延寺町","koaza":"","lat":35.694317,"lng":139.73457},{"town":"市谷仲之町","koaza":"","lat":35.694719,"lng":139.723009},{"town":"市谷八幡町","koaza":"","lat":35.692142,"lng":139.734458},{"town":"市谷船河原町","koaza":"","lat":35.697993,"lng":139.74006},{"town":"市谷本村町","koaza":"","lat":35.692544,"lng":139.729326},{"town":"市谷薬王寺町","koaza":"","lat":35.696809,"lng":139.725201},{"town":"市谷柳町","koaza":"","lat":35.699274,"lng":139.726406},{"town":"市谷山伏町","koaza":"","lat":35.700056,"lng":139.728198},{"town":"岩戸町","koaza":"","lat":35.701453,"lng":139.737424},{"town":"榎町","koaza":"","lat":35.705152,"lng":139.727718},{"town":"大久保一丁目","koaza":"","lat":35.699644,"lng":139.70496},{"town":"大久保二丁目","koaza":"","lat":35.702675,"lng":139.705706},{"town":"大久保三丁目","koaza":"","lat":35.706817,"lng":139.70517},{"town":"改代町","koaza":"","lat":35.707262,"lng":139.734464},{"town":"神楽河岸","koaza":"","lat":35.700818,"lng":139.743435},{"town":"神楽坂一丁目","koaza":"","lat":35.699633,"lng":139.741932},{"town":"神楽坂二丁目","koaza":"","lat":35.700667,"lng":139.741673},{"town":"神楽坂三丁目","koaza":"","lat":35.701456,"lng":139.740523},{"town":"神楽坂四丁目","koaza":"","lat":35.702219,"lng":139.739927},{"town":"神楽坂五丁目","koaza":"","lat":35.702155,"lng":139.738616},{"town":"神楽坂六丁目","koaza":"","lat":35.703039,"lng":139.737006},{"town":"霞ヶ丘町","koaza":"","lat":35.677073,"lng":139.716292},{"town":"片町","koaza":"","lat":35.692289,"lng":139.724476},{"town":"歌舞伎町一丁目","koaza":"","lat":35.695393,"lng":139.701297},{"town":"歌舞伎町二丁目","koaza":"","lat":35.696556,"lng":139.703825},{"town":"上落合一丁目","koaza":"","lat":35.713484,"lng":139.692431},{"town":"上落合二丁目","koaza":"","lat":35.713504,"lng":139.688107},{"town":"上落合三丁目","koaza":"","lat":35.712522,"lng":139.68372},{"town":"河田町","koaza":"","lat":35.696752,"lng":139.719557},{"town":"喜久井町","koaza":"","lat":35.703728,"lng":139.722061},{"town":"北新宿一丁目","koaza":"","lat":35.699484,"lng":139.693877},{"town":"北新宿二丁目","koaza":"","lat":35.698586,"lng":139.689632},{"town":"北新宿三丁目","koaza":"","lat":35.703853,"lng":139.69098},{"town":"北新宿四丁目","koaza":"","lat":35.706768,"lng":139.691302},{"town":"北町","koaza":"","lat":35.69995,"lng":139.735037},{"town":"北山伏町","koaza":"","lat":35.700081,"lng":139.730101},{"town":"細工町","koaza":"","lat":35.698992,"lng":139.732996},{"town":"左門町","koaza":"","lat":35.685902,"lng":139.720502},{"town":"信濃町","koaza":"","lat":35.682271,"lng":139.719788},{"town":"下落合一丁目","koaza":"","lat":35.715741,"lng":139.699591},{"town":"下落合二丁目","koaza":"","lat":35.718128,"lng":139.702509},{"town":"下落合三丁目","koaza":"","lat":35.721176,"lng":139.701739},{"town":"下落合四丁目","koaza":"","lat":35.719392,"lng":139.696567},{"town":"下宮比町","koaza":"","lat":35.703242,"lng":139.743644},{"town":"白銀町","koaza":"","lat":35.703842,"lng":139.738197},{"town":"新小川町","koaza":"","lat":35.706239,"lng":139.742185},{"town":"新宿一丁目","koaza":"","lat":35.689556,"lng":139.712248},{"town":"新宿二丁目","koaza":"","lat":35.690064,"lng":139.708387},{"town":"新宿三丁目","koaza":"","lat":35.691227,"lng":139.703563},{"town":"新宿四丁目","koaza":"","lat":35.688834,"lng":139.703724},{"town":"新宿五丁目","koaza":"","lat":35.693168,"lng":139.707875},{"town":"新宿六丁目","koaza":"","lat":35.695364,"lng":139.709795},{"town":"新宿七丁目","koaza":"","lat":35.699527,"lng":139.710776},{"town":"水道町","koaza":"","lat":35.708049,"lng":139.736088},{"town":"須賀町","koaza":"","lat":35.68524,"lng":139.722118},{"town":"住吉町","koaza":"","lat":35.693058,"lng":139.721362},{"town":"高田馬場一丁目","koaza":"","lat":35.710978,"lng":139.706426},{"town":"高田馬場二丁目","koaza":"","lat":35.712982,"lng":139.707511},{"town":"高田馬場三丁目","koaza":"","lat":35.713475,"lng":139.697204},{"town":"高田馬場四丁目","koaza":"","lat":35.710764,"lng":139.699185},{"town":"箪笥町","koaza":"","lat":35.700527,"lng":139.734843},{"town":"大京町","koaza":"","lat":35.683849,"lng":139.717044},{"town":"築地町","koaza":"","lat":35.705976,"lng":139.735788},{"town":"津久戸町","koaza":"","lat":35.703229,"lng":139.741231},{"town":"筑土八幡町","koaza":"","lat":35.704248,"lng":139.740147},{"town":"天神町","koaza":"","lat":35.705445,"lng":139.730652},{"town":"戸塚町一丁目","koaza":"","lat":35.709843,"lng":139.722149},{"town":"富久町","koaza":"","lat":35.693492,"lng":139.714956},{"town":"戸山一丁目","koaza":"","lat":35.703747,"lng":139.718015},{"town":"戸山二丁目","koaza":"","lat":35.702734,"lng":139.712125},{"town":"戸山三丁目","koaza":"","lat":35.706289,"lng":139.712518},{"town":"内藤町","koaza":"","lat":35.685704,"lng":139.711617},{"town":"中井一丁目","koaza":"","lat":35.714969,"lng":139.684236},{"town":"中井二丁目","koaza":"","lat":35.716427,"lng":139.683826},{"town":"中落合一丁目","koaza":"","lat":35.717139,"lng":139.69024},{"town":"中落合二丁目","koaza":"","lat":35.719492,"lng":139.692223},{"town":"中落合三丁目","koaza":"","lat":35.720805,"lng":139.688752},{"town":"中落合四丁目","koaza":"","lat":35.71887,"lng":139.683508},{"town":"中里町","koaza":"","lat":35.705958,"lng":139.731867},{"town":"中町","koaza":"","lat":35.699231,"lng":139.735864},{"town":"納戸町","koaza":"","lat":35.69752,"lng":139.733051},{"town":"西落合一丁目","koaza":"","lat":35.721082,"lng":139.681274},{"town":"西落合二丁目","koaza":"","lat":35.720912,"lng":139.676389},{"town":"西落合三丁目","koaza":"","lat":35.724182,"lng":139.678924},{"town":"西落合四丁目","koaza":"","lat":35.726893,"lng":139.678379},{"town":"西五軒町","koaza":"","lat":35.706956,"lng":139.737522},{"town":"西新宿一丁目","koaza":"","lat":35.690383,"lng":139.697501},{"town":"西新宿二丁目","koaza":"","lat":35.68945,"lng":139.691774},{"town":"西新宿三丁目","koaza":"","lat":35.684529,"lng":139.689179},{"town":"西新宿四丁目","koaza":"","lat":35.68754,"lng":139.68762},{"town":"西新宿五丁目","koaza":"","lat":35.692885,"lng":139.685558},{"town":"西新宿六丁目","koaza":"","lat":35.693426,"lng":139.690969},{"town":"西新宿七丁目","koaza":"","lat":35.695578,"lng":139.697241},{"town":"西新宿八丁目","koaza":"","lat":35.695779,"lng":139.692462},{"town":"西早稲田一丁目","koaza":"","lat":35.709821,"lng":139.719032},{"town":"西早稲田二丁目","koaza":"","lat":35.708898,"lng":139.713041},{"town":"西早稲田三丁目","koaza":"","lat":35.712085,"lng":139.713796},{"town":"二十騎町","koaza":"","lat":35.698331,"lng":139.730641},{"town":"払方町","koaza":"","lat":35.697266,"lng":139.734844},{"town":"原町一丁目","koaza":"","lat":35.700392,"lng":139.725522},{"town":"原町二丁目","koaza":"","lat":35.700576,"lng":139.723995},{"town":"原町三丁目","koaza":"","lat":35.69977,"lng":139.722755},{"town":"馬場下町","koaza":"","lat":35.706118,"lng":139.719654},{"town":"東榎町","koaza":"","lat":35.705069,"lng":139.729478},{"town":"東五軒町","koaza":"","lat":35.706614,"lng":139.739298},{"town":"百人町一丁目","koaza":"","lat":35.699919,"lng":139.699238},{"town":"百人町二丁目","koaza":"","lat":35.702991,"lng":139.698729},{"town":"百人町三丁目","koaza":"","lat":35.706008,"lng":139.697743},{"town":"百人町四丁目","koaza":"","lat":35.708209,"lng":139.698092},{"town":"袋町","koaza":"","lat":35.700537,"lng":139.738001},{"town":"舟町","koaza":"","lat":35.69007,"lng":139.721116},{"town":"弁天町","koaza":"","lat":35.7032,"lng":139.726729},{"town":"南榎町","koaza":"","lat":35.702102,"lng":139.728968},{"town":"南町","koaza":"","lat":35.698695,"lng":139.736525},{"town":"南元町","koaza":"","lat":35.68065,"lng":139.724021},{"town":"南山伏町","koaza":"","lat":35.699136,"lng":139.731255},{"town":"山吹町","koaza":"","lat":35.707939,"lng":139.729794},{"town":"矢来町","koaza":"","lat":35.702518,"lng":139.732339},{"town":"横寺町","koaza":"","lat":35.701911,"lng":139.73523},{"town":"余丁町","koaza":"","lat":35.696362,"lng":139.71569},{"town":"四谷一丁目","koaza":"","lat":35.685906,"lng":139.728799},{"town":"四谷二丁目","koaza":"","lat":35.687101,"lng":139.725681},{"town":"四谷三丁目","koaza":"","lat":35.688019,"lng":139.720751},{"town":"四谷四丁目","koaza":"","lat":35.688582,"lng":139.716267},{"town":"四谷坂町","koaza":"","lat":35.690599,"lng":139.727178},{"town":"四谷三栄町","koaza":"","lat":35.688757,"lng":139.725668},{"town":"四谷本塩町","koaza":"","lat":35.689053,"lng":139.729776},{"town":"若葉一丁目","koaza":"","lat":35.684268,"lng":139.726541},{"town":"若葉二丁目","koaza":"","lat":35.684961,"lng":139.72478},{"town":"若葉三丁目","koaza":"","lat":35.682624,"lng":139.724309},{"town":"若松町","koaza":"","lat":35.700183,"lng":139.717368},{"town":"若宮町","koaza":"","lat":35.699535,"lng":139.739381},{"town":"早稲田鶴巻町","koaza":"","lat":35.708002,"lng":139.724433},{"town":"早稲田町","koaza":"","lat":35.706063,"lng":139.722353},{"town":"早稲田南町","koaza":"","lat":35.704367,"lng":139.723244}]