[{"town":"池袋一丁目","koaza":"","lat":35.735373,"lng":139.712803},{"town":"池袋二丁目","koaza":"","lat":35.733942,"lng":139.708535},{"town":"池袋三丁目","koaza":"","lat":35.7356,"lng":139.704677},{"town":"池袋四丁目","koaza":"","lat":35.738348,"lng":139.709124},{"town":"池袋本町一丁目","koaza":"","lat":35.739294,"lng":139.71414},{"town":"池袋本町二丁目","koaza":"","lat":35.74171,"lng":139.710158},{"town":"池袋本町三丁目","koaza":"","lat":35.74359,"lng":139.712062},{"town":"池袋本町四丁目","koaza":"","lat":35.743125,"lng":139.715835},{"town":"要町一丁目","koaza":"","lat":35.734891,"lng":139.696193},{"town":"要町二丁目","koaza":"","lat":35.735068,"lng":139.693344},{"town":"要町三丁目","koaza":"","lat":35.738631,"lng":139.688775},{"town":"上池袋一丁目","koaza":"","lat":35.736067,"lng":139.722153},{"town":"上池袋二丁目","koaza":"","lat":35.736414,"lng":139.717312},{"town":"上池袋三丁目","koaza":"","lat":35.739004,"lng":139.719481},{"town":"上池袋四丁目","koaza":"","lat":35.741018,"lng":139.720232},{"town":"北大塚一丁目","koaza":"","lat":35.733016,"lng":139.731991},{"town":"北大塚二丁目","koaza":"","lat":35.733439,"lng":139.728075},{"town":"北大塚三丁目","koaza":"","lat":35.7342,"lng":139.724058},{"town":"駒込一丁目","koaza":"","lat":35.735037,"lng":139.749607},{"town":"駒込二丁目","koaza":"","lat":35.737939,"lng":139.747481},{"town":"駒込三丁目","koaza":"","lat":35.73794,"lng":139.744344},{"town":"駒込四丁目","koaza":"","lat":35.736254,"lng":139.741698},{"town":"駒込五丁目","koaza":"","lat":35.737475,"lng":139.737855},{"town":"駒込六丁目","koaza":"","lat":35.739855,"lng":139.741946},{"town":"駒込七丁目","koaza":"","lat":35.740373,"lng":139.738866},{"town":"巣鴨一丁目","koaza":"","lat":35.73267,"lng":139.740534},{"town":"巣鴨二丁目","koaza":"","lat":35.735016,"lng":139.738576},{"town":"巣鴨三丁目","koaza":"","lat":35.734158,"lng":139.734822},{"town":"巣鴨四丁目","koaza":"","lat":35.737908,"lng":139.731843},{"town":"巣鴨五丁目","koaza":"","lat":35.739794,"lng":139.734395},{"town":"千川一丁目","koaza":"","lat":35.738606,"lng":139.692903},{"town":"千川二丁目","koaza":"","lat":35.741553,"lng":139.692297},{"town":"雑司が谷一丁目","koaza":"","lat":35.72034,"lng":139.720995},{"town":"雑司が谷二丁目","koaza":"","lat":35.719207,"lng":139.71611},{"town":"雑司が谷三丁目","koaza":"","lat":35.72092,"lng":139.714098},{"town":"高田一丁目","koaza":"","lat":35.715147,"lng":139.716155},{"town":"高田二丁目","koaza":"","lat":35.71606,"lng":139.713602},{"town":"高田三丁目","koaza":"","lat":35.715371,"lng":139.708283},{"town":"高松一丁目","koaza":"","lat":35.735859,"lng":139.699759},{"town":"高松二丁目","koaza":"","lat":35.738204,"lng":139.698452},{"town":"高松三丁目","koaza":"","lat":35.740831,"lng":139.696884},{"town":"千早一丁目","koaza":"","lat":35.731419,"lng":139.695807},{"town":"千早二丁目","koaza":"","lat":35.733625,"lng":139.690733},{"town":"千早三丁目","koaza":"","lat":35.734635,"lng":139.686677},{"town":"千早四丁目","koaza":"","lat":35.73796,"lng":139.68379},{"town":"長崎一丁目","koaza":"","lat":35.728369,"lng":139.695163},{"town":"長崎二丁目","koaza":"","lat":35.728917,"lng":139.691584},{"town":"長崎三丁目","koaza":"","lat":35.729765,"lng":139.688511},{"town":"長崎四丁目","koaza":"","lat":35.730449,"lng":139.685429},{"town":"長崎五丁目","koaza":"","lat":35.732857,"lng":139.682359},{"town":"長崎六丁目","koaza":"","lat":35.735167,"lng":139.681029},{"town":"西池袋一丁目","koaza":"","lat":35.73023,"lng":139.709358},{"town":"西池袋二丁目","koaza":"","lat":35.726322,"lng":139.705822},{"town":"西池袋三丁目","koaza":"","lat":35.729156,"lng":139.703878},{"town":"西池袋四丁目","koaza":"","lat":35.728239,"lng":139.699124},{"town":"西池袋五丁目","koaza":"","lat":35.731716,"lng":139.702629},{"town":"西巣鴨一丁目","koaza":"","lat":35.737559,"lng":139.72526},{"town":"西巣鴨二丁目","koaza":"","lat":35.739413,"lng":139.728186},{"town":"西巣鴨三丁目","koaza":"","lat":35.741876,"lng":139.728438},{"town":"西巣鴨四丁目","koaza":"","lat":35.743234,"lng":139.73037},{"town":"東池袋一丁目","koaza":"","lat":35.731372,"lng":139.715298},{"town":"東池袋二丁目","koaza":"","lat":35.731821,"lng":139.722747},{"town":"東池袋三丁目","koaza":"","lat":35.73061,"lng":139.719445},{"town":"東池袋四丁目","koaza":"","lat":35.72777,"lng":139.722238},{"town":"東池袋五丁目","koaza":"","lat":35.725931,"lng":139.723063},{"town":"南池袋一丁目","koaza":"","lat":35.727299,"lng":139.711043},{"town":"南池袋二丁目","koaza":"","lat":35.726524,"lng":139.715008},{"town":"南池袋三丁目","koaza":"","lat":35.724211,"lng":139.714618},{"town":"南池袋四丁目","koaza":"","lat":35.722868,"lng":139.720109},{"town":"南大塚一丁目","koaza":"","lat":35.72847,"lng":139.73441},{"town":"南大塚二丁目","koaza":"","lat":35.727839,"lng":139.731129},{"town":"南大塚三丁目","koaza":"","lat":35.729118,"lng":139.727063},{"town":"南長崎一丁目","koaza":"","lat":35.72456,"lng":139.692943},{"town":"南長崎二丁目","koaza":"","lat":35.724878,"lng":139.690299},{"town":"南長崎三丁目","koaza":"","lat":35.725185,"lng":139.687481},{"town":"南長崎四丁目","koaza":"","lat":35.725623,"lng":139.684305},{"town":"南長崎五丁目","koaza":"","lat":35.727961,"lng":139.682395},{"town":"南長崎六丁目","koaza":"","lat":35.730418,"lng":139.679858},{"town":"目白一丁目","koaza":"","lat":35.718985,"lng":139.709554},{"town":"目白二丁目","koaza":"","lat":35.721718,"lng":139.709586},{"town":"目白三丁目","koaza":"","lat":35.723122,"lng":139.705583},{"town":"目白四丁目","koaza":"","lat":35.724323,"lng":139.700196},{"town":"目白五丁目","koaza":"","lat":35.724021,"lng":139.695859}]