[{"town":"大字網代","lat":"33.960940","lng":"135.114544"},{"town":"大字阿戸","lat":"33.952067","lng":"135.117796"},{"town":"大字衣奈","lat":"33.987729","lng":"135.113224"},{"town":"大字江ノ駒","lat":"33.967307","lng":"135.115723"},{"town":"大字大引","lat":"33.970563","lng":"135.087179"},{"town":"大字神谷","lat":"33.959764","lng":"135.084083"},{"town":"大字小引","lat":"33.980167","lng":"135.093859"},{"town":"大字里","lat":"33.961525","lng":"135.129311"},{"town":"大字戸津井","lat":"33.987290","lng":"135.096110"},{"town":"大字中","lat":"33.977060","lng":"135.137084"},{"town":"大字畑","lat":"33.983396","lng":"135.154913"},{"town":"大字吹井","lat":"33.968201","lng":"135.103707"},{"town":"大字三尾川","lat":"33.991805","lng":"135.134057"},{"town":"大字門前","lat":"33.973580","lng":"135.126228"}]