[{"town":"相生町","koaza":"","lat":35.546713,"lng":133.233527},{"town":"上道町","koaza":"","lat":35.540032,"lng":133.237183},{"town":"上道町","koaza":"一本松","lat":35.54273,"lng":133.236833},{"town":"朝日町","koaza":"","lat":35.547163,"lng":133.235739},{"town":"栄町","koaza":"","lat":35.547242,"lng":133.229304},{"town":"京町","koaza":"","lat":35.544875,"lng":133.228245},{"town":"幸神町","koaza":"","lat":35.507481,"lng":133.238788},{"town":"小篠津町","koaza":"","lat":35.502769,"lng":133.23733},{"town":"佐斐神町","koaza":"","lat":35.492995,"lng":133.234821},{"town":"財ノ木町","koaza":"","lat":35.505062,"lng":133.251491},{"town":"三軒屋町","koaza":"","lat":35.509643,"lng":133.230124},{"town":"潮見町","koaza":"","lat":35.551285,"lng":133.268487},{"town":"東雲町","koaza":"","lat":35.545117,"lng":133.238646},{"town":"芝町","koaza":"","lat":35.530511,"lng":133.218594},{"town":"清水町","koaza":"","lat":35.539173,"lng":133.216475},{"town":"昭和町","koaza":"","lat":35.544164,"lng":133.252856},{"town":"末広町","koaza":"","lat":35.545899,"lng":133.231941},{"town":"誠道町","koaza":"","lat":35.516,"lng":133.234495},{"town":"大正町","koaza":"","lat":35.545614,"lng":133.224735},{"town":"高松町","koaza":"","lat":35.516513,"lng":133.243424},{"town":"竹内団地","koaza":"","lat":35.522264,"lng":133.253661},{"town":"竹内町","koaza":"","lat":35.522065,"lng":133.237259},{"town":"外江町","koaza":"","lat":35.531352,"lng":133.209157},{"town":"中海干拓地","koaza":"","lat":35.500412,"lng":133.218172},{"town":"中野町","koaza":"","lat":35.532681,"lng":133.233433},{"town":"中町","koaza":"","lat":35.545875,"lng":133.232681},{"town":"新屋町","koaza":"","lat":35.5143,"lng":133.248262},{"town":"西工業団地","koaza":"","lat":35.527007,"lng":133.201408},{"town":"入船町","koaza":"","lat":35.547218,"lng":133.238738},{"town":"蓮池町","koaza":"","lat":35.540265,"lng":133.224017},{"town":"花町","koaza":"","lat":35.545664,"lng":133.241458},{"town":"浜ノ町","koaza":"","lat":35.544007,"lng":133.222128},{"town":"馬場崎町","koaza":"","lat":35.540427,"lng":133.227113},{"town":"東本町","koaza":"","lat":35.545524,"lng":133.235779},{"town":"日ノ出町","koaza":"","lat":35.54479,"lng":133.230735},{"town":"福定町","koaza":"","lat":35.527199,"lng":133.234184},{"town":"本町","koaza":"","lat":35.546153,"lng":133.230808},{"town":"松ヶ枝町","koaza":"","lat":35.546115,"lng":133.228308},{"town":"岬町","koaza":"","lat":35.545998,"lng":133.24447},{"town":"湊町","koaza":"","lat":35.54179,"lng":133.230269},{"town":"美保町","koaza":"","lat":35.518565,"lng":133.245663},{"town":"麦垣町","koaza":"","lat":35.510013,"lng":133.251269},{"town":"明治町","koaza":"","lat":35.543324,"lng":133.227193},{"town":"元町","koaza":"","lat":35.542415,"lng":133.233928},{"town":"森岡町","koaza":"","lat":35.521677,"lng":133.223275},{"town":"弥生町","koaza":"","lat":35.541946,"lng":133.218967},{"town":"夕日ヶ丘一丁目","koaza":"","lat":35.501951,"lng":133.225016},{"town":"夕日ヶ丘二丁目","koaza":"","lat":35.507679,"lng":133.219194},{"town":"米川町","koaza":"","lat":35.539101,"lng":133.221558},{"town":"渡町","koaza":"","lat":35.515792,"lng":133.214002}]