[{"town":"大字赤松","koaza":"","lat":35.37301,"lng":133.856219},{"town":"大字穴鴨","koaza":"","lat":35.331504,"lng":133.862573},{"town":"大字今泉","koaza":"","lat":35.397253,"lng":133.852132},{"town":"大字大柿","koaza":"","lat":35.372157,"lng":133.845},{"town":"大字大瀬","koaza":"","lat":35.413544,"lng":133.868325},{"town":"大字大谷","koaza":"","lat":35.27461,"lng":133.827919},{"town":"大字小河内","koaza":"","lat":35.366457,"lng":133.900011},{"town":"大字恩地","koaza":"","lat":35.360782,"lng":133.855928},{"town":"大字柿谷","koaza":"","lat":35.354415,"lng":133.913182},{"town":"大字片柴","koaza":"","lat":35.419086,"lng":133.919988},{"town":"大字加谷","koaza":"","lat":35.308703,"lng":133.859801},{"town":"大字鎌田","koaza":"","lat":35.390543,"lng":133.887351},{"town":"大字上西谷","koaza":"","lat":35.315466,"lng":133.814867},{"town":"大字神倉","koaza":"","lat":35.366686,"lng":133.957734},{"town":"大字木地山","koaza":"","lat":35.31577,"lng":133.901478},{"town":"大字久原","koaza":"","lat":35.349188,"lng":133.835456},{"town":"大字坂本","koaza":"","lat":35.414343,"lng":133.942885},{"town":"大字下谷","koaza":"","lat":35.376206,"lng":133.899968},{"town":"大字下西谷","koaza":"","lat":35.323352,"lng":133.825961},{"town":"大字下畑","koaza":"","lat":35.301677,"lng":133.809634},{"town":"大字助谷","koaza":"","lat":35.355703,"lng":133.851119},{"town":"大字砂原","koaza":"","lat":35.400405,"lng":133.900046},{"town":"大字曹源寺","koaza":"","lat":35.338955,"lng":133.829405},{"town":"大字高橋","koaza":"","lat":35.389067,"lng":133.924447},{"town":"大字田代","koaza":"","lat":35.292429,"lng":133.846355},{"town":"大字俵原","koaza":"","lat":35.408774,"lng":133.992208},{"town":"大字笏賀","koaza":"","lat":35.358743,"lng":133.877895},{"town":"大字中津","koaza":"","lat":35.368713,"lng":133.998233},{"town":"大字鉛山","koaza":"","lat":35.35169,"lng":133.944337},{"town":"大字西尾","koaza":"","lat":35.390313,"lng":133.91189},{"town":"大字西小鹿","koaza":"","lat":35.378602,"lng":133.925715},{"town":"大字東小鹿","koaza":"","lat":35.382969,"lng":133.943076},{"town":"大字福田","koaza":"","lat":35.37745,"lng":133.880371},{"town":"大字福本","koaza":"","lat":35.313395,"lng":133.785587},{"town":"大字福山","koaza":"","lat":35.332975,"lng":133.801219},{"town":"大字福吉","koaza":"","lat":35.346787,"lng":133.897033},{"town":"大字牧","koaza":"","lat":35.379168,"lng":133.839767},{"town":"大字三朝","koaza":"","lat":35.410999,"lng":133.894757},{"town":"大字三徳","koaza":"","lat":35.405348,"lng":133.964789},{"town":"大字本泉","koaza":"","lat":35.394736,"lng":133.865334},{"town":"大字森","koaza":"","lat":35.399687,"lng":133.871536},{"town":"大字山田","koaza":"","lat":35.417503,"lng":133.889318},{"town":"大字湯谷","koaza":"","lat":35.381151,"lng":133.862577},{"town":"大字横手","koaza":"","lat":35.409741,"lng":133.88091},{"town":"大字吉尾","koaza":"","lat":35.382402,"lng":133.900873},{"town":"大字吉田","koaza":"","lat":35.397769,"lng":133.926628},{"town":"大字余戸","koaza":"","lat":35.403348,"lng":133.908611}]