[{"town":"字道田中","lat":"38.039208","lng":"140.864107"},{"town":"字道田東","lat":"38.039884","lng":"140.865535"},{"town":"字亀井戸","lat":"38.030532","lng":"140.855377"},{"town":"字旭","lat":"38.029252","lng":"140.852658"},{"town":"字茨田後","lat":"38.038051","lng":"140.862230"},{"town":"字境堤","lat":"38.023641","lng":"140.854268"},{"town":"字見田内","lat":"38.040095","lng":"140.851929"},{"town":"字倉庭","lat":"38.040645","lng":"140.848883"},{"town":"字五日町","lat":"38.036902","lng":"140.854728"},{"town":"字台田","lat":"38.025751","lng":"140.854328"},{"town":"字北新町","lat":"38.039284","lng":"140.856884"},{"town":"字中町","lat":"38.034105","lng":"140.854251"},{"town":"字旭山","lat":"38.028448","lng":"140.850911"},{"town":"字上町","lat":"38.031264","lng":"140.854316"},{"town":"字南町","lat":"38.028317","lng":"140.853188"},{"town":"字道田西","lat":"38.039461","lng":"140.860144"},{"town":"逢隈","lat":"38.067090","lng":"140.858873"},{"town":"字下小路","lat":"38.036691","lng":"140.852755"},{"town":"字堀ノ内","lat":"38.025639","lng":"140.852158"},{"town":"字旧舘","lat":"38.034468","lng":"140.850598"},{"town":"字桜小路","lat":"38.040855","lng":"140.853404"},{"town":"字新井町","lat":"38.040779","lng":"140.854941"},{"town":"字鳥居前","lat":"38.037453","lng":"140.843708"},{"town":"逢隈鷺屋","lat":"38.056436","lng":"140.878856"},{"town":"字新町","lat":"38.037039","lng":"140.857483"},{"town":"字先達前","lat":"38.039135","lng":"140.847990"},{"town":"字悠里","lat":"38.044044","lng":"140.869338"},{"town":"字南町東","lat":"38.026736","lng":"140.856069"},{"town":"字中町東","lat":"38.034194","lng":"140.858072"},{"town":"字下浜街道","lat":"38.031469","lng":"140.868931"},{"town":"字上中野地","lat":"38.026460","lng":"140.863654"},{"town":"字狐塚","lat":"38.037138","lng":"140.868868"},{"town":"字下中野地","lat":"38.026706","lng":"140.867085"},{"town":"字西郷","lat":"38.041035","lng":"140.862297"},{"town":"字上茨田","lat":"38.035926","lng":"140.861953"},{"town":"字北新田","lat":"38.030360","lng":"140.872893"},{"town":"字下茨田","lat":"38.036690","lng":"140.865742"},{"town":"字江下","lat":"38.036936","lng":"140.872133"},{"town":"字東郷","lat":"38.041355","lng":"140.869143"},{"town":"字沼頭","lat":"38.030713","lng":"140.844035"},{"town":"字泉ケ入","lat":"38.027246","lng":"140.846268"},{"town":"字裏城戸","lat":"38.030960","lng":"140.858543"},{"town":"字雪穴","lat":"38.026656","lng":"140.841398"},{"town":"字上浜街道","lat":"38.031286","lng":"140.864622"},{"town":"字南新田","lat":"38.026059","lng":"140.872059"},{"town":"字油田","lat":"38.026259","lng":"140.859641"},{"town":"字芝西","lat":"38.029890","lng":"140.876786"},{"town":"字卑下入","lat":"38.022761","lng":"140.842583"},{"town":"字舘南","lat":"38.030954","lng":"140.849792"},{"town":"字祝田","lat":"38.036071","lng":"140.847463"},{"town":"字愛宕前","lat":"38.034258","lng":"140.839983"},{"town":"字北猿田","lat":"38.031072","lng":"140.832915"},{"town":"字南猿田","lat":"38.026897","lng":"140.835609"},{"town":"字龍円寺前","lat":"38.021328","lng":"140.844081"},{"town":"字上郡","lat":"38.061147","lng":"140.859469"},{"town":"逢隈榎袋","lat":"38.066858","lng":"140.871587"},{"town":"字鹿島","lat":"38.049479","lng":"140.861536"},{"town":"逢隈十文字","lat":"38.069379","lng":"140.882464"},{"town":"字鷺屋","lat":"38.047473","lng":"140.879771"},{"town":"逢隈下郡","lat":"38.065323","lng":"140.856451"},{"town":"字榎袋","lat":"38.060812","lng":"140.867599"},{"town":"逢隈蕨","lat":"38.056709","lng":"140.889172"},{"town":"逢隈鹿島","lat":"38.044389","lng":"140.849450"},{"town":"逢隈上郡","lat":"38.058637","lng":"140.843875"},{"town":"逢隈小山","lat":"38.072442","lng":"140.831872"},{"town":"逢隈神宮寺","lat":"38.050647","lng":"140.845318"},{"town":"逢隈牛袋","lat":"38.078082","lng":"140.888340"},{"town":"逢隈高屋","lat":"38.039768","lng":"140.887855"},{"town":"逢隈田沢","lat":"38.076096","lng":"140.847829"},{"town":"逢隈中泉","lat":"38.086041","lng":"140.880862"},{"town":"荒浜","lat":"38.058768","lng":"140.900363"},{"town":"長瀞","lat":"38.019824","lng":"140.868694"},{"town":"吉田","lat":"38.013137","lng":"140.871359"}]