[{"town":"川内明神横丁","lat":"38.265290","lng":"140.859760"},{"town":"臨済院","lat":"38.285195","lng":"140.827876"},{"town":"大町一丁目","lat":"38.259866","lng":"140.869594"},{"town":"川内亀岡北裏丁","lat":"38.262210","lng":"140.847130"},{"town":"川内大工町","lat":"38.263408","lng":"140.858841"},{"town":"東照宮二丁目","lat":"38.278591","lng":"140.886066"},{"town":"川内山屋敷","lat":"38.258290","lng":"140.846740"},{"town":"川内中ノ瀬町","lat":"38.260270","lng":"140.858424"},{"town":"国分町一丁目","lat":"38.261326","lng":"140.869508"},{"town":"菊田町","lat":"38.284796","lng":"140.847481"},{"town":"吉成台一丁目","lat":"38.293163","lng":"140.823723"},{"town":"貝ケ森二丁目","lat":"38.280318","lng":"140.838382"},{"town":"中山吉成三丁目","lat":"38.297430","lng":"140.817950"},{"town":"愛子東二丁目","lat":"38.273126","lng":"140.774543"},{"town":"小松島一丁目","lat":"38.278128","lng":"140.888015"},{"town":"宮町二丁目","lat":"38.270121","lng":"140.883944"},{"town":"小田原七丁目","lat":"38.271294","lng":"140.889386"},{"town":"花京院二丁目","lat":"38.266876","lng":"140.880931"},{"town":"北目町","lat":"38.254352","lng":"140.877087"},{"town":"台原七丁目","lat":"38.283983","lng":"140.882246"},{"town":"川内澱橋通","lat":"38.265046","lng":"140.857395"},{"town":"貝ケ森五丁目","lat":"38.286703","lng":"140.840488"},{"town":"東勝山一丁目","lat":"38.298264","lng":"140.872230"},{"town":"愛子中央六丁目","lat":"38.271861","lng":"140.759145"},{"town":"中山台一丁目","lat":"38.298829","lng":"140.813233"},{"town":"南吉成七丁目","lat":"38.282717","lng":"140.816534"},{"town":"小田原六丁目","lat":"38.271782","lng":"140.886691"},{"town":"春日町","lat":"38.266406","lng":"140.864705"},{"town":"通町一丁目","lat":"38.277570","lng":"140.865283"},{"town":"南吉成四丁目","lat":"38.288538","lng":"140.814926"},{"town":"川平五丁目","lat":"38.306626","lng":"140.832613"},{"town":"花京院一丁目","lat":"38.264514","lng":"140.882140"},{"town":"米ケ袋二丁目","lat":"38.250254","lng":"140.872897"},{"town":"愛子東六丁目","lat":"38.272085","lng":"140.767706"},{"town":"川内川前丁","lat":"38.264225","lng":"140.861052"},{"town":"荒巻本沢一丁目","lat":"38.288586","lng":"140.848758"},{"town":"折立二丁目","lat":"38.267741","lng":"140.806135"},{"town":"宮町三丁目","lat":"38.272811","lng":"140.883305"},{"town":"小田原五丁目","lat":"38.268042","lng":"140.886935"},{"town":"中山台四丁目","lat":"38.297452","lng":"140.809144"},{"town":"宮町五丁目","lat":"38.277196","lng":"140.884681"},{"town":"中山台西","lat":"38.303958","lng":"140.811106"},{"town":"一番町四丁目","lat":"38.264221","lng":"140.871389"},{"town":"川平一丁目","lat":"38.295174","lng":"140.847624"},{"town":"中央三丁目","lat":"38.259482","lng":"140.877777"},{"town":"あけぼの町","lat":"38.288158","lng":"140.864318"},{"town":"愛子中央一丁目","lat":"38.272525","lng":"140.761860"},{"town":"国分町二丁目","lat":"38.263797","lng":"140.868737"},{"town":"錦町二丁目","lat":"38.269587","lng":"140.880795"},{"town":"中央四丁目","lat":"38.257384","lng":"140.879010"},{"town":"梅田町","lat":"38.277923","lng":"140.880593"},{"town":"川内亀岡町","lat":"38.260741","lng":"140.846342"},{"town":"一番町三丁目","lat":"38.261112","lng":"140.872777"},{"town":"中山台三丁目","lat":"38.301794","lng":"140.811710"},{"town":"北根二丁目","lat":"38.296749","lng":"140.876106"},{"town":"双葉ケ丘二丁目","lat":"38.300874","lng":"140.871467"},{"town":"荒巻中央","lat":"38.290760","lng":"140.858587"},{"town":"上杉四丁目","lat":"38.272474","lng":"140.880091"},{"town":"錦町一丁目","lat":"38.268802","lng":"140.876977"},{"town":"中央二丁目","lat":"38.261586","lng":"140.876535"},{"town":"片平一丁目","lat":"38.257246","lng":"140.867312"},{"town":"支倉町","lat":"38.268243","lng":"140.861423"},{"town":"国見ケ丘四丁目","lat":"38.287398","lng":"140.826057"},{"town":"国分町三丁目","lat":"38.267008","lng":"140.868587"},{"town":"北根四丁目","lat":"38.299387","lng":"140.871285"},{"town":"藤松","lat":"38.297161","lng":"140.873473"},{"town":"北根一丁目","lat":"38.293287","lng":"140.874451"},{"town":"愛子中央五丁目","lat":"38.273114","lng":"140.756386"},{"town":"栗生二丁目","lat":"38.267501","lng":"140.796940"},{"town":"南吉成一丁目","lat":"38.286871","lng":"140.821062"},{"town":"南吉成二丁目","lat":"38.284675","lng":"140.820024"},{"town":"中山吉成二丁目","lat":"38.298217","lng":"140.818978"},{"town":"貝ケ森六丁目","lat":"38.283358","lng":"140.844787"},{"town":"台原二丁目","lat":"38.286551","lng":"140.873028"},{"town":"福沢町","lat":"38.274210","lng":"140.887282"},{"town":"栗生四丁目","lat":"38.267532","lng":"140.791876"},{"town":"五橋一丁目","lat":"38.254768","lng":"140.880031"},{"town":"中江一丁目","lat":"38.274755","lng":"140.891044"},{"town":"折立五丁目","lat":"38.260253","lng":"140.805391"},{"town":"大手町","lat":"38.256608","lng":"140.861528"},{"town":"中山九丁目","lat":"38.301022","lng":"140.832610"},{"town":"愛子東一丁目","lat":"38.271351","lng":"140.778964"},{"town":"米ケ袋一丁目","lat":"38.252379","lng":"140.870799"},{"town":"青葉山","lat":"38.260134","lng":"140.856713"},{"town":"通町二丁目","lat":"38.280226","lng":"140.865647"},{"town":"角五郎一丁目","lat":"38.265871","lng":"140.853112"},{"town":"堤町一丁目","lat":"38.282989","lng":"140.870117"},{"town":"昭和町","lat":"38.280720","lng":"140.869957"},{"town":"荒巻本沢二丁目","lat":"38.290058","lng":"140.852970"},{"town":"折立六丁目","lat":"38.261595","lng":"140.802303"},{"town":"大町二丁目","lat":"38.260229","lng":"140.865875"},{"town":"吉成三丁目","lat":"38.290830","lng":"140.818125"},{"town":"小松島三丁目","lat":"38.282955","lng":"140.885022"},{"town":"みやぎ台五丁目","lat":"38.312815","lng":"140.762939"},{"town":"五橋二丁目","lat":"38.251316","lng":"140.879517"},{"town":"愛子中央二丁目","lat":"38.276314","lng":"140.762894"},{"town":"貝ケ森四丁目","lat":"38.284341","lng":"140.837342"},{"town":"一番町二丁目","lat":"38.258723","lng":"140.872272"},{"town":"木町通一丁目","lat":"38.269372","lng":"140.863819"},{"town":"本町三丁目","lat":"38.267944","lng":"140.872751"},{"town":"錦ケ丘二丁目","lat":"38.255380","lng":"140.766913"},{"town":"上杉二丁目","lat":"38.273854","lng":"140.871178"},{"town":"中山吉成一丁目","lat":"38.299606","lng":"140.820041"},{"town":"荒巻本沢三丁目","lat":"38.291283","lng":"140.854981"},{"town":"千代田町","lat":"38.282231","lng":"140.847682"},{"town":"宮町一丁目","lat":"38.267044","lng":"140.884216"},{"town":"水の森一丁目","lat":"38.291180","lng":"140.864052"},{"town":"桜ケ丘二丁目","lat":"38.297389","lng":"140.852730"},{"town":"向田","lat":"38.280041","lng":"140.792732"},{"town":"栗生五丁目","lat":"38.267376","lng":"140.788751"},{"town":"中山台二丁目","lat":"38.301709","lng":"140.815551"},{"town":"国見二丁目","lat":"38.275117","lng":"140.845515"},{"town":"高野原四丁目","lat":"38.289981","lng":"140.755936"},{"town":"台原六丁目","lat":"38.280632","lng":"140.879470"},{"town":"栗生三丁目","lat":"38.267373","lng":"140.794588"},{"town":"小田原八丁目","lat":"38.270719","lng":"140.892504"},{"town":"中山三丁目","lat":"38.291689","lng":"140.836492"},{"town":"葉山町","lat":"38.285024","lng":"140.864642"},{"town":"中江二丁目","lat":"38.271847","lng":"140.894877"},{"town":"高松二丁目","lat":"38.280094","lng":"140.893523"},{"town":"鷺ケ森二丁目","lat":"38.296237","lng":"140.869021"},{"town":"高松三丁目","lat":"38.282192","lng":"140.894374"},{"town":"本町一丁目","lat":"38.265434","lng":"140.878210"},{"town":"落合一丁目","lat":"38.270886","lng":"140.794164"},{"town":"水の森二丁目","lat":"38.292541","lng":"140.860770"},{"town":"国見三丁目","lat":"38.273362","lng":"140.842525"},{"town":"落合三丁目","lat":"38.276059","lng":"140.780599"},{"town":"高松一丁目","lat":"38.277174","lng":"140.890860"},{"town":"堤町二丁目","lat":"38.286106","lng":"140.867628"},{"town":"八幡五丁目","lat":"38.270307","lng":"140.841778"},{"town":"青葉町","lat":"38.282909","lng":"140.864572"},{"town":"宮町四丁目","lat":"38.275267","lng":"140.882975"},{"town":"貝ケ森三丁目","lat":"38.283320","lng":"140.838339"},{"town":"上杉五丁目","lat":"38.274635","lng":"140.876595"},{"town":"桜ケ丘四丁目","lat":"38.301561","lng":"140.851968"},{"town":"米ケ袋三丁目","lat":"38.248859","lng":"140.870214"},{"town":"台原四丁目","lat":"38.285094","lng":"140.876653"},{"town":"錦ケ丘六丁目","lat":"38.252405","lng":"140.761659"},{"town":"北山三丁目","lat":"38.282503","lng":"140.851423"},{"town":"台原一丁目","lat":"38.282258","lng":"140.874497"},{"town":"上杉三丁目","lat":"38.271767","lng":"140.876390"},{"town":"小田原四丁目","lat":"38.268229","lng":"140.890355"},{"town":"中山一丁目","lat":"38.290513","lng":"140.846837"},{"town":"柏木三丁目","lat":"38.276037","lng":"140.855533"},{"town":"西花苑二丁目","lat":"38.262352","lng":"140.799884"},{"town":"高野原三丁目","lat":"38.289740","lng":"140.760969"},{"town":"貝ケ森一丁目","lat":"38.282275","lng":"140.840797"},{"town":"桜ケ丘五丁目","lat":"38.299909","lng":"140.847467"},{"town":"栗生六丁目","lat":"38.267735","lng":"140.784247"},{"town":"みやぎ台四丁目","lat":"38.311256","lng":"140.765232"},{"town":"桜ケ丘六丁目","lat":"38.303282","lng":"140.846310"},{"town":"八幡一丁目","lat":"38.268747","lng":"140.853119"},{"town":"南吉成三丁目","lat":"38.287049","lng":"140.817361"},{"town":"落合六丁目","lat":"38.270458","lng":"140.783808"},{"town":"みやぎ台一丁目","lat":"38.305324","lng":"140.774418"},{"town":"上杉一丁目","lat":"38.270908","lng":"140.871884"},{"town":"桜ケ丘三丁目","lat":"38.300664","lng":"140.855103"},{"town":"二日町","lat":"38.270094","lng":"140.867449"},{"town":"立町","lat":"38.263029","lng":"140.864467"},{"town":"赤坂三丁目","lat":"38.291691","lng":"140.745644"},{"town":"中山七丁目","lat":"38.296068","lng":"140.835249"},{"town":"高野原二丁目","lat":"38.289101","lng":"140.768387"},{"town":"愛子東三丁目","lat":"38.274561","lng":"140.776077"},{"town":"栗生七丁目","lat":"38.268325","lng":"140.778802"},{"town":"八幡三丁目","lat":"38.268425","lng":"140.847279"},{"town":"中山五丁目","lat":"38.293087","lng":"140.843025"},{"town":"錦ケ丘三丁目","lat":"38.252446","lng":"140.766981"},{"town":"国見ケ丘二丁目","lat":"38.292163","lng":"140.827300"},{"town":"木町","lat":"38.278277","lng":"140.861520"},{"town":"中山八丁目","lat":"38.297020","lng":"140.831431"},{"town":"木町通二丁目","lat":"38.272964","lng":"140.865503"},{"town":"本町二丁目","lat":"38.264919","lng":"140.874595"},{"town":"土樋一丁目","lat":"38.248632","lng":"140.876909"},{"town":"子平町","lat":"38.276395","lng":"140.849481"},{"town":"高野原一丁目","lat":"38.285960","lng":"140.771986"},{"town":"八幡二丁目","lat":"38.272252","lng":"140.851829"},{"town":"角五郎二丁目","lat":"38.265872","lng":"140.847507"},{"town":"三条町","lat":"38.279991","lng":"140.852879"},{"town":"東照宮一丁目","lat":"38.279989","lng":"140.885264"},{"town":"折立四丁目","lat":"38.261765","lng":"140.807294"},{"town":"ニッカ","lat":"38.309684","lng":"140.650243"},{"town":"北山二丁目","lat":"38.283205","lng":"140.855383"},{"town":"北根三丁目","lat":"38.300225","lng":"140.877770"},{"town":"桜ケ丘一丁目","lat":"38.297244","lng":"140.848066"},{"town":"北根黒松","lat":"38.305139","lng":"140.879772"},{"town":"国見ケ丘三丁目","lat":"38.288193","lng":"140.829837"},{"town":"吉成二丁目","lat":"38.292981","lng":"140.817377"},{"town":"錦ケ丘八丁目","lat":"38.259087","lng":"140.758272"},{"town":"赤坂一丁目","lat":"38.292573","lng":"140.751520"},{"town":"桜ケ丘八丁目","lat":"38.305500","lng":"140.850359"},{"town":"小松島新堤","lat":"38.285280","lng":"140.894172"},{"town":"柏木二丁目","lat":"38.273063","lng":"140.854863"},{"town":"新坂町","lat":"38.278913","lng":"140.856256"},{"town":"中山六丁目","lat":"38.295844","lng":"140.840301"},{"town":"滝道","lat":"38.293688","lng":"140.849805"},{"town":"中央一丁目","lat":"38.259260","lng":"140.882032"},{"town":"柏木一丁目","lat":"38.275466","lng":"140.863242"},{"town":"愛子中央三丁目","lat":"38.275626","lng":"140.758743"},{"town":"桜ケ丘九丁目","lat":"38.306979","lng":"140.853777"},{"town":"国見ケ丘六丁目","lat":"38.285498","lng":"140.834519"},{"town":"一番町一丁目","lat":"38.256832","lng":"140.873123"},{"town":"広瀬町","lat":"38.268316","lng":"140.858048"},{"town":"国見ケ丘一丁目","lat":"38.293988","lng":"140.829629"},{"town":"荒巻神明町","lat":"38.287388","lng":"140.859515"},{"town":"旭ケ丘三丁目","lat":"38.295570","lng":"140.886606"},{"town":"桜ケ岡公園","lat":"38.261049","lng":"140.861426"},{"town":"愛子東四丁目","lat":"38.275956","lng":"140.770746"},{"town":"星陵町","lat":"38.272896","lng":"140.859437"},{"town":"中山四丁目","lat":"38.292066","lng":"140.839872"},{"town":"落合五丁目","lat":"38.271562","lng":"140.787746"},{"town":"小松島二丁目","lat":"38.282438","lng":"140.889947"},{"town":"川内追廻","lat":"38.255145","lng":"140.860057"},{"town":"愛子中央四丁目","lat":"38.275778","lng":"140.752982"},{"town":"吉成台二丁目","lat":"38.295635","lng":"140.822843"},{"town":"堤通雨宮町","lat":"38.277125","lng":"140.870427"},{"town":"台原三丁目","lat":"38.288860","lng":"140.875047"},{"town":"国見四丁目","lat":"38.277219","lng":"140.841453"},{"town":"台原五丁目","lat":"38.284954","lng":"140.880035"},{"town":"錦ケ丘七丁目","lat":"38.256385","lng":"140.761396"},{"town":"みやぎ台二丁目","lat":"38.307578","lng":"140.772508"},{"town":"南吉成五丁目","lat":"38.290276","lng":"140.812350"},{"town":"折立一丁目","lat":"38.264807","lng":"140.811667"},{"town":"吉成一丁目","lat":"38.290104","lng":"140.823504"},{"town":"八幡四丁目","lat":"38.271830","lng":"140.847130"},{"town":"鷺ケ森一丁目","lat":"38.292314","lng":"140.869607"},{"town":"東勝山二丁目","lat":"38.294577","lng":"140.863385"},{"town":"花壇","lat":"38.253912","lng":"140.863312"},{"town":"みやぎ台三丁目","lat":"38.310673","lng":"140.769119"},{"town":"川平二丁目","lat":"38.299621","lng":"140.843185"},{"town":"山手町","lat":"38.287169","lng":"140.852315"},{"town":"旭ケ丘四丁目","lat":"38.299679","lng":"140.886382"},{"town":"折立三丁目","lat":"38.265261","lng":"140.806362"},{"town":"赤坂二丁目","lat":"38.293149","lng":"140.742747"},{"town":"双葉ケ丘一丁目","lat":"38.303638","lng":"140.875779"},{"town":"桜ケ丘七丁目","lat":"38.307573","lng":"140.846901"},{"town":"国見一丁目","lat":"38.279040","lng":"140.846343"},{"town":"旭ケ丘一丁目","lat":"38.288328","lng":"140.883157"},{"town":"片平二丁目","lat":"38.253115","lng":"140.874344"},{"town":"上杉六丁目","lat":"38.278003","lng":"140.875914"},{"town":"愛子東五丁目","lat":"38.275594","lng":"140.766500"},{"town":"南吉成六丁目","lat":"38.285046","lng":"140.812830"},{"town":"川内元支倉","lat":"38.262988","lng":"140.853101"},{"town":"錦ケ丘五丁目","lat":"38.253116","lng":"140.758147"},{"town":"東勝山三丁目","lat":"38.298650","lng":"140.864598"},{"town":"川内三十人町","lat":"38.263189","lng":"140.844592"},{"town":"中山二丁目","lat":"38.288647","lng":"140.842629"},{"town":"国見五丁目","lat":"38.274692","lng":"140.837299"},{"town":"水の森三丁目","lat":"38.295847","lng":"140.856714"},{"town":"落合二丁目","lat":"38.272598","lng":"140.793572"},{"town":"西花苑一丁目","lat":"38.267053","lng":"140.800358"},{"town":"錦ケ丘四丁目","lat":"38.252262","lng":"140.771996"},{"town":"国見ケ丘五丁目","lat":"38.284136","lng":"140.829028"},{"town":"川平四丁目","lat":"38.303462","lng":"140.835811"},{"town":"堤町三丁目","lat":"38.288475","lng":"140.869593"},{"town":"落合四丁目","lat":"38.274735","lng":"140.785295"},{"town":"霊屋下","lat":"38.252388","lng":"140.866569"},{"town":"国見ケ丘七丁目","lat":"38.289982","lng":"140.834903"},{"town":"北山一丁目","lat":"38.282724","lng":"140.859658"},{"town":"旭ケ丘二丁目","lat":"38.291787","lng":"140.886357"},{"town":"西勝山","lat":"38.300642","lng":"140.839000"},{"town":"栗生一丁目","lat":"38.260969","lng":"140.795574"},{"town":"小松島四丁目","lat":"38.286741","lng":"140.887189"},{"town":"錦ケ丘九丁目","lat":"38.260533","lng":"140.761752"},{"town":"八幡六丁目","lat":"38.268830","lng":"140.833866"},{"town":"川平三丁目","lat":"38.305550","lng":"140.839364"},{"town":"水の森四丁目","lat":"38.301745","lng":"140.860121"},{"town":"八幡七丁目","lat":"38.267798","lng":"140.825638"},{"town":"錦ケ丘一丁目","lat":"38.258108","lng":"140.766548"},{"town":"台原森林公園","lat":"38.293983","lng":"140.879465"},{"town":"国見六丁目","lat":"38.278916","lng":"140.832052"},{"town":"川内","lat":"38.256956","lng":"140.852342"},{"town":"熊ケ根","lat":"38.300320","lng":"140.682696"},{"town":"郷六","lat":"38.264668","lng":"140.819427"},{"town":"茂庭","lat":"38.248923","lng":"140.794941"},{"town":"下愛子","lat":"38.260991","lng":"140.780899"},{"town":"荒巻","lat":"38.257624","lng":"140.834028"},{"town":"新川","lat":"38.310761","lng":"140.604742"},{"town":"上愛子","lat":"38.265357","lng":"140.722533"},{"town":"作並","lat":"38.349778","lng":"140.607472"},{"town":"芋沢","lat":"38.296405","lng":"140.777744"},{"town":"大倉","lat":"38.371907","lng":"140.658771"}]