[{"town":"字鳥屋一","lat":"37.913637","lng":"140.764278"},{"town":"字笹ノ田","lat":"37.905683","lng":"140.774860"},{"town":"字北前","lat":"37.892520","lng":"140.776994"},{"town":"字上滝","lat":"37.871882","lng":"140.786698"},{"town":"字除南","lat":"37.914874","lng":"140.765910"},{"town":"字沼ノ下","lat":"37.909572","lng":"140.772158"},{"town":"字除","lat":"37.916045","lng":"140.763410"},{"town":"字稲場東","lat":"37.890816","lng":"140.774733"},{"town":"字船場","lat":"37.922539","lng":"140.760475"},{"town":"字高見北","lat":"37.917060","lng":"140.694049"},{"town":"字中平西","lat":"37.904579","lng":"140.774498"},{"town":"字畑中","lat":"37.900046","lng":"140.773219"},{"town":"字石渕","lat":"37.912752","lng":"140.777293"},{"town":"字銀杏","lat":"37.899900","lng":"140.769510"},{"town":"字大豆栗","lat":"37.913722","lng":"140.785740"},{"town":"字新町","lat":"37.911236","lng":"140.775412"},{"town":"字虚空蔵下","lat":"37.906068","lng":"140.758279"},{"town":"字菱川内","lat":"37.916442","lng":"140.758648"},{"town":"字後屋敷","lat":"37.898109","lng":"140.771044"},{"town":"字柿木田","lat":"37.902429","lng":"140.772597"},{"town":"字千刈場","lat":"37.914658","lng":"140.768643"},{"town":"字塚田","lat":"37.896098","lng":"140.769623"},{"town":"字和田東","lat":"37.891655","lng":"140.770936"},{"town":"字泉下","lat":"37.896173","lng":"140.776200"},{"town":"字峠境","lat":"37.878383","lng":"140.684968"},{"town":"字飯泉","lat":"37.906445","lng":"140.761699"},{"town":"字新田東","lat":"37.876102","lng":"140.786042"},{"town":"字川端","lat":"37.899430","lng":"140.718443"},{"town":"字山崎前","lat":"37.912413","lng":"140.760090"},{"town":"字峠小屋下","lat":"37.876415","lng":"140.707120"},{"town":"字上矢田","lat":"37.883941","lng":"140.780100"},{"town":"字沼ノ上","lat":"37.906624","lng":"140.772887"},{"town":"字上林南","lat":"37.892444","lng":"140.772001"},{"town":"字小屋根","lat":"37.901074","lng":"140.679514"},{"town":"字町西","lat":"37.914668","lng":"140.760574"},{"town":"字中道","lat":"37.888544","lng":"140.713135"},{"town":"字越釜","lat":"37.896200","lng":"140.674048"},{"town":"字虚空蔵上","lat":"37.906785","lng":"140.753860"},{"town":"字新田西","lat":"37.876096","lng":"140.784818"},{"town":"字立沢南","lat":"37.899709","lng":"140.665202"},{"town":"字高畑","lat":"37.917040","lng":"140.760388"},{"town":"字西窪","lat":"37.897780","lng":"140.669980"},{"town":"字金成","lat":"37.896846","lng":"140.678730"},{"town":"字大畑前","lat":"37.899829","lng":"140.742485"},{"town":"字深田","lat":"37.902091","lng":"140.676441"},{"town":"字田ノ入","lat":"37.903332","lng":"140.680432"},{"town":"字大川口","lat":"37.910333","lng":"140.757998"},{"town":"字町東","lat":"37.914955","lng":"140.762022"},{"town":"字山崎","lat":"37.913098","lng":"140.758622"},{"town":"字神明南","lat":"37.914279","lng":"140.771904"},{"town":"字沼田","lat":"37.904841","lng":"140.772064"},{"town":"字赤堀","lat":"37.893500","lng":"140.775796"},{"town":"字稲場","lat":"37.891803","lng":"140.773844"},{"town":"字福沢前","lat":"37.892933","lng":"140.764116"},{"town":"字羽入","lat":"37.901580","lng":"140.779022"},{"town":"字大目","lat":"37.898725","lng":"140.774562"},{"town":"字荒屋敷","lat":"37.904478","lng":"140.664247"},{"town":"字深田下","lat":"37.892796","lng":"140.748604"},{"town":"字虚空蔵中","lat":"37.906239","lng":"140.756538"},{"town":"字片岸","lat":"37.910764","lng":"140.759991"},{"town":"字蛭田","lat":"37.909804","lng":"140.778064"},{"town":"字下滝","lat":"37.923911","lng":"140.757170"},{"town":"字田町南","lat":"37.918044","lng":"140.762279"},{"town":"字屋敷前","lat":"37.902103","lng":"140.684589"},{"town":"字福沢","lat":"37.893936","lng":"140.763321"},{"town":"字雁歌","lat":"37.908331","lng":"140.761718"},{"town":"字小保田","lat":"37.909406","lng":"140.754723"},{"town":"字火打石","lat":"37.904311","lng":"140.673678"},{"town":"字沢田","lat":"37.912109","lng":"140.753367"},{"town":"字松葉","lat":"37.899411","lng":"140.682678"},{"town":"字越田","lat":"37.903278","lng":"140.778990"},{"town":"字上地","lat":"37.900236","lng":"140.771359"},{"town":"字北原東","lat":"37.907001","lng":"140.663448"},{"town":"字塩ノ貝","lat":"37.893661","lng":"140.678275"},{"town":"字上林東","lat":"37.895259","lng":"140.774354"},{"town":"字塩ノ貝後","lat":"37.895428","lng":"140.677457"},{"town":"字前河原","lat":"37.889146","lng":"140.774565"},{"town":"字森","lat":"37.903124","lng":"140.678529"},{"town":"字大川口前","lat":"37.908744","lng":"140.757805"},{"town":"字五福谷","lat":"37.891877","lng":"140.765238"},{"town":"字広町","lat":"37.886166","lng":"140.716103"},{"town":"字袖五郎","lat":"37.908987","lng":"140.667692"},{"town":"字渕ノ上","lat":"37.910189","lng":"140.774627"},{"town":"字吉田","lat":"37.898932","lng":"140.766401"},{"town":"字熊野","lat":"37.886798","lng":"140.779188"},{"town":"字桜渕","lat":"37.882003","lng":"140.782289"},{"town":"字作田","lat":"37.906934","lng":"140.781543"},{"town":"字中島","lat":"37.893867","lng":"140.769662"},{"town":"字馬渕","lat":"37.885658","lng":"140.760333"},{"town":"字川前","lat":"37.911132","lng":"140.663919"},{"town":"字物見","lat":"37.910377","lng":"140.680577"},{"town":"字上林西","lat":"37.896345","lng":"140.772365"},{"town":"字上野町","lat":"37.900765","lng":"140.717822"},{"town":"字高松","lat":"37.879718","lng":"140.783900"},{"town":"字大古町北","lat":"37.912710","lng":"140.780538"},{"town":"字下矢田","lat":"37.886717","lng":"140.777230"},{"town":"字城東","lat":"37.910817","lng":"140.780514"},{"town":"字大舘二丁目","lat":"37.927010","lng":"140.764840"},{"town":"字山田下","lat":"37.927503","lng":"140.737200"},{"town":"字柳東","lat":"37.905083","lng":"140.770423"},{"town":"字菖蒲","lat":"37.898146","lng":"140.757532"},{"town":"字日向","lat":"37.902173","lng":"140.767301"},{"town":"字小坊木南","lat":"37.897348","lng":"140.673396"},{"town":"字鍜治屋","lat":"37.899319","lng":"140.679875"},{"town":"字七反町","lat":"37.907979","lng":"140.770744"},{"town":"字峠廻戸","lat":"37.876906","lng":"140.705371"},{"town":"字垂松","lat":"37.903024","lng":"140.762431"},{"town":"字平","lat":"37.910548","lng":"140.788141"},{"town":"字日向上","lat":"37.901859","lng":"140.764244"},{"town":"字神明","lat":"37.914902","lng":"140.774202"},{"town":"字梅木坂","lat":"37.896045","lng":"140.754701"},{"town":"字荒田","lat":"37.893635","lng":"140.758919"},{"town":"字大舘一丁目","lat":"37.929268","lng":"140.762032"},{"town":"字中平南","lat":"37.902796","lng":"140.776138"},{"town":"字中沢","lat":"37.913753","lng":"140.692599"},{"town":"字大鹿野","lat":"37.906021","lng":"140.696951"},{"town":"字宮ノ脇","lat":"37.905414","lng":"140.778893"},{"town":"字矢洗","lat":"37.912546","lng":"140.773464"},{"town":"字大舘三丁目","lat":"37.923724","lng":"140.763408"},{"town":"字大巻北","lat":"37.904002","lng":"140.668228"},{"town":"字椚林","lat":"37.902272","lng":"140.673805"},{"town":"字笠松","lat":"37.905184","lng":"140.689291"},{"town":"字新田向","lat":"37.878634","lng":"140.787209"},{"town":"字袖山","lat":"37.911108","lng":"140.667309"},{"town":"字白金","lat":"37.911640","lng":"140.784710"},{"town":"字日照田","lat":"37.908233","lng":"140.665301"},{"town":"字石倉前","lat":"37.882195","lng":"140.779125"},{"town":"字松の平","lat":"37.904468","lng":"140.694763"},{"town":"字大高森","lat":"37.896645","lng":"140.682910"},{"town":"字四反田","lat":"37.897717","lng":"140.767190"},{"town":"字神明東","lat":"37.914886","lng":"140.777614"},{"town":"字北沢","lat":"37.908934","lng":"140.751568"},{"town":"字堂ノ入","lat":"37.890974","lng":"140.760031"},{"town":"字狐石","lat":"37.896744","lng":"140.757852"},{"town":"字峠滝沢","lat":"37.874231","lng":"140.691402"},{"town":"字広平","lat":"37.898910","lng":"140.675810"},{"town":"字敷文西","lat":"37.923885","lng":"140.747372"},{"town":"字柏木","lat":"37.906763","lng":"140.683005"},{"town":"字手掛橋中","lat":"37.894677","lng":"140.723595"},{"town":"字滝原","lat":"37.875454","lng":"140.781536"},{"town":"字板山","lat":"37.911234","lng":"140.749919"},{"town":"字小坊木北","lat":"37.900357","lng":"140.671766"},{"town":"字手掛橋西","lat":"37.895759","lng":"140.720805"},{"town":"字四重麦四","lat":"37.877596","lng":"140.732383"},{"town":"字屋敷","lat":"37.903043","lng":"140.685808"},{"town":"字砂田","lat":"37.891794","lng":"140.684717"},{"town":"字羽入前","lat":"37.900793","lng":"140.778257"},{"town":"字空焼","lat":"37.893507","lng":"140.683018"},{"town":"字愛宕田","lat":"37.910326","lng":"140.767703"},{"town":"字高見南","lat":"37.915698","lng":"140.694638"},{"town":"字立沢北","lat":"37.901790","lng":"140.668354"},{"town":"字土ケ森","lat":"37.902607","lng":"140.753309"},{"town":"字峠前","lat":"37.878177","lng":"140.703033"},{"town":"字向原","lat":"37.889322","lng":"140.765949"},{"town":"字水沢","lat":"37.910148","lng":"140.671896"},{"town":"字花田","lat":"37.910692","lng":"140.763739"},{"town":"字北原南","lat":"37.905480","lng":"140.667987"},{"town":"字竹谷","lat":"37.906308","lng":"140.764447"},{"town":"字羽山","lat":"37.904034","lng":"140.784504"},{"town":"字大巻南","lat":"37.902521","lng":"140.664809"},{"town":"字峠坂下","lat":"37.874056","lng":"140.696619"},{"town":"字中屋敷","lat":"37.917131","lng":"140.750760"},{"town":"字寺内前","lat":"37.906954","lng":"140.787078"},{"town":"字子安","lat":"37.909955","lng":"140.694092"},{"town":"字五本松","lat":"37.898231","lng":"140.722590"},{"town":"字坂上","lat":"37.895968","lng":"140.763841"},{"town":"字石釜","lat":"37.895818","lng":"140.690514"},{"town":"字中平北","lat":"37.906852","lng":"140.775862"},{"town":"字秋柴","lat":"37.896522","lng":"140.730368"},{"town":"木沼","lat":"37.941641","lng":"140.772271"},{"town":"字由縄坂","lat":"37.904645","lng":"140.752298"},{"town":"字除北","lat":"37.916671","lng":"140.767660"},{"town":"字欠入前山","lat":"37.885207","lng":"140.713412"},{"town":"字玉貫","lat":"37.916343","lng":"140.753831"},{"town":"字田町北","lat":"37.920563","lng":"140.761385"},{"town":"字四重麦六","lat":"37.883515","lng":"140.733364"},{"town":"字中ノ内","lat":"37.899410","lng":"140.762669"},{"town":"字羽出庭","lat":"37.906605","lng":"140.679495"},{"town":"字覆盆子原","lat":"37.904605","lng":"140.692399"},{"town":"字萓森","lat":"37.893830","lng":"140.688897"},{"town":"字寺内","lat":"37.907311","lng":"140.783625"},{"town":"舘矢間松掛","lat":"37.941523","lng":"140.755075"},{"town":"字早坂","lat":"37.897237","lng":"140.667175"},{"town":"字角切","lat":"37.894315","lng":"140.672597"},{"town":"字四重麦三","lat":"37.874641","lng":"140.729107"},{"town":"字鳥屋","lat":"37.913411","lng":"140.767068"},{"town":"字平場","lat":"37.907383","lng":"140.672210"},{"town":"字山古谷","lat":"37.886882","lng":"140.782055"},{"town":"字柳","lat":"37.905210","lng":"140.768001"},{"town":"字廻倉","lat":"37.912766","lng":"140.694512"},{"town":"字峠横向","lat":"37.880161","lng":"140.705650"},{"town":"字船越","lat":"37.924971","lng":"140.725001"},{"town":"字欠入上","lat":"37.885230","lng":"140.707923"},{"town":"字敷文東","lat":"37.922627","lng":"140.752282"},{"town":"字うるし原","lat":"37.914436","lng":"140.756365"},{"town":"字峠向","lat":"37.872607","lng":"140.702372"},{"town":"字天王","lat":"37.892534","lng":"140.781586"},{"town":"字峠下","lat":"37.881260","lng":"140.709690"},{"town":"字飯塚","lat":"37.903311","lng":"140.759027"},{"town":"字二本木","lat":"37.913064","lng":"140.789006"},{"town":"字沼","lat":"37.881804","lng":"140.786027"},{"town":"字三瓶内","lat":"37.890012","lng":"140.780885"},{"town":"字切立","lat":"37.890075","lng":"140.748318"},{"town":"字原場","lat":"37.889823","lng":"140.755698"},{"town":"字椚塚","lat":"37.894069","lng":"140.752592"},{"town":"字根子入","lat":"37.907489","lng":"140.748424"},{"town":"山田","lat":"37.933055","lng":"140.760517"},{"town":"字小倉","lat":"37.930671","lng":"140.705640"},{"town":"字滝ノ上","lat":"37.911542","lng":"140.685254"},{"town":"字不動","lat":"37.871266","lng":"140.783282"},{"town":"字四重麦七","lat":"37.887531","lng":"140.731348"},{"town":"字川原田","lat":"37.909172","lng":"140.676844"},{"town":"字黒松","lat":"37.899080","lng":"140.784374"},{"town":"字金ケ作前","lat":"37.898523","lng":"140.752243"},{"town":"字摺臼","lat":"37.883576","lng":"140.717985"},{"town":"字牛子","lat":"37.887312","lng":"140.761708"},{"town":"字欠入菅","lat":"37.892114","lng":"140.710561"},{"town":"字四重麦一","lat":"37.882771","lng":"140.726991"},{"town":"字四重麦二","lat":"37.875720","lng":"140.725480"},{"town":"字金ケ作","lat":"37.897224","lng":"140.745594"},{"town":"字天炉","lat":"37.925609","lng":"140.738149"},{"town":"字坂下","lat":"37.907522","lng":"140.687717"},{"town":"字武士沢","lat":"37.902015","lng":"140.747141"},{"town":"字泉","lat":"37.896172","lng":"140.780833"},{"town":"字岡巻","lat":"37.932852","lng":"140.701635"},{"town":"字和田西","lat":"37.887439","lng":"140.770776"},{"town":"字手掛橋東","lat":"37.894814","lng":"140.726466"},{"town":"字下滝南","lat":"37.920687","lng":"140.755769"},{"town":"字百合沢","lat":"37.922299","lng":"140.743411"},{"town":"字山田上","lat":"37.927735","lng":"140.723260"},{"town":"字砂ノ入","lat":"37.927027","lng":"140.698072"},{"town":"字四重麦五","lat":"37.880466","lng":"140.736646"},{"town":"字上滝西","lat":"37.869189","lng":"140.786429"},{"town":"字深田上","lat":"37.892025","lng":"140.740742"},{"town":"字峠革踏石","lat":"37.876984","lng":"140.722513"},{"town":"字鳥木","lat":"37.889362","lng":"140.692913"},{"town":"字峠橋元","lat":"37.875977","lng":"140.718105"},{"town":"字木落","lat":"37.930108","lng":"140.712645"},{"town":"字関場","lat":"37.890558","lng":"140.705810"},{"town":"字柳田","lat":"37.886600","lng":"140.743003"},{"town":"字大畑","lat":"37.903457","lng":"140.736307"},{"town":"字川田島菅","lat":"37.897098","lng":"140.712532"},{"town":"字欠入下","lat":"37.889803","lng":"140.722157"},{"town":"字曲木","lat":"37.905660","lng":"140.712779"},{"town":"字蕨平","lat":"37.878323","lng":"140.761566"},{"town":"字峠野上","lat":"37.872631","lng":"140.711450"},{"town":"字上滝東","lat":"37.862365","lng":"140.787802"},{"town":"字川田島","lat":"37.905619","lng":"140.723117"},{"town":"字峠上","lat":"37.880934","lng":"140.696768"},{"town":"松掛","lat":"37.941422","lng":"140.764406"},{"town":"字石倉","lat":"37.877793","lng":"140.770934"},{"town":"字石羽","lat":"37.873275","lng":"140.776050"},{"town":"字薄平","lat":"37.878247","lng":"140.751772"},{"town":"字梅木平","lat":"37.910643","lng":"140.734934"},{"town":"舘矢間木沼","lat":"37.945897","lng":"140.783616"},{"town":"字松","lat":"37.905167","lng":"140.703285"},{"town":"字小塚","lat":"37.920110","lng":"140.723576"},{"town":"舘矢間山田","lat":"37.935373","lng":"140.739914"},{"town":"舘矢間舘山","lat":"37.924161","lng":"140.784461"},{"town":"大張大蔵","lat":"37.951404","lng":"140.692286"},{"town":"金山","lat":"37.896632","lng":"140.797901"},{"town":"小斎","lat":"37.918723","lng":"140.821661"},{"town":"大張川張","lat":"37.930758","lng":"140.678886"},{"town":"耕野","lat":"37.922109","lng":"140.650925"},{"town":"大内","lat":"37.854105","lng":"140.821528"},{"town":"筆甫","lat":"37.826695","lng":"140.730840"}]