[{"town":"下新田","lat":"38.911353","lng":"141.547413"},{"town":"一景島","lat":"38.892686","lng":"141.586547"},{"town":"岩ヶ崎","lat":"38.906347","lng":"141.547760"},{"town":"田谷前","lat":"38.900021","lng":"141.563386"},{"town":"南町海岸","lat":"38.905490","lng":"141.575070"},{"town":"反松","lat":"38.885778","lng":"141.550680"},{"town":"黒沢","lat":"38.963274","lng":"141.526084"},{"town":"明戸","lat":"38.901944","lng":"141.551861"},{"town":"南町三丁目","lat":"38.905118","lng":"141.574429"},{"town":"魚町一丁目","lat":"38.907510","lng":"141.576000"},{"town":"浜町二丁目","lat":"38.910280","lng":"141.584679"},{"town":"南町二丁目","lat":"38.905332","lng":"141.573098"},{"town":"八日町二丁目","lat":"38.906937","lng":"141.570738"},{"town":"南町四丁目","lat":"38.903238","lng":"141.575146"},{"town":"新早稲谷","lat":"38.942984","lng":"141.534928"},{"town":"河原田一丁目","lat":"38.900916","lng":"141.576215"},{"town":"浜見山","lat":"38.903373","lng":"141.574087"},{"town":"陣山","lat":"38.909093","lng":"141.577906"},{"town":"化粧坂","lat":"38.904355","lng":"141.564095"},{"town":"三日町二丁目","lat":"38.905317","lng":"141.568079"},{"town":"三日町三丁目","lat":"38.904788","lng":"141.566006"},{"town":"本吉町馬籠町","lat":"38.776163","lng":"141.445377"},{"town":"川畑","lat":"38.898959","lng":"141.567362"},{"town":"魚町二丁目","lat":"38.906913","lng":"141.575236"},{"town":"柏崎","lat":"38.903057","lng":"141.576810"},{"town":"小前見島","lat":"38.850083","lng":"141.638624"},{"town":"南町一丁目","lat":"38.904683","lng":"141.571253"},{"town":"三日町一丁目","lat":"38.908019","lng":"141.567316"},{"town":"太田一丁目","lat":"38.909394","lng":"141.575462"},{"town":"本浜町二丁目","lat":"38.911850","lng":"141.585099"},{"town":"内の脇三丁目","lat":"38.891453","lng":"141.580773"},{"town":"田中前一丁目","lat":"38.893011","lng":"141.563967"},{"town":"新町","lat":"38.906689","lng":"141.564902"},{"town":"沢田","lat":"38.904539","lng":"141.569810"},{"town":"入沢","lat":"38.909222","lng":"141.573308"},{"town":"福美町","lat":"38.909256","lng":"141.565718"},{"town":"最知森合","lat":"38.850340","lng":"141.581928"},{"town":"本吉町泉","lat":"38.767605","lng":"141.504164"},{"town":"唐桑町唯越","lat":"38.931383","lng":"141.633134"},{"town":"神山","lat":"38.891810","lng":"141.567798"},{"town":"本吉町窪","lat":"38.818226","lng":"141.563730"},{"town":"波路上牧","lat":"38.830753","lng":"141.587354"},{"town":"田中前三丁目","lat":"38.891357","lng":"141.559659"},{"town":"八日町一丁目","lat":"38.908352","lng":"141.570285"},{"town":"潮見町二丁目","lat":"38.891991","lng":"141.584309"},{"town":"大前見島","lat":"38.843204","lng":"141.642187"},{"town":"潮見町","lat":"38.893728","lng":"141.582999"},{"town":"川口町二丁目","lat":"38.888515","lng":"141.588399"},{"town":"本町二丁目","lat":"38.902225","lng":"141.562707"},{"town":"長磯浜","lat":"38.838251","lng":"141.588172"},{"town":"長磯前林","lat":"38.840664","lng":"141.577804"},{"town":"波路上向原","lat":"38.827698","lng":"141.578394"},{"town":"波路上向田","lat":"38.828699","lng":"141.580356"},{"town":"波路上崎野","lat":"38.829444","lng":"141.594787"},{"town":"新田","lat":"38.911090","lng":"141.549778"},{"town":"上田中一丁目","lat":"38.888787","lng":"141.554596"},{"town":"長磯牧通","lat":"38.835741","lng":"141.575532"},{"town":"田中前二丁目","lat":"38.891034","lng":"141.564877"},{"town":"東新城三丁目","lat":"38.903296","lng":"141.552657"},{"town":"長磯二本松","lat":"38.832402","lng":"141.575460"},{"town":"長磯後沢","lat":"38.846285","lng":"141.578415"},{"town":"本吉町田の沢","lat":"38.806052","lng":"141.551289"},{"town":"古町四丁目","lat":"38.913648","lng":"141.553719"},{"town":"上田中二丁目","lat":"38.887738","lng":"141.556098"},{"town":"長磯原","lat":"38.835992","lng":"141.580300"},{"town":"太田二丁目","lat":"38.911910","lng":"141.573777"},{"town":"最知川原","lat":"38.854508","lng":"141.581405"},{"town":"本吉町滝根","lat":"38.816442","lng":"141.559251"},{"town":"田中前四丁目","lat":"38.889907","lng":"141.561154"},{"town":"港町","lat":"38.902300","lng":"141.578622"},{"town":"長磯船原","lat":"38.841176","lng":"141.581255"},{"town":"唐桑町港","lat":"38.960807","lng":"141.631638"},{"town":"田谷","lat":"38.896661","lng":"141.565228"},{"town":"古町一丁目","lat":"38.907936","lng":"141.560643"},{"town":"赤岩前田","lat":"38.869322","lng":"141.533583"},{"town":"赤岩舘下","lat":"38.888700","lng":"141.573349"},{"town":"東新城一丁目","lat":"38.907105","lng":"141.551702"},{"town":"波路上原","lat":"38.832121","lng":"141.583053"},{"town":"東新城二丁目","lat":"38.907048","lng":"141.549505"},{"town":"赤岩大滝","lat":"38.879197","lng":"141.536968"},{"town":"長磯下原","lat":"38.838936","lng":"141.583601"},{"town":"本吉町津谷明戸","lat":"38.789248","lng":"141.503273"},{"town":"川口町一丁目","lat":"38.889795","lng":"141.585291"},{"town":"長磯森","lat":"38.846247","lng":"141.582714"},{"town":"赤岩泥ノ木","lat":"38.881792","lng":"141.570109"},{"town":"赤岩平貝","lat":"38.884777","lng":"141.563058"},{"town":"波路上後原","lat":"38.833583","lng":"141.584745"},{"town":"長磯原ノ沢","lat":"38.839064","lng":"141.575786"},{"town":"松崎下赤田","lat":"38.865465","lng":"141.573608"},{"town":"赤岩小田","lat":"38.886975","lng":"141.559783"},{"town":"滝の入","lat":"38.911400","lng":"141.563403"},{"town":"古町二丁目","lat":"38.911419","lng":"141.558094"},{"town":"古町三丁目","lat":"38.909930","lng":"141.555385"},{"town":"松崎馬場","lat":"38.868487","lng":"141.572886"},{"town":"松崎尾崎","lat":"38.869916","lng":"141.586274"},{"town":"舘山二丁目","lat":"38.906608","lng":"141.555729"},{"town":"長磯七半沢","lat":"38.842419","lng":"141.585258"},{"town":"波路上杉ノ下","lat":"38.827050","lng":"141.588082"},{"town":"長磯赤貝","lat":"38.837622","lng":"141.568073"},{"town":"赤岩舘森","lat":"38.888198","lng":"141.576719"},{"town":"本吉町今朝磯","lat":"38.757460","lng":"141.525792"},{"town":"波路上内沼","lat":"38.832691","lng":"141.596576"},{"town":"本吉町土樋下","lat":"38.833136","lng":"141.568585"},{"town":"松川前","lat":"38.913696","lng":"141.545829"},{"town":"駒形","lat":"38.843048","lng":"141.619122"},{"town":"波路上明戸","lat":"38.825461","lng":"141.590307"},{"town":"松崎五駄鱈","lat":"38.876462","lng":"141.575040"},{"town":"赤岩老松","lat":"38.884846","lng":"141.574063"},{"town":"赤岩杉ノ沢","lat":"38.888323","lng":"141.567027"},{"town":"本吉町沖の田","lat":"38.825016","lng":"141.580091"},{"town":"本吉町大森","lat":"38.806105","lng":"141.539107"},{"town":"松崎中瀬","lat":"38.873001","lng":"141.579734"},{"town":"本吉町馬籠町頭","lat":"38.771102","lng":"141.440388"},{"town":"岩月台ノ沢","lat":"38.859533","lng":"141.582656"},{"town":"波路上岩井崎","lat":"38.830816","lng":"141.601151"},{"town":"四反田","lat":"38.900787","lng":"141.558043"},{"town":"松崎丸森","lat":"38.874219","lng":"141.563334"},{"town":"舘山一丁目","lat":"38.903952","lng":"141.558575"},{"town":"本吉町風越","lat":"38.786528","lng":"141.514437"},{"town":"波路上内田","lat":"38.834879","lng":"141.588019"},{"town":"柳沢","lat":"38.911262","lng":"141.525679"},{"town":"波路上瀬向","lat":"38.831626","lng":"141.591445"},{"town":"朝日町","lat":"38.888801","lng":"141.591692"},{"town":"松崎面瀬","lat":"38.865690","lng":"141.557456"},{"town":"松崎猫渕","lat":"38.866266","lng":"141.548813"},{"town":"本吉町天ヶ沢","lat":"38.804529","lng":"141.554389"},{"town":"松崎浦田","lat":"38.877435","lng":"141.580091"},{"town":"前木","lat":"38.915747","lng":"141.493658"},{"town":"赤岩石兜","lat":"38.884443","lng":"141.568750"},{"town":"町裏","lat":"38.912556","lng":"141.569030"},{"town":"波路上野田","lat":"38.829282","lng":"141.582643"},{"town":"要害","lat":"38.846765","lng":"141.615145"},{"town":"赤岩迎前田","lat":"38.864532","lng":"141.532063"},{"town":"唐桑町上川原","lat":"38.934897","lng":"141.626258"},{"town":"松崎地生","lat":"38.872039","lng":"141.563681"},{"town":"松崎上赤田","lat":"38.866231","lng":"141.566542"},{"town":"本吉町赤牛","lat":"38.798657","lng":"141.534578"},{"town":"赤岩港","lat":"38.886643","lng":"141.583070"},{"town":"松崎鶴巻","lat":"38.869295","lng":"141.565728"},{"town":"外畑","lat":"38.863590","lng":"141.620522"},{"town":"浅根","lat":"38.850939","lng":"141.615066"},{"town":"本吉町歌生","lat":"38.754066","lng":"141.523501"},{"town":"長磯中原","lat":"38.835980","lng":"141.570808"},{"town":"松崎萱","lat":"38.877742","lng":"141.569326"},{"town":"松崎前浜","lat":"38.880243","lng":"141.588636"},{"town":"本吉町野々下","lat":"38.822731","lng":"141.574343"},{"town":"大林","lat":"38.911819","lng":"141.537580"},{"town":"本吉町津谷松岡","lat":"38.791235","lng":"141.508131"},{"town":"高井","lat":"38.855682","lng":"141.612904"},{"town":"本吉町津谷松尾","lat":"38.785842","lng":"141.503585"},{"town":"本吉町小金沢","lat":"38.799326","lng":"141.528467"},{"town":"岩月星谷","lat":"38.858546","lng":"141.574466"},{"town":"最知北最知","lat":"38.853729","lng":"141.576861"},{"town":"本吉町直伝","lat":"38.829028","lng":"141.566891"},{"town":"唐桑町竹の袖","lat":"38.966702","lng":"141.632312"},{"town":"本吉町大沢","lat":"38.795265","lng":"141.519878"},{"town":"本吉町小浜","lat":"38.762869","lng":"141.516260"},{"town":"本吉町中平","lat":"38.761339","lng":"141.427228"},{"town":"本吉町大椚","lat":"38.798779","lng":"141.513979"},{"town":"本吉町谷地","lat":"38.800988","lng":"141.538197"},{"town":"松崎片浜","lat":"38.874115","lng":"141.585562"},{"town":"田尻","lat":"38.861993","lng":"141.609797"},{"town":"大向","lat":"38.857884","lng":"141.609403"},{"town":"岩月寺沢","lat":"38.862406","lng":"141.566109"},{"town":"西八幡前","lat":"38.923496","lng":"141.580821"},{"town":"赤岩大石倉","lat":"38.873796","lng":"141.534142"},{"town":"本吉町長根","lat":"38.821242","lng":"141.568078"},{"town":"本吉町蔵内","lat":"38.750587","lng":"141.526312"},{"town":"廻舘","lat":"38.859544","lng":"141.619271"},{"town":"川原崎","lat":"38.907147","lng":"141.544322"},{"town":"本吉町三島","lat":"38.814353","lng":"141.566293"},{"town":"本吉町後田","lat":"38.827862","lng":"141.573427"},{"town":"長崎","lat":"38.855414","lng":"141.621936"},{"town":"岩月千岩田","lat":"38.865382","lng":"141.582306"},{"town":"川崎尻","lat":"38.916127","lng":"141.505653"},{"town":"唐桑町小鯖","lat":"38.886598","lng":"141.648633"},{"town":"三ノ浜","lat":"38.888846","lng":"141.610815"},{"town":"本吉町道外","lat":"38.786145","lng":"141.517518"},{"town":"松崎大萱","lat":"38.863401","lng":"141.546177"},{"town":"田中","lat":"38.889835","lng":"141.553591"},{"town":"磯沢","lat":"38.922015","lng":"141.497462"},{"town":"松崎北沢","lat":"38.882241","lng":"141.584047"},{"town":"唐桑町欠浜","lat":"38.882621","lng":"141.660924"},{"town":"赤岩五駄鱈","lat":"38.882671","lng":"141.577194"},{"town":"唐桑町載鈎","lat":"38.943229","lng":"141.634797"},{"town":"唐桑町上鮪立","lat":"38.887405","lng":"141.642977"},{"town":"田尻沢","lat":"38.909103","lng":"141.534336"},{"town":"本吉町津谷新明戸","lat":"38.790795","lng":"141.500347"},{"town":"本吉町津谷長根","lat":"38.791879","lng":"141.519141"},{"town":"本吉町登米沢","lat":"38.785615","lng":"141.510245"},{"town":"唐桑町大畑","lat":"38.936171","lng":"141.631108"},{"town":"唐桑町堂角","lat":"38.934674","lng":"141.639215"},{"town":"本吉町小金山","lat":"38.774315","lng":"141.449513"},{"town":"唐桑町上小鯖","lat":"38.883533","lng":"141.650598"},{"town":"長磯鳥子沢","lat":"38.842122","lng":"141.574384"},{"town":"本吉町津谷舘岡","lat":"38.796320","lng":"141.508367"},{"town":"岩月箒沢","lat":"38.860634","lng":"141.557849"},{"town":"唐桑町岩井沢","lat":"38.945095","lng":"141.630823"},{"town":"松崎高谷","lat":"38.871239","lng":"141.573988"},{"town":"唐桑町津本","lat":"38.866073","lng":"141.660032"},{"town":"岩月宝ヶ沢","lat":"38.862285","lng":"141.575331"},{"town":"唐桑町出山","lat":"38.958744","lng":"141.637453"},{"town":"唐桑町馬場","lat":"38.904050","lng":"141.648387"},{"town":"本吉町大谷","lat":"38.813964","lng":"141.574561"},{"town":"本吉町二十一浜","lat":"38.755372","lng":"141.518710"},{"town":"本吉町小峰崎","lat":"38.789172","lng":"141.480744"},{"town":"本吉町寺沢","lat":"38.829059","lng":"141.557455"},{"town":"本吉町向畑","lat":"38.777514","lng":"141.441587"},{"town":"本吉町下要害","lat":"38.782023","lng":"141.450422"},{"town":"常楽","lat":"38.893742","lng":"141.557778"},{"town":"唐桑町小田","lat":"38.940491","lng":"141.639295"},{"town":"本吉町山谷","lat":"38.813015","lng":"141.544779"},{"town":"三作浜","lat":"38.841433","lng":"141.630891"},{"town":"本吉町前浜","lat":"38.801108","lng":"141.545496"},{"town":"落合","lat":"38.907079","lng":"141.497867"},{"town":"本吉町大柴","lat":"38.766665","lng":"141.419389"},{"town":"鹿ノ倉","lat":"38.904338","lng":"141.518736"},{"town":"本吉町洞沢","lat":"38.824962","lng":"141.561261"},{"town":"茗荷沢","lat":"38.902211","lng":"141.541880"},{"town":"本吉町深萩","lat":"38.772982","lng":"141.456539"},{"town":"横沼","lat":"38.836059","lng":"141.623505"},{"town":"本吉町岳の下","lat":"38.790664","lng":"141.488781"},{"town":"物倉山","lat":"38.864449","lng":"141.536609"},{"town":"唐桑町北中","lat":"38.897586","lng":"141.651967"},{"town":"本吉町府中","lat":"38.810344","lng":"141.538244"},{"town":"本吉町柳沢","lat":"38.747649","lng":"141.513230"},{"town":"唐桑町小長根","lat":"38.889695","lng":"141.660499"},{"town":"百目木","lat":"38.899460","lng":"141.532269"},{"town":"唐桑町鮪立","lat":"38.893407","lng":"141.642803"},{"town":"小芦","lat":"38.899760","lng":"141.486829"},{"town":"古町","lat":"38.915368","lng":"141.561447"},{"town":"浦の浜","lat":"38.866555","lng":"141.617459"},{"town":"唐桑町明戸","lat":"38.907889","lng":"141.644386"},{"town":"赤岩長柴","lat":"38.879470","lng":"141.532119"},{"town":"長磯大窪","lat":"38.843706","lng":"141.569178"},{"town":"本吉町幸土","lat":"38.800295","lng":"141.523247"},{"town":"上東側","lat":"38.953165","lng":"141.572821"},{"town":"後九条","lat":"38.894174","lng":"141.546094"},{"town":"唐桑町高石浜","lat":"38.917170","lng":"141.647053"},{"town":"外浜","lat":"38.879566","lng":"141.624457"},{"town":"本吉町舘下","lat":"38.794413","lng":"141.481541"},{"town":"本吉町林の沢","lat":"38.804457","lng":"141.514360"},{"town":"西中才","lat":"38.935868","lng":"141.577065"},{"town":"唐桑町中","lat":"38.894579","lng":"141.658426"},{"town":"赤岩水梨子","lat":"38.866117","lng":"141.520153"},{"town":"唐桑町松圃","lat":"38.871692","lng":"141.655784"},{"town":"本吉町大東","lat":"38.770124","lng":"141.426331"},{"town":"二ノ浜","lat":"38.887782","lng":"141.604376"},{"town":"本吉町寺要害","lat":"38.775758","lng":"141.460775"},{"town":"本吉町高岡","lat":"38.800806","lng":"141.497744"},{"town":"磯草","lat":"38.871509","lng":"141.607951"},{"town":"和野","lat":"38.898594","lng":"141.526688"},{"town":"最知荒沢","lat":"38.853870","lng":"141.561244"},{"town":"大初平","lat":"38.869676","lng":"141.626525"},{"town":"唐桑町崎浜","lat":"38.862386","lng":"141.670214"},{"town":"小々汐","lat":"38.894591","lng":"141.599341"},{"town":"金成沢","lat":"38.904111","lng":"141.525532"},{"town":"唐桑町神の倉","lat":"38.872250","lng":"141.665062"},{"town":"中山","lat":"38.846862","lng":"141.624545"},{"town":"唐桑町中井","lat":"38.880012","lng":"141.653674"},{"town":"象ヶ鼻","lat":"38.909478","lng":"141.493417"},{"town":"本吉町津谷桜子","lat":"38.789204","lng":"141.495120"},{"town":"唐桑町境","lat":"38.934610","lng":"141.621232"},{"town":"本吉町長畑","lat":"38.832999","lng":"141.543566"},{"town":"唐桑町宿浦","lat":"38.900256","lng":"141.640906"},{"town":"亀山","lat":"38.875510","lng":"141.615176"},{"town":"岩月長平","lat":"38.856484","lng":"141.555201"},{"town":"長岩間","lat":"38.887382","lng":"141.487560"},{"town":"本吉町信夫","lat":"38.759037","lng":"141.434007"},{"town":"本吉町宮内","lat":"38.789047","lng":"141.467879"},{"town":"本吉町長窪","lat":"38.750514","lng":"141.506483"},{"town":"最知南最知","lat":"38.850570","lng":"141.570022"},{"town":"阿宵月","lat":"38.925568","lng":"141.503823"},{"town":"赤岩四十二","lat":"38.857069","lng":"141.520524"},{"town":"本吉町漆原","lat":"38.786022","lng":"141.448874"},{"town":"所沢","lat":"38.896971","lng":"141.542689"},{"town":"本吉町石川原","lat":"38.836018","lng":"141.556199"},{"town":"唐桑町石浜","lat":"38.915995","lng":"141.636217"},{"town":"切通","lat":"38.915462","lng":"141.534059"},{"town":"本吉町道貫","lat":"38.838284","lng":"141.537853"},{"town":"九条","lat":"38.892079","lng":"141.547863"},{"town":"本吉町角柄","lat":"38.794016","lng":"141.438363"},{"town":"名木沢","lat":"38.926986","lng":"141.494273"},{"town":"大浦","lat":"38.900093","lng":"141.595444"},{"town":"本吉町上野","lat":"38.777623","lng":"141.429429"},{"town":"唐桑町舘","lat":"38.948749","lng":"141.625701"},{"town":"唐桑町浦","lat":"38.906616","lng":"141.632627"},{"town":"本吉町坊の倉","lat":"38.806634","lng":"141.505786"},{"town":"本吉町下川内","lat":"38.803818","lng":"141.481658"},{"town":"瘻槻","lat":"38.883814","lng":"141.526625"},{"town":"本吉町平椚","lat":"38.761350","lng":"141.441140"},{"town":"関根","lat":"38.949430","lng":"141.512267"},{"town":"本吉町中川内","lat":"38.819948","lng":"141.476563"},{"town":"本吉町尾田","lat":"38.794165","lng":"141.452206"},{"town":"東八幡前","lat":"38.921876","lng":"141.586261"},{"town":"角地","lat":"38.972096","lng":"141.504886"},{"town":"唐桑町荒谷前","lat":"38.951924","lng":"141.616005"},{"town":"松川","lat":"38.918804","lng":"141.546540"},{"town":"赤岩高前田","lat":"38.871120","lng":"141.514372"},{"town":"台","lat":"38.937876","lng":"141.513801"},{"town":"本吉町鹿の子","lat":"38.754419","lng":"141.425364"},{"town":"唐桑町台の下","lat":"38.959659","lng":"141.615960"},{"town":"本吉町菖蒲沢","lat":"38.845203","lng":"141.549499"},{"town":"本吉町松ヶ沢","lat":"38.773936","lng":"141.471339"},{"town":"松崎下金取","lat":"38.857394","lng":"141.536861"},{"town":"東中才","lat":"38.936502","lng":"141.581392"},{"town":"唐桑町西舞根","lat":"38.894594","lng":"141.619860"},{"town":"久保","lat":"38.905100","lng":"141.507574"},{"town":"本吉町西川内","lat":"38.812842","lng":"141.468979"},{"town":"赤岩羽田","lat":"38.864608","lng":"141.503226"},{"town":"本吉町狩猟","lat":"38.802946","lng":"141.465279"},{"town":"塚沢","lat":"38.956947","lng":"141.517411"},{"town":"本吉町中沢","lat":"38.803880","lng":"141.447389"},{"town":"本吉町東川内","lat":"38.811756","lng":"141.487954"},{"town":"唐桑町東舞根","lat":"38.908017","lng":"141.614990"},{"town":"本吉町猪の鼻","lat":"38.770052","lng":"141.477631"},{"town":"上東側根","lat":"38.977895","lng":"141.566879"},{"town":"白石","lat":"38.988623","lng":"141.544431"},{"town":"松崎上金取","lat":"38.841947","lng":"141.524525"},{"town":"赤岩上羽田","lat":"38.860990","lng":"141.489368"},{"town":"内松川","lat":"38.931649","lng":"141.548445"},{"town":"唐桑町只越","lat":"38.930619","lng":"141.614302"},{"town":"黒石山","lat":"38.950735","lng":"141.499001"},{"town":"芳ノ口","lat":"38.970847","lng":"141.530178"},{"town":"高判形山","lat":"38.963676","lng":"141.581144"},{"town":"早稲谷","lat":"38.950239","lng":"141.537007"},{"town":"本吉町滝沢","lat":"38.754139","lng":"141.411507"},{"town":"大岩井山","lat":"38.930211","lng":"141.568604"},{"town":"赤岩物見","lat":"38.847797","lng":"141.501061"},{"town":"本吉町午王野沢","lat":"38.758553","lng":"141.454059"},{"town":"下八瀬","lat":"38.927404","lng":"141.520835"},{"town":"上西側","lat":"38.964436","lng":"141.552029"},{"town":"大峠山","lat":"38.942297","lng":"141.602328"},{"town":"渡戸","lat":"38.885365","lng":"141.505464"},{"town":"本吉町上川内","lat":"38.838443","lng":"141.467961"},{"town":"川上","lat":"38.882192","lng":"141.477644"},{"town":"唐桑町釜石下","lat":"38.972135","lng":"141.602974"},{"town":"細尾","lat":"38.986015","lng":"141.508346"},{"town":"本吉町蕨野","lat":"38.760296","lng":"141.488617"},{"town":"本吉町菅の沢","lat":"38.759742","lng":"141.511690"},{"town":"本吉町平貝","lat":"38.760249","lng":"141.504524"},{"town":"本吉町外尾","lat":"38.756423","lng":"141.497015"},{"town":"本吉町南明戸","lat":"38.774880","lng":"141.493606"},{"town":"本吉町新圃の沢","lat":"38.778237","lng":"141.494142"},{"town":"本吉町泉沢","lat":"38.771060","lng":"141.496275"},{"town":"本吉町幣掛","lat":"38.770399","lng":"141.484683"},{"town":"本吉町卯名沢","lat":"38.779922","lng":"141.506432"},{"town":"本吉町圃の沢","lat":"38.780047","lng":"141.498587"},{"town":"本吉町新北明戸","lat":"38.773827","lng":"141.504632"},{"town":"本吉町北明戸","lat":"38.771486","lng":"141.507056"},{"town":"本吉町中島","lat":"38.773123","lng":"141.512707"},{"town":"本吉町下宿","lat":"38.767055","lng":"141.508641"},{"town":"本吉町新南明戸","lat":"38.772371","lng":"141.498657"},{"town":"本吉町川原","lat":"38.772697","lng":"141.502237"},{"town":"松崎外ヶ沢","lat":"38.869866","lng":"141.552286"},{"town":"松崎柳沢","lat":"38.877056","lng":"141.562647"},{"town":"赤岩牧沢","lat":"38.878902","lng":"141.549276"},{"town":"松崎立石","lat":"38.870697","lng":"141.542090"},{"town":"西八幡町","lat":"38.921859","lng":"141.582634"},{"town":"浪板","lat":"38.908537","lng":"141.589384"},{"town":"東みなと町","lat":"38.916772","lng":"141.585127"},{"town":"西みなと町","lat":"38.917808","lng":"141.581092"},{"town":"蔵底","lat":"38.917559","lng":"141.577521"},{"town":"中みなと町","lat":"38.917423","lng":"141.582847"},{"town":"錦町一丁目","lat":"38.914227","lng":"141.582269"},{"town":"錦町二丁目","lat":"38.913845","lng":"141.585026"},{"town":"魚町三丁目","lat":"38.908977","lng":"141.579670"},{"town":"魚浜町","lat":"38.908527","lng":"141.580467"},{"town":"新浜町二丁目","lat":"38.913214","lng":"141.580981"},{"town":"浜町一丁目","lat":"38.910647","lng":"141.581934"},{"town":"本浜町一丁目","lat":"38.912179","lng":"141.582349"},{"town":"栄町","lat":"38.911877","lng":"141.577198"},{"town":"新浜町一丁目","lat":"38.914668","lng":"141.579132"},{"town":"本郷","lat":"38.897088","lng":"141.567599"},{"town":"南郷","lat":"38.892882","lng":"141.571826"},{"town":"本町一丁目","lat":"38.901921","lng":"141.566072"},{"town":"笹が陣","lat":"38.900978","lng":"141.571157"},{"town":"南が丘一丁目","lat":"38.899392","lng":"141.573208"},{"town":"南が丘二丁目","lat":"38.899526","lng":"141.575949"},{"town":"弁天町一丁目","lat":"38.896643","lng":"141.581295"},{"town":"魚市場前","lat":"38.899230","lng":"141.580210"},{"town":"河原田二丁目","lat":"38.900600","lng":"141.575147"},{"town":"幸町三丁目","lat":"38.898657","lng":"141.575666"},{"town":"弁天町二丁目","lat":"38.894787","lng":"141.580577"},{"town":"仲町一丁目","lat":"38.895590","lng":"141.576478"},{"town":"仲町二丁目","lat":"38.897196","lng":"141.577894"},{"town":"幸町四丁目","lat":"38.897210","lng":"141.575260"},{"town":"幸町二丁目","lat":"38.897536","lng":"141.573266"},{"town":"幸町一丁目","lat":"38.898507","lng":"141.573866"},{"town":"内ノ脇","lat":"38.890957","lng":"141.578982"},{"town":"内の脇二丁目","lat":"38.893154","lng":"141.577333"},{"town":"内の脇一丁目","lat":"38.895338","lng":"141.573782"},{"town":"本吉町九多丸","lat":"38.815883","lng":"141.555086"},{"town":"本吉町木戸","lat":"38.817182","lng":"141.549219"},{"town":"本吉町狼の巣","lat":"38.824889","lng":"141.506018"},{"town":"本吉町高","lat":"38.810533","lng":"141.522378"},{"town":"本吉町猿内","lat":"38.815703","lng":"141.539389"},{"town":"本吉町大朴木","lat":"38.810346","lng":"141.531133"},{"town":"本吉町日門","lat":"38.811459","lng":"141.553941"},{"town":"本吉町寺谷","lat":"38.824894","lng":"141.546681"},{"town":"本吉町高瀬ヶ森","lat":"38.813478","lng":"141.547083"}]