[{"town":"寿町","lat":"38.441009","lng":"141.442969"},{"town":"黄金町","lat":"38.441906","lng":"141.444820"},{"town":"笠貝島","lat":"38.423259","lng":"141.594015"},{"town":"桜ケ丘","lat":"38.439085","lng":"141.443406"},{"town":"二股島","lat":"38.404361","lng":"141.552868"},{"town":"旭が丘二丁目","lat":"38.434218","lng":"141.430687"},{"town":"旭が丘一丁目","lat":"38.436124","lng":"141.431749"},{"town":"平島","lat":"38.402195","lng":"141.581559"},{"town":"清水町","lat":"38.453311","lng":"141.443946"},{"town":"足島","lat":"38.388691","lng":"141.603485"},{"town":"江島","lat":"38.399273","lng":"141.593873"},{"town":"竹浦","lat":"38.442768","lng":"141.485506"},{"town":"宮ケ崎","lat":"38.451361","lng":"141.452412"},{"town":"飯子浜","lat":"38.398472","lng":"141.483811"},{"town":"桐ケ崎","lat":"38.444808","lng":"141.475815"},{"town":"鷲神浜","lat":"38.437692","lng":"141.441898"},{"town":"大石原浜","lat":"38.398610","lng":"141.458726"},{"town":"小乗浜","lat":"38.430702","lng":"141.449023"},{"town":"野々浜","lat":"38.391917","lng":"141.468566"},{"town":"石浜","lat":"38.448173","lng":"141.463317"},{"town":"指ケ浜","lat":"38.475618","lng":"141.484359"},{"town":"塚浜","lat":"38.402437","lng":"141.497301"},{"town":"尾浦","lat":"38.453070","lng":"141.486708"},{"town":"出島","lat":"38.450909","lng":"141.523646"},{"town":"横浦","lat":"38.412626","lng":"141.463872"},{"town":"高白浜","lat":"38.423478","lng":"141.462197"},{"town":"針浜","lat":"38.422396","lng":"141.423583"},{"town":"御前浜","lat":"38.472498","lng":"141.465177"},{"town":"浦宿浜","lat":"38.449321","lng":"141.414330"},{"town":"女川浜","lat":"38.462597","lng":"141.429435"}]