[{"town":"雄勝町伊勢畑一丁目","lat":"38.521624","lng":"141.469946"},{"town":"鹿妻本町","lat":"38.425222","lng":"141.342484"},{"town":"鮎川大町","lat":"38.298143","lng":"141.508720"},{"town":"雄勝町下雄勝二丁目","lat":"38.520002","lng":"141.468018"},{"town":"字深淵","lat":"38.441593","lng":"141.287778"},{"town":"字南谷地","lat":"38.437731","lng":"141.281801"},{"town":"雄勝町下雄勝三丁目","lat":"38.518451","lng":"141.466514"},{"town":"雄勝町上雄勝一丁目","lat":"38.515672","lng":"141.464319"},{"town":"垂水町一丁目","lat":"38.425957","lng":"141.368250"},{"town":"雄勝町上雄勝三丁目","lat":"38.513293","lng":"141.461853"},{"town":"新境町一丁目","lat":"38.445644","lng":"141.287483"},{"town":"新境町二丁目","lat":"38.446115","lng":"141.288366"},{"town":"茜平三丁目","lat":"38.449325","lng":"141.264204"},{"town":"垂水町二丁目","lat":"38.427803","lng":"141.368818"},{"town":"雄勝町下雄勝一丁目","lat":"38.520187","lng":"141.465204"},{"town":"元倉二丁目","lat":"38.441999","lng":"141.309980"},{"town":"茜平一丁目","lat":"38.450003","lng":"141.268762"},{"town":"駅前北通り四丁目","lat":"38.437118","lng":"141.299228"},{"town":"貞山二丁目","lat":"38.436368","lng":"141.286802"},{"town":"吉野町三丁目","lat":"38.422804","lng":"141.321201"},{"town":"水押一丁目","lat":"38.444889","lng":"141.301576"},{"town":"東中里三丁目","lat":"38.442187","lng":"141.306509"},{"town":"立町一丁目","lat":"38.432144","lng":"141.307457"},{"town":"駅前北通り三丁目","lat":"38.436994","lng":"141.301273"},{"town":"湊町三丁目","lat":"38.422664","lng":"141.318180"},{"town":"南中里四丁目","lat":"38.439280","lng":"141.295789"},{"town":"緑町二丁目","lat":"38.417267","lng":"141.341791"},{"town":"築山四丁目","lat":"38.424174","lng":"141.274602"},{"town":"吉野町二丁目","lat":"38.424109","lng":"141.320067"},{"town":"南中里一丁目","lat":"38.439835","lng":"141.303732"},{"town":"後生橋","lat":"38.421846","lng":"141.367166"},{"town":"美園一丁目","lat":"38.453476","lng":"141.300202"},{"town":"東中里二丁目","lat":"38.440727","lng":"141.306816"},{"town":"田道町一丁目","lat":"38.436141","lng":"141.295672"},{"town":"雄勝町上雄勝二丁目","lat":"38.515399","lng":"141.465286"},{"town":"立町二丁目","lat":"38.432106","lng":"141.305862"},{"town":"茜平二丁目","lat":"38.450978","lng":"141.265330"},{"town":"鹿妻南四丁目","lat":"38.418514","lng":"141.345830"},{"town":"旭町","lat":"38.437501","lng":"141.309143"},{"town":"中央三丁目","lat":"38.432626","lng":"141.310078"},{"town":"鹿妻北一丁目","lat":"38.422803","lng":"141.343213"},{"town":"中浦二丁目","lat":"38.423963","lng":"141.268828"},{"town":"湊町四丁目","lat":"38.421406","lng":"141.319737"},{"town":"大門町四丁目","lat":"38.418335","lng":"141.322949"},{"town":"中里一丁目","lat":"38.442310","lng":"141.303767"},{"town":"築山二丁目","lat":"38.426913","lng":"141.276187"},{"town":"丸井戸一丁目","lat":"38.444573","lng":"141.284364"},{"town":"鹿妻南五丁目","lat":"38.421130","lng":"141.346004"},{"town":"駅前北通り二丁目","lat":"38.437182","lng":"141.303222"},{"town":"丸井戸二丁目","lat":"38.446050","lng":"141.281292"},{"town":"貞山四丁目","lat":"38.436469","lng":"141.283128"},{"town":"日和が丘三丁目","lat":"38.424149","lng":"141.302656"},{"town":"鹿妻北三丁目","lat":"38.425631","lng":"141.344003"},{"town":"湊町二丁目","lat":"38.424358","lng":"141.316678"},{"town":"三和町","lat":"38.419633","lng":"141.367945"},{"town":"三ツ股一丁目","lat":"38.429174","lng":"141.271589"},{"town":"三ツ股四丁目","lat":"38.423589","lng":"141.270183"},{"town":"大門町三丁目","lat":"38.420087","lng":"141.323043"},{"town":"茜平五丁目","lat":"38.445409","lng":"141.264554"},{"town":"鹿妻南三丁目","lat":"38.418774","lng":"141.343008"},{"town":"わかば三丁目","lat":"38.455049","lng":"141.279244"},{"town":"垂水町三丁目","lat":"38.428610","lng":"141.370946"},{"town":"緑町一丁目","lat":"38.417268","lng":"141.337223"},{"town":"大門町二丁目","lat":"38.418959","lng":"141.319994"},{"town":"宇田川町","lat":"38.421807","lng":"141.369050"},{"town":"わかば一丁目","lat":"38.453521","lng":"141.282159"},{"town":"東中里一丁目","lat":"38.439358","lng":"141.307233"},{"town":"浜松町","lat":"38.417116","lng":"141.358693"},{"town":"日和が丘四丁目","lat":"38.422163","lng":"141.301719"},{"town":"新館一丁目","lat":"38.427745","lng":"141.266961"},{"town":"伊勢町","lat":"38.418443","lng":"141.360135"},{"town":"中浦一丁目","lat":"38.428489","lng":"141.268592"},{"town":"幸町","lat":"38.413943","lng":"141.367003"},{"town":"あけぼの一丁目","lat":"38.451275","lng":"141.274512"},{"town":"明神町二丁目","lat":"38.416859","lng":"141.324009"},{"town":"明神町一丁目","lat":"38.416449","lng":"141.318921"},{"town":"南中里二丁目","lat":"38.439636","lng":"141.301419"},{"town":"末広町","lat":"38.431813","lng":"141.290173"},{"town":"水明北二丁目","lat":"38.444561","lng":"141.317315"},{"town":"南浜町三丁目","lat":"38.417775","lng":"141.301119"},{"town":"中里二丁目","lat":"38.442396","lng":"141.301064"},{"town":"中央一丁目","lat":"38.429242","lng":"141.307746"},{"town":"中央二丁目","lat":"38.430805","lng":"141.308919"},{"town":"鋳銭場","lat":"38.434909","lng":"141.305368"},{"town":"大街道東四丁目","lat":"38.428311","lng":"141.284479"},{"town":"渡波町三丁目","lat":"38.416186","lng":"141.368773"},{"town":"鹿妻南一丁目","lat":"38.420683","lng":"141.340335"},{"town":"大門町一丁目","lat":"38.418936","lng":"141.317893"},{"town":"大街道西三丁目","lat":"38.431699","lng":"141.271830"},{"town":"鹿妻南二丁目","lat":"38.421147","lng":"141.343382"},{"town":"門脇町二丁目","lat":"38.422976","lng":"141.309945"},{"town":"築山三丁目","lat":"38.424266","lng":"141.276263"},{"town":"田道町二丁目","lat":"38.437243","lng":"141.292802"},{"town":"開北三丁目","lat":"38.447548","lng":"141.303793"},{"town":"中里四丁目","lat":"38.441905","lng":"141.294211"},{"town":"中屋敷一丁目","lat":"38.426544","lng":"141.263166"},{"town":"千石町","lat":"38.434968","lng":"141.308559"},{"town":"大街道北一丁目","lat":"38.431066","lng":"141.287303"},{"town":"美園二丁目","lat":"38.454928","lng":"141.299602"},{"town":"渡波町一丁目","lat":"38.418720","lng":"141.364078"},{"town":"湊町一丁目","lat":"38.426228","lng":"141.314312"},{"town":"泉町二丁目","lat":"38.429180","lng":"141.301761"},{"town":"水明北一丁目","lat":"38.443256","lng":"141.318073"},{"town":"大街道南三丁目","lat":"38.423683","lng":"141.281668"},{"town":"大街道南二丁目","lat":"38.425678","lng":"141.281403"},{"town":"清水町一丁目","lat":"38.437041","lng":"141.296914"},{"town":"大街道南四丁目","lat":"38.424641","lng":"141.278531"},{"town":"水明北三丁目","lat":"38.444670","lng":"141.322376"},{"town":"新館三丁目","lat":"38.427285","lng":"141.265125"},{"town":"吉野町一丁目","lat":"38.426111","lng":"141.317701"},{"town":"大街道南一丁目","lat":"38.428490","lng":"141.281538"},{"town":"元倉一丁目","lat":"38.440296","lng":"141.311172"},{"town":"大街道北二丁目","lat":"38.431709","lng":"141.284198"},{"town":"中里七丁目","lat":"38.445062","lng":"141.292294"},{"town":"中屋敷二丁目","lat":"38.422718","lng":"141.264681"},{"town":"川口町二丁目","lat":"38.420109","lng":"141.316274"},{"town":"開北一丁目","lat":"38.444712","lng":"141.306796"},{"town":"南浜町二丁目","lat":"38.417569","lng":"141.303733"},{"town":"大街道北四丁目","lat":"38.434087","lng":"141.279893"},{"town":"大橋三丁目","lat":"38.442766","lng":"141.310668"},{"town":"南中里三丁目","lat":"38.439403","lng":"141.298401"},{"town":"伊原津一丁目","lat":"38.421764","lng":"141.336169"},{"town":"塩富町一丁目","lat":"38.419748","lng":"141.372363"},{"town":"中里三丁目","lat":"38.442513","lng":"141.298380"},{"town":"中里六丁目","lat":"38.443014","lng":"141.290939"},{"town":"宜山町","lat":"38.424835","lng":"141.295238"},{"town":"中里五丁目","lat":"38.443695","lng":"141.295721"},{"town":"渡波町二丁目","lat":"38.417368","lng":"141.365917"},{"town":"八幡町一丁目","lat":"38.429075","lng":"141.313548"},{"town":"大宮町","lat":"38.415526","lng":"141.363891"},{"town":"鹿妻北二丁目","lat":"38.424831","lng":"141.346133"},{"town":"門脇町四丁目","lat":"38.420501","lng":"141.305751"},{"town":"駅前北通り一丁目","lat":"38.437184","lng":"141.306066"},{"town":"塩富町二丁目","lat":"38.422717","lng":"141.371886"},{"town":"大街道南五丁目","lat":"38.428400","lng":"141.278541"},{"town":"向陽町一丁目","lat":"38.447474","lng":"141.282258"},{"town":"万石町","lat":"38.418226","lng":"141.370853"},{"town":"住吉町一丁目","lat":"38.434672","lng":"141.311699"},{"town":"向陽町三丁目","lat":"38.449293","lng":"141.278424"},{"town":"長浜町","lat":"38.412415","lng":"141.363282"},{"town":"川口町三丁目","lat":"38.417233","lng":"141.314689"},{"town":"丸井戸三丁目","lat":"38.447483","lng":"141.277085"},{"town":"泉町一丁目","lat":"38.427393","lng":"141.302020"},{"town":"南浜町四丁目","lat":"38.418094","lng":"141.298331"},{"town":"錦町","lat":"38.435936","lng":"141.290170"},{"town":"向陽町四丁目","lat":"38.452242","lng":"141.278760"},{"town":"松並二丁目","lat":"38.417395","lng":"141.332989"},{"town":"山下町二丁目","lat":"38.430976","lng":"141.292716"},{"town":"美園三丁目","lat":"38.457687","lng":"141.302740"},{"town":"新館二丁目","lat":"38.423290","lng":"141.267201"},{"town":"三ツ股二丁目","lat":"38.427575","lng":"141.271251"},{"town":"清水町二丁目","lat":"38.440725","lng":"141.291193"},{"town":"八幡町二丁目","lat":"38.432322","lng":"141.314031"},{"town":"松原町","lat":"38.414423","lng":"141.359976"},{"town":"向陽町五丁目","lat":"38.452229","lng":"141.276297"},{"town":"日和が丘二丁目","lat":"38.423233","lng":"141.306666"},{"town":"三ツ股三丁目","lat":"38.423541","lng":"141.272552"},{"town":"大街道東一丁目","lat":"38.428185","lng":"141.287783"},{"town":"大街道西二丁目","lat":"38.432309","lng":"141.274678"},{"town":"伊原津二丁目","lat":"38.419705","lng":"141.337285"},{"town":"大街道北三丁目","lat":"38.431286","lng":"141.280746"},{"town":"水押二丁目","lat":"38.446771","lng":"141.299807"},{"town":"貞山一丁目","lat":"38.433535","lng":"141.286912"},{"town":"開北二丁目","lat":"38.445070","lng":"141.303914"},{"town":"西山町","lat":"38.434453","lng":"141.292179"},{"town":"不動町一丁目","lat":"38.434861","lng":"141.315446"},{"town":"築山一丁目","lat":"38.427999","lng":"141.275153"},{"town":"門脇町五丁目","lat":"38.420246","lng":"141.300304"},{"town":"川口町一丁目","lat":"38.422072","lng":"141.314737"},{"town":"新栄二丁目","lat":"38.448317","lng":"141.336896"},{"town":"南浜町一丁目","lat":"38.417171","lng":"141.307158"},{"town":"大街道西一丁目","lat":"38.432908","lng":"141.277313"},{"town":"茜平四丁目","lat":"38.447889","lng":"141.265755"},{"town":"大手町","lat":"38.424509","lng":"141.299382"},{"town":"泉町三丁目","lat":"38.429679","lng":"141.296779"},{"town":"松並一丁目","lat":"38.417493","lng":"141.328569"},{"town":"貞山五丁目","lat":"38.438419","lng":"141.285551"},{"town":"穀町","lat":"38.434257","lng":"141.301374"},{"town":"あけぼの二丁目","lat":"38.450619","lng":"141.272243"},{"town":"貞山三丁目","lat":"38.434774","lng":"141.282834"},{"town":"大街道東三丁目","lat":"38.425091","lng":"141.284866"},{"town":"大橋二丁目","lat":"38.439547","lng":"141.315461"},{"town":"新橋","lat":"38.439537","lng":"141.289342"},{"town":"門脇町三丁目","lat":"38.420021","lng":"141.309097"},{"town":"羽黒町一丁目","lat":"38.430825","lng":"141.303383"},{"town":"南光町一丁目","lat":"38.421880","lng":"141.297510"},{"town":"大街道東二丁目","lat":"38.424971","lng":"141.288275"},{"town":"水押三丁目","lat":"38.445721","lng":"141.296015"},{"town":"日和が丘一丁目","lat":"38.425865","lng":"141.304977"},{"town":"中瀬","lat":"38.428148","lng":"141.310815"},{"town":"向陽町二丁目","lat":"38.450733","lng":"141.281895"},{"town":"新栄一丁目","lat":"38.446380","lng":"141.332434"},{"town":"羽黒町二丁目","lat":"38.431881","lng":"141.298678"},{"town":"住吉町二丁目","lat":"38.437857","lng":"141.312577"},{"town":"山下町一丁目","lat":"38.433299","lng":"141.295482"},{"town":"水明南一丁目","lat":"38.441109","lng":"141.319084"},{"town":"大橋一丁目","lat":"38.444358","lng":"141.311542"},{"town":"双葉町","lat":"38.426547","lng":"141.291380"},{"town":"開北四丁目","lat":"38.448350","lng":"141.306937"},{"town":"不動町二丁目","lat":"38.436856","lng":"141.318145"},{"town":"泉町四丁目","lat":"38.426950","lng":"141.296363"},{"town":"水明南二丁目","lat":"38.442557","lng":"141.324586"},{"town":"石巻","lat":"38.446315","lng":"141.317367"},{"town":"雲雀野町一丁目","lat":"38.414913","lng":"141.303944"},{"town":"中島町","lat":"38.418492","lng":"141.274028"},{"town":"開成","lat":"38.462027","lng":"141.307466"},{"town":"魚町二丁目","lat":"38.411492","lng":"141.326919"},{"town":"魚町三丁目","lat":"38.414965","lng":"141.340945"},{"town":"三河町","lat":"38.419636","lng":"141.280187"},{"town":"雄勝町明神","lat":"38.521584","lng":"141.481470"},{"town":"雄勝町小島","lat":"38.515467","lng":"141.488875"},{"town":"根岸","lat":"38.443117","lng":"141.351654"},{"town":"魚町一丁目","lat":"38.411726","lng":"141.317839"},{"town":"雲雀野町二丁目","lat":"38.409970","lng":"141.290594"},{"town":"月浦","lat":"38.385712","lng":"141.427408"},{"town":"南光町二丁目","lat":"38.420358","lng":"141.291150"},{"town":"潮見町","lat":"38.414275","lng":"141.280849"},{"town":"雄勝町熊沢","lat":"38.505853","lng":"141.536362"},{"town":"西浜町","lat":"38.408963","lng":"141.257172"},{"town":"雄勝町大浜","lat":"38.518127","lng":"141.515117"},{"town":"雄勝町桑浜","lat":"38.493995","lng":"141.532216"},{"town":"桃生町脇谷","lat":"38.598436","lng":"141.285663"},{"town":"雄勝町立浜","lat":"38.504858","lng":"141.520078"},{"town":"竹浜","lat":"38.359479","lng":"141.431446"},{"town":"重吉町","lat":"38.417323","lng":"141.257619"},{"town":"侍浜","lat":"38.385626","lng":"141.436977"},{"town":"牧浜","lat":"38.364129","lng":"141.441033"},{"town":"桃生町牛田","lat":"38.581176","lng":"141.264898"},{"town":"大谷川浜","lat":"38.370491","lng":"141.478127"},{"town":"清水田浜","lat":"38.345884","lng":"141.466770"},{"town":"前網浜","lat":"38.391584","lng":"141.508593"},{"town":"新山浜","lat":"38.331412","lng":"141.525532"},{"town":"井内","lat":"38.445783","lng":"141.341121"},{"town":"流留","lat":"38.428287","lng":"141.379412"},{"town":"小網倉浜","lat":"38.351528","lng":"141.456232"},{"town":"雄勝町大須","lat":"38.522380","lng":"141.538830"},{"town":"福貴浦","lat":"38.352243","lng":"141.450228"},{"town":"北境","lat":"38.474166","lng":"141.308820"},{"town":"小竹浜","lat":"38.392951","lng":"141.385282"},{"town":"桃生町城内","lat":"38.560883","lng":"141.259060"},{"town":"門脇","lat":"38.428009","lng":"141.260131"},{"town":"寄磯浜","lat":"38.391825","lng":"141.527923"},{"town":"雄勝町分浜","lat":"38.494537","lng":"141.488031"},{"town":"桃生町中津山","lat":"38.561138","lng":"141.241543"},{"town":"泊浜","lat":"38.353573","lng":"141.517558"},{"town":"桃生町新田","lat":"38.548289","lng":"141.242429"},{"town":"桃生町倉埣","lat":"38.595859","lng":"141.274322"},{"town":"鮫浦","lat":"38.385541","lng":"141.488156"},{"town":"谷川浜","lat":"38.362791","lng":"141.488810"},{"town":"桃生町寺崎","lat":"38.572038","lng":"141.252570"},{"town":"北上町長尾","lat":"38.558058","lng":"141.394561"},{"town":"桃生町給人町","lat":"38.535526","lng":"141.253856"},{"town":"荻浜","lat":"38.382295","lng":"141.449925"},{"town":"雄勝町水浜","lat":"38.500995","lng":"141.477700"},{"town":"田代浜","lat":"38.298565","lng":"141.417588"},{"town":"網地浜","lat":"38.273056","lng":"141.471298"},{"town":"沼津","lat":"38.451887","lng":"141.383503"},{"town":"相野谷","lat":"38.525949","lng":"141.320102"},{"town":"折浜","lat":"38.401011","lng":"141.397115"},{"town":"桃生町永井","lat":"38.579848","lng":"141.278188"},{"town":"十八成浜","lat":"38.310532","lng":"141.493790"},{"town":"長渡浜","lat":"38.259218","lng":"141.481513"},{"town":"大原浜","lat":"38.340070","lng":"141.481746"},{"town":"桃生町神取","lat":"38.530220","lng":"141.240429"},{"town":"雄勝町船越","lat":"38.537126","lng":"141.519868"},{"town":"小積浜","lat":"38.374138","lng":"141.465914"},{"town":"雄勝町名振","lat":"38.531271","lng":"141.491685"},{"town":"桃生町高須賀","lat":"38.514148","lng":"141.244008"},{"town":"中野","lat":"38.533820","lng":"141.358796"},{"town":"飯野","lat":"38.534062","lng":"141.287262"},{"town":"東福田","lat":"38.483004","lng":"141.321688"},{"town":"湊","lat":"38.430560","lng":"141.330647"},{"town":"高木","lat":"38.476481","lng":"141.349749"},{"town":"南境","lat":"38.463492","lng":"141.313069"},{"town":"中島","lat":"38.532870","lng":"141.329732"},{"town":"馬鞍","lat":"38.556118","lng":"141.368453"},{"town":"釜谷","lat":"38.543698","lng":"141.436819"},{"town":"桃浦","lat":"38.401945","lng":"141.435182"},{"town":"大森","lat":"38.498883","lng":"141.314888"},{"town":"桃生町樫崎","lat":"38.569094","lng":"141.290074"},{"town":"大瓜","lat":"38.458745","lng":"141.332047"},{"town":"北上町橋浦","lat":"38.550803","lng":"141.386313"},{"town":"沢田","lat":"38.442688","lng":"141.380291"},{"town":"成田","lat":"38.538044","lng":"141.306495"},{"town":"須江","lat":"38.470968","lng":"141.243436"},{"town":"桃生町太田","lat":"38.547043","lng":"141.274559"},{"town":"長面","lat":"38.551157","lng":"141.456181"},{"town":"皿貝","lat":"38.560692","lng":"141.344761"},{"town":"渡波","lat":"38.407631","lng":"141.386859"},{"town":"和渕","lat":"38.518164","lng":"141.220892"},{"town":"前谷地","lat":"38.521690","lng":"141.191042"},{"town":"水沼","lat":"38.483993","lng":"141.376465"},{"town":"雄勝町雄勝","lat":"38.505440","lng":"141.439220"},{"town":"三輪田","lat":"38.511875","lng":"141.341216"},{"town":"広渕","lat":"38.475787","lng":"141.216446"},{"town":"福地","lat":"38.520797","lng":"141.379208"},{"town":"真野","lat":"38.468592","lng":"141.389997"},{"town":"鹿又","lat":"38.481515","lng":"141.275460"},{"town":"針岡","lat":"38.514815","lng":"141.414809"},{"town":"北上町女川","lat":"38.579635","lng":"141.382342"},{"town":"北村","lat":"38.483410","lng":"141.186186"},{"town":"北上町十三浜","lat":"38.597574","lng":"141.470205"},{"town":"あけぼの北一丁目","lat":"38.456775","lng":"141.277043"},{"town":"あけぼの三丁目","lat":"38.454468","lng":"141.274634"},{"town":"わかば二丁目","lat":"38.456183","lng":"141.280942"},{"town":"あけぼの北二丁目","lat":"38.457415","lng":"141.278659"},{"town":"尾崎","lat":"38.547695","lng":"141.474357"},{"town":"門脇町一丁目","lat":"38.426190","lng":"141.308466"},{"town":"恵み野二丁目","lat":"38.443342","lng":"141.271628"},{"town":"恵み野三丁目","lat":"38.445319","lng":"141.269514"},{"town":"恵み野四丁目","lat":"38.442055","lng":"141.266958"},{"town":"恵み野五丁目","lat":"38.442706","lng":"141.264947"},{"town":"恵み野六丁目","lat":"38.440446","lng":"141.268085"},{"town":"鮎川浜丁","lat":"38.297393","lng":"141.508661"},{"town":"蛇田","lat":"38.454244","lng":"141.267604"},{"town":"恵み野一丁目","lat":"38.447414","lng":"141.272000"},{"town":"狐崎浜","lat":"38.350312","lng":"141.430960"},{"town":"小渕浜","lat":"38.315619","lng":"141.458890"},{"town":"給分浜","lat":"38.322770","lng":"141.478492"},{"town":"小船越","lat":"38.509848","lng":"141.280871"},{"town":"二子三丁目","lat":"38.499051","lng":"141.297500"},{"town":"二子二丁目","lat":"38.498024","lng":"141.293976"},{"town":"二子一丁目","lat":"38.496813","lng":"141.295251"},{"town":"のぞみ野二丁目","lat":"38.447232","lng":"141.261003"},{"town":"のぞみ野三丁目","lat":"38.448611","lng":"141.258348"},{"town":"のぞみ野四丁目","lat":"38.446532","lng":"141.258340"},{"town":"のぞみ野五丁目","lat":"38.443565","lng":"141.257687"},{"town":"のぞみ野一丁目","lat":"38.444076","lng":"141.261673"},{"town":"新成一丁目","lat":"38.426236","lng":"141.361152"},{"town":"新成二丁目","lat":"38.424162","lng":"141.362947"},{"town":"新成三丁目","lat":"38.425723","lng":"141.365076"}]