[{"town":"字家ノ後","lat":"39.941392","lng":"140.079981"},{"town":"字イカリ","lat":"39.951951","lng":"140.068059"},{"town":"字大道","lat":"39.949538","lng":"140.074575"},{"town":"字押切","lat":"39.940507","lng":"140.065969"},{"town":"字蒲沼","lat":"39.949460","lng":"140.060663"},{"town":"字上沖谷地","lat":"39.946525","lng":"140.086138"},{"town":"字上昼根","lat":"39.941869","lng":"140.082997"},{"town":"字川口","lat":"39.944352","lng":"140.055563"},{"town":"字久保見","lat":"39.935129","lng":"140.058705"},{"town":"字嶋ノ内","lat":"39.943147","lng":"140.068921"},{"town":"字下川原","lat":"39.939307","lng":"140.073160"},{"town":"字洲先","lat":"39.937500","lng":"140.051307"},{"town":"字中久保","lat":"39.938734","lng":"140.066333"},{"town":"字中嶋","lat":"39.944919","lng":"140.072882"},{"town":"字中田","lat":"39.947851","lng":"140.079014"},{"town":"字長沼","lat":"39.942602","lng":"140.065240"},{"town":"字中谷地","lat":"39.940078","lng":"140.059743"},{"town":"字軒嶋","lat":"39.942009","lng":"140.059537"},{"town":"字八幡沼","lat":"39.944220","lng":"140.066018"},{"town":"字一日市","lat":"39.942403","lng":"140.075511"},{"town":"字昼根下","lat":"39.945067","lng":"140.080388"},{"town":"字細川","lat":"39.938191","lng":"140.059960"},{"town":"浦大町","lat":"39.968776","lng":"140.110940"},{"town":"川崎","lat":"39.944153","lng":"140.093898"},{"town":"小池","lat":"39.955281","lng":"140.088931"},{"town":"野田","lat":"39.950767","lng":"140.106629"},{"town":"真坂","lat":"39.974261","lng":"140.077214"},{"town":"夜叉袋","lat":"39.955040","lng":"140.071163"}]