[{"town":"字刈和野","lat":"39.542555","lng":"140.371977"},{"town":"朝日町","lat":"39.468321","lng":"140.474663"},{"town":"飯田","lat":"39.438225","lng":"140.483914"},{"town":"泉町","lat":"39.471836","lng":"140.462324"},{"town":"板見内","lat":"39.482106","lng":"140.548481"},{"town":"内小友","lat":"39.428250","lng":"140.417871"},{"town":"円行寺","lat":"39.477454","lng":"140.300793"},{"town":"大神成","lat":"39.547243","lng":"140.641091"},{"town":"大沢郷宿","lat":"39.502064","lng":"140.314451"},{"town":"大沢郷寺","lat":"39.510334","lng":"140.345717"},{"town":"太田町永代","lat":"39.492820","lng":"140.670243"},{"town":"太田町太田","lat":"39.546854","lng":"140.704224"},{"town":"太田町川口","lat":"39.498604","lng":"140.693643"},{"town":"太田町国見","lat":"39.525656","lng":"140.577077"},{"town":"太田町小神成","lat":"39.525444","lng":"140.631728"},{"town":"太田町駒場","lat":"39.504431","lng":"140.567876"},{"town":"太田町斉内","lat":"39.529245","lng":"140.613533"},{"town":"太田町中里","lat":"39.501385","lng":"140.582914"},{"town":"太田町東今泉","lat":"39.514678","lng":"140.627070"},{"town":"太田町横沢","lat":"39.505687","lng":"140.599410"},{"town":"大花町","lat":"39.465463","lng":"140.483653"},{"town":"大曲","lat":"39.441621","lng":"140.494624"},{"town":"大曲あけぼの町","lat":"39.455225","lng":"140.470421"},{"town":"大曲飯田町","lat":"39.442290","lng":"140.478510"},{"town":"大曲大町","lat":"39.459277","lng":"140.479160"},{"town":"大曲金谷町","lat":"39.450186","lng":"140.473513"},{"town":"大曲上大町","lat":"39.457017","lng":"140.478860"},{"town":"大曲上栄町","lat":"39.451281","lng":"140.477756"},{"town":"大曲川原町","lat":"39.459793","lng":"140.472779"},{"town":"大曲黒瀬町","lat":"39.462370","lng":"140.481875"},{"town":"大曲栄町","lat":"39.453872","lng":"140.478606"},{"town":"大曲白金町","lat":"39.464790","lng":"140.471587"},{"town":"大曲住吉町","lat":"39.448138","lng":"140.487702"},{"town":"大曲須和町一丁目","lat":"39.456211","lng":"140.481905"},{"town":"大曲須和町二丁目","lat":"39.455490","lng":"140.485514"},{"town":"大曲須和町三丁目","lat":"39.459824","lng":"140.483293"},{"town":"大曲田町","lat":"39.452001","lng":"140.483380"},{"town":"大曲通町","lat":"39.465439","lng":"140.478292"},{"town":"大曲戸巻町","lat":"39.458426","lng":"140.492891"},{"town":"大曲中通町","lat":"39.461797","lng":"140.479043"},{"town":"大曲西根","lat":"39.444943","lng":"140.442434"},{"town":"大曲花園町","lat":"39.454320","lng":"140.474062"},{"town":"大曲浜町","lat":"39.458432","lng":"140.475883"},{"town":"大曲日の出町一丁目","lat":"39.446860","lng":"140.476689"},{"town":"大曲日の出町二丁目","lat":"39.446693","lng":"140.480276"},{"town":"大曲福住町","lat":"39.464989","lng":"140.475099"},{"town":"大曲福見町","lat":"39.458591","lng":"140.488472"},{"town":"大曲船場町一丁目","lat":"39.458304","lng":"140.469580"},{"town":"大曲船場町二丁目","lat":"39.462789","lng":"140.466409"},{"town":"大曲丸子町","lat":"39.461476","lng":"140.489442"},{"town":"大曲丸の内町","lat":"39.462431","lng":"140.475143"},{"town":"大曲緑町","lat":"39.462242","lng":"140.469467"},{"town":"大曲若葉町","lat":"39.451867","lng":"140.487916"},{"town":"大巻","lat":"39.555338","lng":"140.318703"},{"town":"小貫高畑","lat":"39.448599","lng":"140.466426"},{"town":"角間川町","lat":"39.388396","lng":"140.474441"},{"town":"金山沢","lat":"39.529300","lng":"140.288361"},{"town":"上鴬野","lat":"39.566121","lng":"140.565665"},{"town":"刈和野","lat":"39.552059","lng":"140.378342"},{"town":"川目","lat":"39.432676","lng":"140.480615"},{"town":"北長野","lat":"39.551322","lng":"140.547884"},{"town":"北楢岡","lat":"39.511064","lng":"140.380660"},{"town":"北野目","lat":"39.540117","lng":"140.353458"},{"town":"木原田","lat":"39.532832","lng":"140.281177"},{"town":"協和荒川","lat":"39.640826","lng":"140.397078"},{"town":"協和稲沢","lat":"39.606139","lng":"140.413671"},{"town":"協和上淀川","lat":"39.617921","lng":"140.305234"},{"town":"協和小種","lat":"39.538201","lng":"140.259594"},{"town":"協和境","lat":"39.617458","lng":"140.327303"},{"town":"協和下淀川","lat":"39.563361","lng":"140.263158"},{"town":"協和中淀川","lat":"39.597065","lng":"140.277096"},{"town":"協和船岡","lat":"39.670597","lng":"140.356394"},{"town":"協和船沢","lat":"39.646556","lng":"140.282268"},{"town":"協和峰吉川","lat":"39.576764","lng":"140.327926"},{"town":"九升田","lat":"39.545205","lng":"140.315428"},{"town":"栗沢","lat":"39.549772","lng":"140.615602"},{"town":"上野田","lat":"39.454124","lng":"140.550481"},{"town":"強首","lat":"39.550455","lng":"140.289559"},{"town":"幸町","lat":"39.470964","lng":"140.478348"},{"town":"佐野町","lat":"39.470490","lng":"140.471330"},{"town":"清水","lat":"39.516338","lng":"140.551978"},{"town":"下鴬野","lat":"39.572354","lng":"140.560153"},{"town":"下深井","lat":"39.421472","lng":"140.508119"},{"town":"正手沢","lat":"39.503683","lng":"140.275611"},{"town":"神宮寺","lat":"39.497857","lng":"140.432686"},{"town":"杉山田","lat":"39.521509","lng":"140.282966"},{"town":"高城","lat":"39.545310","lng":"140.331552"},{"town":"高関上郷","lat":"39.483452","lng":"140.501151"},{"town":"高梨","lat":"39.459732","lng":"140.514282"},{"town":"土川","lat":"39.559768","lng":"140.451488"},{"town":"寺館","lat":"39.552020","lng":"140.338122"},{"town":"戸地谷","lat":"39.471858","lng":"140.500425"},{"town":"戸蒔","lat":"39.454015","lng":"140.495861"},{"town":"豊岡","lat":"39.566781","lng":"140.640635"},{"town":"豊川","lat":"39.557932","lng":"140.581902"},{"town":"長戸呂","lat":"39.509615","lng":"140.507703"},{"town":"長野","lat":"39.538198","lng":"140.523403"},{"town":"南外","lat":"39.446206","lng":"140.350231"},{"town":"南外外小友","lat":"39.424512","lng":"140.313230"},{"town":"南外南楢岡","lat":"39.446744","lng":"140.295136"},{"town":"新谷地","lat":"39.498709","lng":"140.488164"},{"town":"橋本","lat":"39.444867","lng":"140.520870"},{"town":"花館","lat":"39.480904","lng":"140.472938"},{"town":"花館上町","lat":"39.472937","lng":"140.468528"},{"town":"花館中町","lat":"39.474907","lng":"140.464943"},{"town":"花館柳町","lat":"39.477337","lng":"140.461343"},{"town":"東川","lat":"39.447199","lng":"140.501096"},{"town":"蛭川","lat":"39.463451","lng":"140.441322"},{"town":"福田","lat":"39.488217","lng":"140.529467"},{"town":"福田町","lat":"39.469324","lng":"140.484984"},{"town":"藤木","lat":"39.411564","lng":"140.492194"},{"town":"富士見町","lat":"39.472270","lng":"140.474461"},{"town":"払田","lat":"39.466536","lng":"140.543580"},{"town":"堀見内","lat":"39.474879","lng":"140.523851"},{"town":"松倉","lat":"39.517225","lng":"140.499164"},{"town":"美原町","lat":"39.468431","lng":"140.464040"},{"town":"鑓見内","lat":"39.514751","lng":"140.526116"},{"town":"横堀","lat":"39.498329","lng":"140.542772"},{"town":"四ツ屋","lat":"39.503414","lng":"140.477089"},{"town":"六郷西根","lat":"39.425450","lng":"140.480051"},{"town":"若竹町","lat":"39.467167","lng":"140.469223"},{"town":"和合","lat":"39.438367","lng":"140.513196"},{"town":"太田町三本扇","lat":"39.489382","lng":"140.586440"}]