[{"town":"旭川清澄町","lat":"39.743039","lng":"140.128123"},{"town":"旭川新藤田西町","lat":"39.740677","lng":"140.126120"},{"town":"旭川新藤田東町","lat":"39.740510","lng":"140.129167"},{"town":"旭川南町","lat":"39.736556","lng":"140.128467"},{"town":"新屋朝日町","lat":"39.701936","lng":"140.087242"},{"town":"新屋大川町","lat":"39.685846","lng":"140.092201"},{"town":"新屋扇町","lat":"39.679540","lng":"140.086936"},{"town":"新屋沖田町","lat":"39.673852","lng":"140.089363"},{"town":"新屋表町","lat":"39.680515","lng":"140.083494"},{"town":"新屋勝平台","lat":"39.705172","lng":"140.077629"},{"town":"新屋勝平町","lat":"39.695323","lng":"140.082083"},{"town":"新屋北浜町","lat":"39.701038","lng":"140.072315"},{"town":"新屋栗田町","lat":"39.688162","lng":"140.080856"},{"town":"新屋寿町","lat":"39.695400","lng":"140.076893"},{"town":"新屋下川原町","lat":"39.705928","lng":"140.073897"},{"town":"新屋渋谷町","lat":"39.674463","lng":"140.097492"},{"town":"新屋高美町","lat":"39.674388","lng":"140.094775"},{"town":"新屋田尻沢中町","lat":"39.671364","lng":"140.093575"},{"town":"新屋田尻沢西町","lat":"39.671298","lng":"140.091320"},{"town":"新屋田尻沢東町","lat":"39.671253","lng":"140.096202"},{"town":"新屋天秤野","lat":"39.707322","lng":"140.086513"},{"town":"新屋鳥木町","lat":"39.679301","lng":"140.095639"},{"town":"新屋比内町","lat":"39.674032","lng":"140.081858"},{"town":"新屋日吉町","lat":"39.680919","lng":"140.079073"},{"town":"新屋船場町","lat":"39.695772","lng":"140.087551"},{"town":"新屋前野町","lat":"39.671356","lng":"140.088762"},{"town":"新屋町","lat":"39.704578","lng":"140.065329"},{"town":"新屋松美ガ丘北町","lat":"39.706539","lng":"140.080475"},{"town":"新屋松美ガ丘東町","lat":"39.704192","lng":"140.084251"},{"town":"新屋松美ガ丘南町","lat":"39.701613","lng":"140.081921"},{"town":"新屋松美町","lat":"39.700026","lng":"140.077801"},{"town":"新屋南浜町","lat":"39.695568","lng":"140.071763"},{"town":"新屋元町","lat":"39.687933","lng":"140.085196"},{"town":"新屋豊町","lat":"39.702745","lng":"140.091716"},{"town":"新屋割山町","lat":"39.698796","lng":"140.087363"},{"town":"飯島","lat":"39.778213","lng":"140.047117"},{"town":"飯島飯田一丁目","lat":"39.770973","lng":"140.092303"},{"town":"飯島飯田二丁目","lat":"39.773192","lng":"140.089553"},{"town":"飯島川端一丁目","lat":"39.779307","lng":"140.062246"},{"town":"飯島川端二丁目","lat":"39.783988","lng":"140.062682"},{"town":"飯島川端三丁目","lat":"39.787261","lng":"140.060822"},{"town":"飯島穀丁","lat":"39.776272","lng":"140.061829"},{"town":"飯島新町一丁目","lat":"39.765393","lng":"140.089757"},{"town":"飯島新町二丁目","lat":"39.768695","lng":"140.087355"},{"town":"飯島新町三丁目","lat":"39.771432","lng":"140.085032"},{"town":"飯島長野上町","lat":"39.768800","lng":"140.081752"},{"town":"飯島長野中町","lat":"39.770423","lng":"140.078850"},{"town":"飯島長野本町","lat":"39.771839","lng":"140.082192"},{"town":"飯島西袋一丁目","lat":"39.767014","lng":"140.092654"},{"town":"飯島西袋二丁目","lat":"39.769765","lng":"140.089725"},{"town":"飯島西袋三丁目","lat":"39.772231","lng":"140.087414"},{"town":"飯島鼠田一丁目","lat":"39.783342","lng":"140.068950"},{"town":"飯島鼠田二丁目","lat":"39.779953","lng":"140.070517"},{"town":"飯島鼠田三丁目","lat":"39.781801","lng":"140.071522"},{"town":"飯島鼠田四丁目","lat":"39.781942","lng":"140.074102"},{"town":"飯島文京町","lat":"39.772543","lng":"140.078068"},{"town":"飯島松根西町","lat":"39.772017","lng":"140.071578"},{"town":"飯島松根東町","lat":"39.772171","lng":"140.073893"},{"town":"飯島美砂町","lat":"39.776192","lng":"140.074122"},{"town":"飯島道東一丁目","lat":"39.776441","lng":"140.066947"},{"town":"飯島道東二丁目","lat":"39.780431","lng":"140.065956"},{"town":"飯島道東三丁目","lat":"39.784468","lng":"140.065592"},{"town":"飯島緑丘町","lat":"39.777210","lng":"140.070693"},{"town":"泉","lat":"39.739141","lng":"140.121806"},{"town":"泉一ノ坪","lat":"39.735393","lng":"140.120742"},{"town":"泉釜ノ町","lat":"39.737373","lng":"140.116610"},{"town":"泉北一丁目","lat":"39.735477","lng":"140.101491"},{"town":"泉北二丁目","lat":"39.735785","lng":"140.105667"},{"town":"泉北三丁目","lat":"39.735898","lng":"140.109161"},{"town":"泉北四丁目","lat":"39.736016","lng":"140.112337"},{"town":"泉菅野一丁目","lat":"39.739224","lng":"140.107082"},{"town":"泉菅野二丁目","lat":"39.737127","lng":"140.113129"},{"town":"泉中央一丁目","lat":"39.731105","lng":"140.105363"},{"town":"泉中央二丁目","lat":"39.733111","lng":"140.104363"},{"town":"泉中央三丁目","lat":"39.733530","lng":"140.109528"},{"town":"泉中央四丁目","lat":"39.733906","lng":"140.114449"},{"town":"泉中央五丁目","lat":"39.731906","lng":"140.114679"},{"town":"泉中央六丁目","lat":"39.731485","lng":"140.109819"},{"town":"泉馬場","lat":"39.732427","lng":"140.124878"},{"town":"泉東町","lat":"39.736197","lng":"140.126002"},{"town":"泉三嶽根","lat":"39.737693","lng":"140.119921"},{"town":"泉南一丁目","lat":"39.729099","lng":"140.106416"},{"town":"泉南二丁目","lat":"39.729399","lng":"140.110152"},{"town":"泉南三丁目","lat":"39.729677","lng":"140.114949"},{"town":"牛島","lat":"39.687542","lng":"140.109362"},{"town":"牛島西一丁目","lat":"39.696297","lng":"140.114599"},{"town":"牛島西二丁目","lat":"39.694709","lng":"140.117325"},{"town":"牛島西三丁目","lat":"39.691059","lng":"140.105982"},{"town":"牛島西四丁目","lat":"39.688827","lng":"140.106109"},{"town":"牛島東一丁目","lat":"39.699819","lng":"140.115574"},{"town":"牛島東二丁目","lat":"39.701580","lng":"140.119048"},{"town":"牛島東三丁目","lat":"39.699377","lng":"140.120195"},{"town":"牛島東四丁目","lat":"39.698933","lng":"140.123423"},{"town":"牛島東五丁目","lat":"39.696312","lng":"140.122467"},{"town":"牛島東六丁目","lat":"39.694857","lng":"140.124936"},{"town":"牛島東七丁目","lat":"39.693858","lng":"140.133328"},{"town":"牛島南一丁目","lat":"39.689866","lng":"140.109602"},{"town":"牛島南二丁目","lat":"39.687137","lng":"140.106878"},{"town":"大住一丁目","lat":"39.690919","lng":"140.114915"},{"town":"大住二丁目","lat":"39.690687","lng":"140.117292"},{"town":"大住三丁目","lat":"39.688678","lng":"140.118922"},{"town":"大住四丁目","lat":"39.687885","lng":"140.115626"},{"town":"大平台一丁目","lat":"39.700222","lng":"140.159397"},{"town":"大平台二丁目","lat":"39.697907","lng":"140.160149"},{"town":"大平台三丁目","lat":"39.698882","lng":"140.157344"},{"town":"大平台四丁目","lat":"39.701122","lng":"140.153544"},{"town":"大町一丁目","lat":"39.720206","lng":"140.115498"},{"town":"大町二丁目","lat":"39.718804","lng":"140.115022"},{"town":"大町三丁目","lat":"39.717364","lng":"140.114811"},{"town":"大町四丁目","lat":"39.715898","lng":"140.114463"},{"town":"大町五丁目","lat":"39.714198","lng":"140.114158"},{"town":"大町六丁目","lat":"39.711951","lng":"140.114039"},{"town":"御野場一丁目","lat":"39.673241","lng":"140.135706"},{"town":"御野場二丁目","lat":"39.674157","lng":"140.132897"},{"town":"御野場三丁目","lat":"39.670728","lng":"140.134022"},{"town":"御野場四丁目","lat":"39.671609","lng":"140.131959"},{"town":"御野場五丁目","lat":"39.667719","lng":"140.132305"},{"town":"御野場六丁目","lat":"39.668597","lng":"140.129993"},{"town":"御野場七丁目","lat":"39.670689","lng":"140.129230"},{"town":"御野場八丁目","lat":"39.666999","lng":"140.128121"},{"town":"御野場新町一丁目","lat":"39.674205","lng":"140.117876"},{"town":"御野場新町二丁目","lat":"39.671727","lng":"140.122046"},{"town":"御野場新町三丁目","lat":"39.668918","lng":"140.121496"},{"town":"御野場新町四丁目","lat":"39.667963","lng":"140.124333"},{"town":"御野場新町五丁目","lat":"39.671236","lng":"140.127990"},{"town":"卸町一丁目","lat":"39.701391","lng":"140.108113"},{"town":"卸町二丁目","lat":"39.700475","lng":"140.111024"},{"town":"卸町三丁目","lat":"39.698272","lng":"140.110378"},{"town":"卸町四丁目","lat":"39.696774","lng":"140.108036"},{"town":"卸町五丁目","lat":"39.694599","lng":"140.106921"},{"town":"金足岩瀬","lat":"39.849060","lng":"140.069888"},{"town":"金足浦山","lat":"39.837071","lng":"140.082703"},{"town":"金足追分","lat":"39.815954","lng":"140.057251"},{"town":"金足大清水","lat":"39.844531","lng":"140.053827"},{"town":"金足片田","lat":"39.825158","lng":"140.106523"},{"town":"金足黒川","lat":"39.837807","lng":"140.128653"},{"town":"金足小泉","lat":"39.818695","lng":"140.060947"},{"town":"金足下刈","lat":"39.832274","lng":"140.060411"},{"town":"金足高岡","lat":"39.826262","lng":"140.079778"},{"town":"金足鳰崎","lat":"39.817580","lng":"140.070907"},{"town":"金足堀内","lat":"39.836172","lng":"140.069148"},{"town":"金足吉田","lat":"39.816860","lng":"140.099614"},{"town":"上北手荒巻","lat":"39.692610","lng":"140.142776"},{"town":"上北手大杉沢","lat":"39.696232","lng":"140.169090"},{"town":"上北手大戸","lat":"39.698635","lng":"140.150825"},{"town":"上北手大山田","lat":"39.679246","lng":"140.194134"},{"town":"上北手御所野","lat":"39.656955","lng":"140.176022"},{"town":"上北手古野","lat":"39.663840","lng":"140.186162"},{"town":"上北手小山田","lat":"39.692203","lng":"140.190589"},{"town":"上北手猿田","lat":"39.678536","lng":"140.169101"},{"town":"上北手百崎","lat":"39.693665","lng":"140.161488"},{"town":"上新城石名坂","lat":"39.810106","lng":"140.127601"},{"town":"上新城小又","lat":"39.813533","lng":"140.161234"},{"town":"上新城五十丁","lat":"39.795379","lng":"140.134956"},{"town":"上新城白山","lat":"39.838424","lng":"140.190540"},{"town":"上新城中","lat":"39.790479","lng":"140.108606"},{"town":"上新城保多野","lat":"39.804305","lng":"140.132931"},{"town":"上新城道川","lat":"39.790593","lng":"140.154723"},{"town":"上新城湯ノ里","lat":"39.803052","lng":"140.149027"},{"town":"川尻上野町","lat":"39.707973","lng":"140.100929"},{"town":"川尻大川町","lat":"39.711606","lng":"140.091452"},{"town":"川尻御休町","lat":"39.712296","lng":"140.094160"},{"town":"川尻新川町","lat":"39.707319","lng":"140.096432"},{"town":"川尻総社町","lat":"39.711880","lng":"140.100875"},{"town":"川尻町","lat":"39.714514","lng":"140.084390"},{"town":"川尻みよし町","lat":"39.710671","lng":"140.097049"},{"town":"川尻若葉町","lat":"39.708613","lng":"140.092959"},{"town":"河辺赤平","lat":"39.674796","lng":"140.259495"},{"town":"河辺岩見","lat":"39.743624","lng":"140.445548"},{"town":"河辺大沢","lat":"39.688864","lng":"140.253189"},{"town":"河辺大張野","lat":"39.670783","lng":"140.268048"},{"town":"河辺北野田高屋","lat":"39.677424","lng":"140.217501"},{"town":"河辺三内","lat":"39.761298","lng":"140.353632"},{"town":"河辺神内","lat":"39.671053","lng":"140.293112"},{"town":"河辺高岡","lat":"39.678292","lng":"140.248156"},{"town":"河辺戸島","lat":"39.635898","lng":"140.210648"},{"town":"河辺豊成","lat":"39.648160","lng":"140.174988"},{"town":"河辺畑谷","lat":"39.637259","lng":"140.173280"},{"town":"河辺松渕","lat":"39.646697","lng":"140.208498"},{"town":"河辺諸井","lat":"39.666053","lng":"140.240208"},{"town":"河辺和田","lat":"39.643867","lng":"140.243512"},{"town":"川元小川町","lat":"39.706212","lng":"140.104528"},{"town":"川元開和町","lat":"39.711107","lng":"140.105717"},{"town":"川元松丘町","lat":"39.712067","lng":"140.103119"},{"town":"川元むつみ町","lat":"39.708718","lng":"140.104810"},{"town":"川元山下町","lat":"39.713304","lng":"140.106086"},{"town":"旭南一丁目","lat":"39.710524","lng":"140.109387"},{"town":"旭南二丁目","lat":"39.709719","lng":"140.113009"},{"town":"旭南三丁目","lat":"39.707020","lng":"140.107564"},{"town":"旭北栄町","lat":"39.720268","lng":"140.110296"},{"town":"旭北寺町","lat":"39.715739","lng":"140.111137"},{"town":"旭北錦町","lat":"39.716005","lng":"140.109385"},{"town":"港北新町","lat":"39.767750","lng":"140.075265"},{"town":"港北松野町","lat":"39.768202","lng":"140.079056"},{"town":"高陽青柳町","lat":"39.724791","lng":"140.104015"},{"town":"高陽幸町","lat":"39.724622","lng":"140.106972"},{"town":"御所野地蔵田一丁目","lat":"39.663000","lng":"140.161109"},{"town":"御所野地蔵田二丁目","lat":"39.663301","lng":"140.155767"},{"town":"御所野地蔵田三丁目","lat":"39.658414","lng":"140.158547"},{"town":"御所野地蔵田四丁目","lat":"39.660148","lng":"140.153796"},{"town":"御所野地蔵田五丁目","lat":"39.660306","lng":"140.151677"},{"town":"御所野下堤一丁目","lat":"39.664471","lng":"140.163469"},{"town":"御所野下堤二丁目","lat":"39.666813","lng":"140.166492"},{"town":"御所野下堤三丁目","lat":"39.667792","lng":"140.162166"},{"town":"御所野下堤四丁目","lat":"39.668770","lng":"140.158044"},{"town":"御所野下堤五丁目","lat":"39.666944","lng":"140.154988"},{"town":"御所野堤台一丁目","lat":"39.666538","lng":"140.169475"},{"town":"御所野元町一丁目","lat":"39.660619","lng":"140.163221"},{"town":"御所野元町二丁目","lat":"39.663588","lng":"140.165903"},{"town":"御所野元町三丁目","lat":"39.664173","lng":"140.171238"},{"town":"御所野元町四丁目","lat":"39.662043","lng":"140.169382"},{"town":"御所野元町五丁目","lat":"39.660268","lng":"140.167273"},{"town":"御所野元町六丁目","lat":"39.658515","lng":"140.166345"},{"town":"御所野元町七丁目","lat":"39.657507","lng":"140.163052"},{"town":"御所野湯本一丁目","lat":"39.661023","lng":"140.173609"},{"town":"御所野湯本二丁目","lat":"39.657451","lng":"140.172382"},{"town":"御所野湯本三丁目","lat":"39.656360","lng":"140.167192"},{"town":"御所野湯本四丁目","lat":"39.654845","lng":"140.169778"},{"town":"御所野湯本五丁目","lat":"39.652579","lng":"140.171385"},{"town":"御所野湯本六丁目","lat":"39.652957","lng":"140.165057"},{"town":"桜一丁目","lat":"39.711453","lng":"140.147051"},{"town":"桜二丁目","lat":"39.707641","lng":"140.149268"},{"town":"桜三丁目","lat":"39.711363","lng":"140.151969"},{"town":"桜四丁目","lat":"39.708464","lng":"140.154448"},{"town":"桜ガ丘一丁目","lat":"39.704224","lng":"140.151636"},{"town":"桜ガ丘二丁目","lat":"39.704051","lng":"140.155681"},{"town":"桜ガ丘三丁目","lat":"39.702141","lng":"140.156039"},{"town":"桜ガ丘四丁目","lat":"39.702405","lng":"140.150698"},{"town":"桜ガ丘五丁目","lat":"39.704158","lng":"140.159843"},{"town":"桜台一丁目","lat":"39.710010","lng":"140.156351"},{"town":"桜台二丁目","lat":"39.709911","lng":"140.159366"},{"town":"桜台三丁目","lat":"39.711025","lng":"140.161185"},{"town":"山内","lat":"39.781243","lng":"140.183904"},{"town":"山王一丁目","lat":"39.721064","lng":"140.102718"},{"town":"山王二丁目","lat":"39.720726","lng":"140.106360"},{"town":"山王三丁目","lat":"39.717508","lng":"140.106378"},{"town":"山王四丁目","lat":"39.717358","lng":"140.102872"},{"town":"山王五丁目","lat":"39.714828","lng":"140.105046"},{"town":"山王六丁目","lat":"39.715408","lng":"140.099200"},{"town":"山王七丁目","lat":"39.717711","lng":"140.098573"},{"town":"山王新町","lat":"39.717352","lng":"140.094538"},{"town":"山王中島町","lat":"39.717048","lng":"140.090942"},{"town":"山王中園町","lat":"39.714951","lng":"140.095161"},{"town":"山王沼田町","lat":"39.714632","lng":"140.091157"},{"town":"山王臨海町","lat":"39.715981","lng":"140.088013"},{"town":"下北手黒川","lat":"39.700252","lng":"140.195762"},{"town":"下北手桜","lat":"39.716386","lng":"140.157505"},{"town":"下北手寒川","lat":"39.719265","lng":"140.206152"},{"town":"下北手宝川","lat":"39.707361","lng":"140.212324"},{"town":"下北手通沢","lat":"39.711216","lng":"140.189971"},{"town":"下北手梨平","lat":"39.702314","lng":"140.164783"},{"town":"下北手松崎","lat":"39.724721","lng":"140.167119"},{"town":"下北手柳館","lat":"39.715311","lng":"140.174438"},{"town":"下新城青崎","lat":"39.807955","lng":"140.086562"},{"town":"下新城岩城","lat":"39.788644","lng":"140.093452"},{"town":"下新城小友","lat":"39.812926","lng":"140.117760"},{"town":"下新城笠岡","lat":"39.795420","lng":"140.078214"},{"town":"下新城長岡","lat":"39.808018","lng":"140.070195"},{"town":"下新城中野","lat":"39.799532","lng":"140.054596"},{"town":"下浜桂根","lat":"39.644212","lng":"140.078483"},{"town":"下浜長浜","lat":"39.625770","lng":"140.080543"},{"town":"下浜楢田","lat":"39.625355","lng":"140.145583"},{"town":"下浜八田","lat":"39.616139","lng":"140.126708"},{"town":"下浜羽川","lat":"39.601166","lng":"140.082381"},{"town":"下浜名ケ沢","lat":"39.587411","lng":"140.129185"},{"town":"将軍野青山町","lat":"39.761768","lng":"140.089882"},{"town":"将軍野桂町","lat":"39.756217","lng":"140.091031"},{"town":"将軍野堰越","lat":"39.762293","lng":"140.092274"},{"town":"将軍野東一丁目","lat":"39.754954","lng":"140.084220"},{"town":"将軍野東二丁目","lat":"39.751969","lng":"140.087160"},{"town":"将軍野東三丁目","lat":"39.757031","lng":"140.087861"},{"town":"将軍野東四丁目","lat":"39.759844","lng":"140.086464"},{"town":"将軍野南一丁目","lat":"39.744475","lng":"140.081774"},{"town":"将軍野南二丁目","lat":"39.744892","lng":"140.086716"},{"town":"将軍野南三丁目","lat":"39.748024","lng":"140.082760"},{"town":"将軍野南四丁目","lat":"39.745714","lng":"140.088927"},{"town":"将軍野南五丁目","lat":"39.749281","lng":"140.085281"},{"town":"将軍野向山","lat":"39.750633","lng":"140.090224"},{"town":"新藤田","lat":"39.741624","lng":"140.135202"},{"town":"千秋北の丸","lat":"39.725458","lng":"140.125280"},{"town":"千秋久保田町","lat":"39.719487","lng":"140.127261"},{"town":"千秋公園","lat":"39.722074","lng":"140.124087"},{"town":"千秋城下町","lat":"39.723036","lng":"140.128240"},{"town":"千秋中島町","lat":"39.727053","lng":"140.122495"},{"town":"千秋明徳町","lat":"39.719069","lng":"140.121857"},{"town":"千秋矢留町","lat":"39.723012","lng":"140.120802"},{"town":"添川","lat":"39.759997","lng":"140.149141"},{"town":"外旭川","lat":"39.757700","lng":"140.108839"},{"town":"外旭川八幡田一丁目","lat":"39.743493","lng":"140.107526"},{"town":"外旭川八幡田二丁目","lat":"39.743871","lng":"140.104289"},{"town":"外旭川八柳一丁目","lat":"39.744133","lng":"140.101003"},{"town":"外旭川八柳二丁目","lat":"39.746512","lng":"140.101604"},{"town":"外旭川八柳三丁目","lat":"39.747035","lng":"140.096765"},{"town":"太平黒沢","lat":"39.745533","lng":"140.239193"},{"town":"太平寺庭","lat":"39.756177","lng":"140.220537"},{"town":"太平中関","lat":"39.727935","lng":"140.224620"},{"town":"太平八田","lat":"39.759922","lng":"140.194601"},{"town":"太平目長崎","lat":"39.740159","lng":"140.195366"},{"town":"太平山谷","lat":"39.746366","lng":"140.274737"},{"town":"土崎港御蔵町","lat":"39.746564","lng":"140.066006"},{"town":"土崎港北一丁目","lat":"39.759680","lng":"140.076874"},{"town":"土崎港北二丁目","lat":"39.760693","lng":"140.081609"},{"town":"土崎港北三丁目","lat":"39.766014","lng":"140.080484"},{"town":"土崎港北四丁目","lat":"39.762666","lng":"140.076986"},{"town":"土崎港北五丁目","lat":"39.762165","lng":"140.073035"},{"town":"土崎港北六丁目","lat":"39.767130","lng":"140.072357"},{"town":"土崎港北七丁目","lat":"39.769496","lng":"140.069729"},{"town":"土崎港穀保町","lat":"39.744705","lng":"140.066695"},{"town":"土崎港下浜町","lat":"39.751713","lng":"140.061735"},{"town":"土崎港相染町","lat":"39.765353","lng":"140.057928"},{"town":"土崎港中央一丁目","lat":"39.751732","lng":"140.069110"},{"town":"土崎港中央二丁目","lat":"39.749991","lng":"140.073121"},{"town":"土崎港中央三丁目","lat":"39.755868","lng":"140.069696"},{"town":"土崎港中央四丁目","lat":"39.753334","lng":"140.074088"},{"town":"土崎港中央五丁目","lat":"39.759049","lng":"140.070065"},{"town":"土崎港中央六丁目","lat":"39.758008","lng":"140.073316"},{"town":"土崎港中央七丁目","lat":"39.762767","lng":"140.069549"},{"town":"土崎港西一丁目","lat":"39.752253","lng":"140.061179"},{"town":"土崎港西二丁目","lat":"39.752052","lng":"140.065621"},{"town":"土崎港西三丁目","lat":"39.756072","lng":"140.065126"},{"town":"土崎港西四丁目","lat":"39.759084","lng":"140.065874"},{"town":"土崎港西五丁目","lat":"39.762914","lng":"140.067049"},{"town":"土崎港東一丁目","lat":"39.749246","lng":"140.078461"},{"town":"土崎港東二丁目","lat":"39.752227","lng":"140.078940"},{"town":"土崎港東三丁目","lat":"39.755171","lng":"140.078654"},{"town":"土崎港東四丁目","lat":"39.755327","lng":"140.082219"},{"town":"土崎港古川町","lat":"39.759749","lng":"140.062420"},{"town":"土崎港南一丁目","lat":"39.746339","lng":"140.069881"},{"town":"土崎港南二丁目","lat":"39.746323","lng":"140.073185"},{"town":"土崎港南三丁目","lat":"39.745051","lng":"140.076642"},{"town":"手形","lat":"39.729814","lng":"140.136017"},{"town":"手形学園町","lat":"39.727765","lng":"140.134054"},{"town":"手形からみでん","lat":"39.731282","lng":"140.127851"},{"town":"手形休下町","lat":"39.727137","lng":"140.128681"},{"town":"手形新栄町","lat":"39.723073","lng":"140.130183"},{"town":"手形住吉町","lat":"39.726811","lng":"140.131158"},{"town":"手形田中","lat":"39.731465","lng":"140.131163"},{"town":"手形山北町","lat":"39.734421","lng":"140.141757"},{"town":"手形山崎町","lat":"39.724698","lng":"140.132533"},{"town":"手形山中町","lat":"39.731126","lng":"140.143078"},{"town":"手形山西町","lat":"39.731576","lng":"140.138466"},{"town":"手形山東町","lat":"39.732879","lng":"140.144601"},{"town":"手形山南町","lat":"39.730382","lng":"140.140965"},{"town":"寺内","lat":"39.733602","lng":"140.074511"},{"town":"寺内油田一丁目","lat":"39.731633","lng":"140.091152"},{"town":"寺内油田二丁目","lat":"39.731046","lng":"140.088581"},{"town":"寺内油田三丁目","lat":"39.732696","lng":"140.087632"},{"town":"寺内後城","lat":"39.739910","lng":"140.073490"},{"town":"寺内鵜ノ木","lat":"39.738438","lng":"140.082969"},{"town":"寺内大小路","lat":"39.737737","lng":"140.078403"},{"town":"寺内大畑","lat":"39.740602","lng":"140.080365"},{"town":"寺内神屋敷","lat":"39.733605","lng":"140.081300"},{"town":"寺内高野","lat":"39.741834","lng":"140.086658"},{"town":"寺内児桜一丁目","lat":"39.736136","lng":"140.084968"},{"town":"寺内児桜二丁目","lat":"39.737931","lng":"140.085402"},{"town":"寺内児桜三丁目","lat":"39.739837","lng":"140.089498"},{"town":"寺内堂ノ沢一丁目","lat":"39.734579","lng":"140.089941"},{"town":"寺内堂ノ沢二丁目","lat":"39.734373","lng":"140.086166"},{"town":"寺内堂ノ沢三丁目","lat":"39.736989","lng":"140.089605"},{"town":"寺内蛭根一丁目","lat":"39.727820","lng":"140.089722"},{"town":"寺内蛭根二丁目","lat":"39.729162","lng":"140.085939"},{"town":"寺内蛭根三丁目","lat":"39.729670","lng":"140.082381"},{"town":"寺内焼山","lat":"39.740899","lng":"140.076430"},{"town":"豊岩石田坂","lat":"39.666572","lng":"140.105074"},{"town":"豊岩小山","lat":"39.628715","lng":"140.122977"},{"town":"豊岩豊巻","lat":"39.647024","lng":"140.110169"},{"town":"中通一丁目","lat":"39.717321","lng":"140.120084"},{"town":"中通二丁目","lat":"39.716950","lng":"140.125633"},{"town":"中通三丁目","lat":"39.715525","lng":"140.119615"},{"town":"中通四丁目","lat":"39.715160","lng":"140.125178"},{"town":"中通五丁目","lat":"39.713287","lng":"140.119111"},{"town":"中通六丁目","lat":"39.713163","lng":"140.125038"},{"town":"中通七丁目","lat":"39.716787","lng":"140.129255"},{"town":"楢山","lat":"39.699269","lng":"140.140741"},{"town":"楢山愛宕下","lat":"39.702392","lng":"140.122845"},{"town":"楢山石塚町","lat":"39.699527","lng":"140.135683"},{"town":"楢山太田町","lat":"39.703778","lng":"140.132038"},{"town":"楢山大元町","lat":"39.706758","lng":"140.129082"},{"town":"楢山川口境","lat":"39.703556","lng":"140.111563"},{"town":"楢山共和町","lat":"39.703010","lng":"140.116457"},{"town":"楢山金照町","lat":"39.702895","lng":"140.128784"},{"town":"楢山佐竹町","lat":"39.706474","lng":"140.123337"},{"town":"楢山城南新町","lat":"39.697592","lng":"140.131999"},{"town":"楢山城南町","lat":"39.699889","lng":"140.128312"},{"town":"楢山登町","lat":"39.707430","lng":"140.113393"},{"town":"楢山古川新町","lat":"39.705038","lng":"140.123372"},{"town":"楢山本町","lat":"39.705602","lng":"140.119523"},{"town":"楢山南新町上丁","lat":"39.705353","lng":"140.121259"},{"town":"楢山南新町下丁","lat":"39.703110","lng":"140.119934"},{"town":"楢山南中町","lat":"39.706525","lng":"140.116758"},{"town":"仁井田","lat":"39.682333","lng":"140.142504"},{"town":"仁井田潟中町","lat":"39.687476","lng":"140.121353"},{"town":"仁井田小中島","lat":"39.682365","lng":"140.120962"},{"town":"仁井田栄町","lat":"39.686042","lng":"140.126029"},{"town":"仁井田新田一丁目","lat":"39.682190","lng":"140.123754"},{"town":"仁井田新田二丁目","lat":"39.679042","lng":"140.124050"},{"town":"仁井田新田三丁目","lat":"39.679745","lng":"140.120610"},{"town":"仁井田蕗見町","lat":"39.685979","lng":"140.123946"},{"town":"仁井田福島一丁目","lat":"39.691840","lng":"140.129353"},{"town":"仁井田福島二丁目","lat":"39.692074","lng":"140.132587"},{"town":"仁井田二ツ屋一丁目","lat":"39.691491","lng":"140.123350"},{"town":"仁井田二ツ屋二丁目","lat":"39.691714","lng":"140.125814"},{"town":"仁井田本町一丁目","lat":"39.682056","lng":"140.128994"},{"town":"仁井田本町二丁目","lat":"39.680764","lng":"140.134868"},{"town":"仁井田本町三丁目","lat":"39.678074","lng":"140.132330"},{"town":"仁井田本町四丁目","lat":"39.678806","lng":"140.128401"},{"town":"仁井田本町五丁目","lat":"39.673453","lng":"140.125649"},{"town":"仁井田本町六丁目","lat":"39.672782","lng":"140.126948"},{"town":"仁井田緑町","lat":"39.690867","lng":"140.121197"},{"town":"仁井田目長田一丁目","lat":"39.678260","lng":"140.137017"},{"town":"仁井田目長田二丁目","lat":"39.678631","lng":"140.141572"},{"town":"仁井田目長田三丁目","lat":"39.677044","lng":"140.139731"},{"town":"濁川","lat":"39.756985","lng":"140.129221"},{"town":"仁別","lat":"39.813829","lng":"140.255303"},{"town":"浜田","lat":"39.666580","lng":"140.077344"},{"town":"茨島一丁目","lat":"39.703848","lng":"140.102275"},{"town":"茨島二丁目","lat":"39.700324","lng":"140.104058"},{"town":"茨島三丁目","lat":"39.699774","lng":"140.097316"},{"town":"茨島四丁目","lat":"39.696752","lng":"140.101111"},{"town":"茨島五丁目","lat":"39.694277","lng":"140.092271"},{"town":"茨島六丁目","lat":"39.692454","lng":"140.098757"},{"town":"茨島七丁目","lat":"39.688979","lng":"140.102042"},{"town":"東通一丁目","lat":"39.716047","lng":"140.135858"},{"town":"東通二丁目","lat":"39.716223","lng":"140.139514"},{"town":"東通三丁目","lat":"39.716078","lng":"140.142167"},{"town":"東通四丁目","lat":"39.713663","lng":"140.142362"},{"town":"東通五丁目","lat":"39.713529","lng":"140.139655"},{"town":"東通六丁目","lat":"39.713350","lng":"140.135934"},{"town":"東通七丁目","lat":"39.711786","lng":"140.136059"},{"town":"東通八丁目","lat":"39.711976","lng":"140.140717"},{"town":"東通観音前","lat":"39.710665","lng":"140.132510"},{"town":"東通館ノ越","lat":"39.708371","lng":"140.130914"},{"town":"東通仲町","lat":"39.715752","lng":"140.132055"},{"town":"東通明田","lat":"39.707574","lng":"140.133645"},{"town":"広面","lat":"39.721497","lng":"140.148252"},{"town":"蛇野","lat":"39.724525","lng":"140.138693"},{"town":"保戸野金砂町","lat":"39.730674","lng":"140.123413"},{"town":"保戸野桜町","lat":"39.732726","lng":"140.119337"},{"town":"保戸野すわ町","lat":"39.723760","lng":"140.114908"},{"town":"保戸野千代田町","lat":"39.726759","lng":"140.109351"},{"town":"保戸野鉄砲町","lat":"39.723416","lng":"140.110858"},{"town":"保戸野通町","lat":"39.721331","lng":"140.116626"},{"town":"保戸野中町","lat":"39.723982","lng":"140.118573"},{"town":"保戸野八丁","lat":"39.729806","lng":"140.119643"},{"town":"保戸野原の町","lat":"39.727068","lng":"140.115578"},{"town":"南通亀の町","lat":"39.710615","lng":"140.118415"},{"town":"南通築地","lat":"39.709270","lng":"140.124945"},{"town":"南通みその町","lat":"39.709775","lng":"140.122098"},{"town":"南通宮田","lat":"39.708127","lng":"140.127347"},{"town":"向浜一丁目","lat":"39.733640","lng":"140.062651"},{"town":"向浜二丁目","lat":"39.749020","lng":"140.053898"},{"town":"柳田","lat":"39.744090","lng":"140.154008"},{"town":"八橋","lat":"39.725100","lng":"140.085288"},{"town":"八橋イサノ一丁目","lat":"39.731531","lng":"140.093390"},{"town":"八橋イサノ二丁目","lat":"39.734692","lng":"140.092975"},{"town":"八橋運動公園","lat":"39.720610","lng":"140.096985"},{"town":"八橋大沼町","lat":"39.731842","lng":"140.096531"},{"town":"八橋大畑一丁目","lat":"39.734849","lng":"140.098545"},{"town":"八橋大畑二丁目","lat":"39.734959","lng":"140.096035"},{"town":"八橋新川向","lat":"39.728950","lng":"140.103114"},{"town":"八橋大道東","lat":"39.728651","lng":"140.092470"},{"town":"八橋田五郎一丁目","lat":"39.728739","lng":"140.097243"},{"town":"八橋田五郎二丁目","lat":"39.728539","lng":"140.095113"},{"town":"八橋鯲沼町","lat":"39.731839","lng":"140.100073"},{"town":"八橋本町一丁目","lat":"39.722653","lng":"140.098832"},{"town":"八橋本町二丁目","lat":"39.723219","lng":"140.095102"},{"town":"八橋本町三丁目","lat":"39.725171","lng":"140.100710"},{"town":"八橋本町四丁目","lat":"39.725433","lng":"140.097702"},{"town":"八橋本町五丁目","lat":"39.725606","lng":"140.095032"},{"town":"八橋本町六丁目","lat":"39.725232","lng":"140.090220"},{"town":"八橋南一丁目","lat":"39.721625","lng":"140.091616"},{"town":"八橋南二丁目","lat":"39.720990","lng":"140.088677"},{"town":"八橋三和町","lat":"39.729025","lng":"140.100118"},{"town":"山手台一丁目","lat":"39.694990","lng":"140.149455"},{"town":"山手台二丁目","lat":"39.695514","lng":"140.151117"},{"town":"山手台三丁目","lat":"39.692461","lng":"140.152369"},{"town":"雄和相川","lat":"39.573787","lng":"140.172445"},{"town":"雄和新波","lat":"39.530892","lng":"140.234831"},{"town":"雄和碇田","lat":"39.512206","lng":"140.237267"},{"town":"雄和石田","lat":"39.595400","lng":"140.169850"},{"town":"雄和萱ケ沢","lat":"39.480937","lng":"140.247102"},{"town":"雄和左手子","lat":"39.549886","lng":"140.221462"},{"town":"雄和芝野新田","lat":"39.639344","lng":"140.140409"},{"town":"雄和下黒瀬","lat":"39.606198","lng":"140.142815"},{"town":"雄和神ケ村","lat":"39.512433","lng":"140.200846"},{"town":"雄和田草川","lat":"39.644799","lng":"140.150483"},{"town":"雄和種沢","lat":"39.576889","lng":"140.227229"},{"town":"雄和繋","lat":"39.529045","lng":"140.203436"},{"town":"雄和椿川","lat":"39.619992","lng":"140.192408"},{"town":"雄和戸賀沢","lat":"39.569355","lng":"140.200779"},{"town":"雄和平尾鳥","lat":"39.613537","lng":"140.257530"},{"town":"雄和平沢","lat":"39.607862","lng":"140.178791"},{"town":"雄和妙法","lat":"39.593962","lng":"140.184103"},{"town":"雄和向野","lat":"39.537955","lng":"140.232134"},{"town":"雄和女米木","lat":"39.550316","lng":"140.192452"},{"town":"横森一丁目","lat":"39.707025","lng":"140.138731"},{"town":"横森二丁目","lat":"39.704141","lng":"140.140569"},{"town":"横森三丁目","lat":"39.704207","lng":"140.146351"},{"town":"横森四丁目","lat":"39.706627","lng":"140.145253"},{"town":"横森五丁目","lat":"39.708750","lng":"140.142828"},{"town":"四ツ小屋","lat":"39.658570","lng":"140.133430"},{"town":"四ツ小屋小阿地","lat":"39.663810","lng":"140.147117"},{"town":"四ツ小屋末戸松本","lat":"39.650574","lng":"140.158546"},{"town":"南ケ丘一丁目","lat":"39.689907","lng":"140.159943"},{"town":"南ケ丘二丁目","lat":"39.687798","lng":"140.161214"},{"town":"南ケ丘三丁目","lat":"39.689093","lng":"140.165196"},{"town":"御所野堤台二丁目","lat":"39.671927","lng":"140.169776"}]