[{"town":"相生町","lat":"38.259076","lng":"140.337672"},{"town":"青田一丁目","lat":"38.225470","lng":"140.329118"},{"town":"青田二丁目","lat":"38.226180","lng":"140.334657"},{"town":"青田三丁目","lat":"38.223266","lng":"140.332035"},{"town":"青田四丁目","lat":"38.223710","lng":"140.328611"},{"town":"青田五丁目","lat":"38.222154","lng":"140.329651"},{"town":"青田南","lat":"38.220714","lng":"140.327070"},{"town":"明石堂","lat":"38.228951","lng":"140.292897"},{"town":"あかねケ丘一丁目","lat":"38.250198","lng":"140.311308"},{"town":"あかねケ丘二丁目","lat":"38.245721","lng":"140.310193"},{"town":"あかねケ丘三丁目","lat":"38.242139","lng":"140.309268"},{"town":"あけぼの一丁目","lat":"38.313451","lng":"140.362092"},{"town":"あけぼの二丁目","lat":"38.313547","lng":"140.359751"},{"town":"あこや町一丁目","lat":"38.240038","lng":"140.350896"},{"town":"あこや町二丁目","lat":"38.242310","lng":"140.352468"},{"town":"あこや町三丁目","lat":"38.240395","lng":"140.354958"},{"town":"旭が丘","lat":"38.227021","lng":"140.330550"},{"town":"あさひ町","lat":"38.243303","lng":"140.363634"},{"town":"あずま町","lat":"38.238828","lng":"140.337376"},{"town":"阿弥陀","lat":"38.250965","lng":"140.271179"},{"town":"荒楯町一丁目","lat":"38.233512","lng":"140.333223"},{"town":"荒楯町二丁目","lat":"38.231137","lng":"140.333144"},{"town":"飯沢","lat":"38.240955","lng":"140.302226"},{"town":"飯田一丁目","lat":"38.216253","lng":"140.324533"},{"town":"飯田二丁目","lat":"38.216442","lng":"140.327945"},{"town":"飯田三丁目","lat":"38.213973","lng":"140.330905"},{"town":"飯田四丁目","lat":"38.213849","lng":"140.326862"},{"town":"飯田五丁目","lat":"38.211435","lng":"140.325220"},{"town":"飯田西一丁目","lat":"38.216726","lng":"140.322626"},{"town":"飯田西二丁目","lat":"38.215582","lng":"140.318019"},{"town":"飯田西三丁目","lat":"38.212867","lng":"140.317382"},{"town":"飯田西四丁目","lat":"38.213296","lng":"140.320837"},{"town":"飯田西五丁目","lat":"38.211747","lng":"140.321342"},{"town":"飯塚口","lat":"38.257641","lng":"140.303537"},{"town":"石関","lat":"38.252847","lng":"140.305489"},{"town":"石寺","lat":"38.228057","lng":"140.285808"},{"town":"五十鈴一丁目","lat":"38.271661","lng":"140.353291"},{"town":"五十鈴二丁目","lat":"38.273776","lng":"140.354458"},{"town":"五十鈴三丁目","lat":"38.276069","lng":"140.355874"},{"town":"泉町","lat":"38.274231","lng":"140.345019"},{"town":"五日町","lat":"38.244882","lng":"140.323463"},{"town":"鋳物町","lat":"38.232243","lng":"140.288790"},{"town":"印役町一丁目","lat":"38.263459","lng":"140.349619"},{"town":"印役町二丁目","lat":"38.263595","lng":"140.353200"},{"town":"印役町三丁目","lat":"38.265184","lng":"140.351542"},{"town":"印役町四丁目","lat":"38.267624","lng":"140.351910"},{"town":"印役町五丁目","lat":"38.268321","lng":"140.347729"},{"town":"内表東","lat":"38.292127","lng":"140.305905"},{"town":"内城","lat":"38.267400","lng":"140.268717"},{"town":"馬洗場","lat":"38.310451","lng":"140.312794"},{"town":"梅野木前","lat":"38.282696","lng":"140.312931"},{"town":"上江","lat":"38.274457","lng":"140.286008"},{"town":"上町一丁目","lat":"38.242691","lng":"140.320654"},{"town":"上町二丁目","lat":"38.245375","lng":"140.319388"},{"town":"上町三丁目","lat":"38.242070","lng":"140.316703"},{"town":"上町四丁目","lat":"38.244274","lng":"140.314332"},{"town":"上町五丁目","lat":"38.241571","lng":"140.313334"},{"town":"江俣一丁目","lat":"38.274316","lng":"140.323403"},{"town":"江俣二丁目","lat":"38.278095","lng":"140.323108"},{"town":"江俣三丁目","lat":"38.275204","lng":"140.320199"},{"town":"江俣四丁目","lat":"38.276889","lng":"140.316847"},{"town":"江俣五丁目","lat":"38.278922","lng":"140.313606"},{"town":"円応寺町","lat":"38.267026","lng":"140.344137"},{"town":"追散","lat":"38.269749","lng":"140.302154"},{"town":"大字青野","lat":"38.284609","lng":"140.382142"},{"town":"大字青柳","lat":"38.299448","lng":"140.351406"},{"town":"大字今塚","lat":"38.291894","lng":"140.323970"},{"town":"大字岩波","lat":"38.211356","lng":"140.357264"},{"town":"大字内表","lat":"38.294926","lng":"140.296223"},{"town":"大字江俣","lat":"38.288303","lng":"140.311736"},{"town":"大字大森","lat":"38.308732","lng":"140.395661"},{"town":"大字風間","lat":"38.295527","lng":"140.381874"},{"town":"大字柏倉","lat":"38.221614","lng":"140.232111"},{"town":"大字片谷地","lat":"38.213210","lng":"140.304964"},{"town":"大字上椹沢","lat":"38.265090","lng":"140.296033"},{"town":"大字上桜田","lat":"38.216968","lng":"140.348279"},{"town":"大字上反田","lat":"38.269387","lng":"140.256185"},{"town":"大字上東山","lat":"38.282926","lng":"140.432696"},{"town":"大字上宝沢","lat":"38.212072","lng":"140.420690"},{"town":"大字神尾","lat":"38.191511","lng":"140.367854"},{"town":"大字切畑","lat":"38.281604","lng":"140.400441"},{"town":"大字黒沢","lat":"38.191542","lng":"140.302004"},{"town":"大字下東山","lat":"38.297457","lng":"140.412232"},{"town":"大字下宝沢","lat":"38.231790","lng":"140.401100"},{"town":"大字釈迦堂","lat":"38.240127","lng":"140.385814"},{"town":"大字十文字","lat":"38.309579","lng":"140.373946"},{"town":"大字常明寺","lat":"38.266185","lng":"140.245765"},{"town":"大字陣場","lat":"38.282679","lng":"140.303854"},{"town":"大字陣場新田","lat":"38.282854","lng":"140.298328"},{"town":"大字菅沢","lat":"38.225443","lng":"140.272772"},{"town":"大字鮨洗","lat":"38.291153","lng":"140.282324"},{"town":"大字関沢","lat":"38.219552","lng":"140.454969"},{"town":"大字高沢","lat":"38.257437","lng":"140.441562"},{"town":"大字滝平","lat":"38.267906","lng":"140.222431"},{"town":"大字津金沢","lat":"38.204067","lng":"140.290669"},{"town":"大字土坂","lat":"38.202836","lng":"140.382413"},{"town":"大字中桜田","lat":"38.210506","lng":"140.342288"},{"town":"大字中里","lat":"38.302105","lng":"140.383865"},{"town":"大字中野","lat":"38.307506","lng":"140.306733"},{"town":"大字中野目","lat":"38.332889","lng":"140.311796"},{"town":"大字七浦","lat":"38.303221","lng":"140.339276"},{"town":"大字滑川","lat":"38.242188","lng":"140.407245"},{"town":"大字成安","lat":"38.318395","lng":"140.316989"},{"town":"大字二位田","lat":"38.222092","lng":"140.287115"},{"town":"大字新山","lat":"38.230241","lng":"140.425661"},{"town":"大字西中野","lat":"38.300421","lng":"140.299268"},{"town":"大字沼木","lat":"38.246405","lng":"140.290597"},{"town":"大字灰塚","lat":"38.329213","lng":"140.321558"},{"town":"大字長谷堂","lat":"38.197865","lng":"140.262624"},{"town":"大字八森","lat":"38.212684","lng":"140.384187"},{"town":"大字平清水","lat":"38.228120","lng":"140.371488"},{"town":"大字船町","lat":"38.309414","lng":"140.290169"},{"town":"大字古館","lat":"38.263651","lng":"140.261576"},{"town":"大字前明石","lat":"38.230900","lng":"140.299658"},{"town":"大字松原","lat":"38.198056","lng":"140.295032"},{"town":"大字見崎","lat":"38.299854","lng":"140.320545"},{"town":"大字南館","lat":"38.234244","lng":"140.298705"},{"town":"大字妙見寺","lat":"38.236560","lng":"140.376621"},{"town":"大字向新田","lat":"38.313681","lng":"140.290095"},{"town":"大字村木沢","lat":"38.248809","lng":"140.228903"},{"town":"大字門伝","lat":"38.231639","lng":"140.216171"},{"town":"大字谷柏","lat":"38.217657","lng":"140.295434"},{"town":"大字山寺","lat":"38.309795","lng":"140.456248"},{"town":"大字芳沢","lat":"38.260373","lng":"140.226524"},{"town":"大字吉野宿","lat":"38.286116","lng":"140.291759"},{"town":"大字吉原","lat":"38.227328","lng":"140.303314"},{"town":"大字若木","lat":"38.262220","lng":"140.254126"},{"town":"大手町","lat":"38.256605","lng":"140.333623"},{"town":"大道端","lat":"38.242988","lng":"140.274468"},{"town":"沖町","lat":"38.289460","lng":"140.328563"},{"town":"小立一丁目","lat":"38.228608","lng":"140.339998"},{"town":"小立二丁目","lat":"38.229786","lng":"140.342762"},{"town":"小立三丁目","lat":"38.228239","lng":"140.344046"},{"town":"小立四丁目","lat":"38.226136","lng":"140.345912"},{"town":"落合町","lat":"38.282211","lng":"140.348911"},{"town":"御手作","lat":"38.219958","lng":"140.277188"},{"town":"表蔵王","lat":"38.189240","lng":"140.312742"},{"town":"替所","lat":"38.263563","lng":"140.268320"},{"town":"篭田一丁目","lat":"38.240152","lng":"140.321344"},{"town":"篭田二丁目","lat":"38.237471","lng":"140.320116"},{"town":"篭田三丁目","lat":"38.237778","lng":"140.317742"},{"town":"霞城町","lat":"38.255488","lng":"140.328125"},{"town":"春日町","lat":"38.252708","lng":"140.319179"},{"town":"香澄町一丁目","lat":"38.249424","lng":"140.329646"},{"town":"香澄町二丁目","lat":"38.248620","lng":"140.332306"},{"town":"香澄町三丁目","lat":"38.245563","lng":"140.330707"},{"town":"金石田","lat":"38.266821","lng":"140.292011"},{"town":"上桜田一丁目","lat":"38.223190","lng":"140.342472"},{"town":"上桜田二丁目","lat":"38.222785","lng":"140.344670"},{"town":"上桜田三丁目","lat":"38.219843","lng":"140.345736"},{"town":"上桜田四丁目","lat":"38.219061","lng":"140.342424"},{"town":"上桜田五丁目","lat":"38.219354","lng":"140.339780"},{"town":"上柳","lat":"38.295318","lng":"140.347092"},{"town":"上山家町","lat":"38.258505","lng":"140.388982"},{"town":"北江俣","lat":"38.283815","lng":"140.308922"},{"town":"北志戸田","lat":"38.283681","lng":"140.284755"},{"town":"北田","lat":"38.308750","lng":"140.305882"},{"town":"北町一丁目","lat":"38.268239","lng":"140.331471"},{"town":"北町二丁目","lat":"38.269411","lng":"140.329065"},{"town":"北町三丁目","lat":"38.272827","lng":"140.327073"},{"town":"北町四丁目","lat":"38.272651","lng":"140.332697"},{"town":"北山形一丁目","lat":"38.263301","lng":"140.330788"},{"town":"北山形二丁目","lat":"38.265860","lng":"140.329484"},{"town":"木の実町","lat":"38.252108","lng":"140.334211"},{"town":"木ノ目田","lat":"38.251230","lng":"140.289837"},{"town":"行才","lat":"38.288162","lng":"140.308184"},{"town":"京旦","lat":"38.228328","lng":"140.300780"},{"town":"清住町一丁目","lat":"38.254848","lng":"140.316938"},{"town":"清住町二丁目","lat":"38.256309","lng":"140.313066"},{"town":"清住町三丁目","lat":"38.252824","lng":"140.313890"},{"town":"久保田一丁目","lat":"38.248700","lng":"140.318290"},{"town":"久保田二丁目","lat":"38.249628","lng":"140.315387"},{"town":"久保田三丁目","lat":"38.246350","lng":"140.315424"},{"town":"江南一丁目","lat":"38.269962","lng":"140.321062"},{"town":"江南二丁目","lat":"38.271736","lng":"140.321403"},{"town":"江南三丁目","lat":"38.272484","lng":"140.316237"},{"town":"江南四丁目","lat":"38.273981","lng":"140.312477"},{"town":"黄金","lat":"38.265089","lng":"140.303517"},{"town":"小姓町","lat":"38.247219","lng":"140.341309"},{"town":"小白川町","lat":"38.249103","lng":"140.367713"},{"town":"小白川町一丁目","lat":"38.246206","lng":"140.350657"},{"town":"小白川町二丁目","lat":"38.249212","lng":"140.351846"},{"town":"小白川町三丁目","lat":"38.247622","lng":"140.357991"},{"town":"小白川町四丁目","lat":"38.245027","lng":"140.357429"},{"town":"小白川町五丁目","lat":"38.245088","lng":"140.367720"},{"town":"寿町","lat":"38.235304","lng":"140.338131"},{"town":"小荷駄町","lat":"38.239457","lng":"140.340888"},{"town":"後明","lat":"38.271398","lng":"140.256777"},{"town":"こも石","lat":"38.296182","lng":"140.390534"},{"town":"才津","lat":"38.246356","lng":"140.270125"},{"town":"幸町","lat":"38.245434","lng":"140.327414"},{"town":"蔵王飯田","lat":"38.209064","lng":"140.332877"},{"town":"蔵王上野","lat":"38.175729","lng":"140.330987"},{"town":"蔵王温泉","lat":"38.174319","lng":"140.417910"},{"town":"蔵王成沢","lat":"38.200878","lng":"140.328794"},{"town":"蔵王野際","lat":"38.198376","lng":"140.327525"},{"town":"蔵王半郷","lat":"38.187585","lng":"140.325260"},{"town":"蔵王堀田","lat":"38.172013","lng":"140.353699"},{"town":"蔵王松ケ丘","lat":"38.196370","lng":"140.309506"},{"town":"蔵王松ケ丘一丁目","lat":"38.199430","lng":"140.312665"},{"town":"蔵王松ケ丘二丁目","lat":"38.191095","lng":"140.308800"},{"town":"蔵王南成沢","lat":"38.196714","lng":"140.315930"},{"town":"蔵王美原","lat":"38.198763","lng":"140.310476"},{"town":"蔵王山田","lat":"38.191007","lng":"140.332070"},{"town":"早乙女","lat":"38.276835","lng":"140.362241"},{"town":"境田町","lat":"38.297551","lng":"140.329975"},{"town":"栄原","lat":"38.289743","lng":"140.345511"},{"town":"肴町","lat":"38.261749","lng":"140.330151"},{"town":"桜ケ丘","lat":"38.252559","lng":"140.263091"},{"town":"佐倉宿","lat":"38.231790","lng":"140.278769"},{"town":"桜田西一丁目","lat":"38.221296","lng":"140.317034"},{"town":"桜田西二丁目","lat":"38.219551","lng":"140.316966"},{"town":"桜田西三丁目","lat":"38.220678","lng":"140.313475"},{"town":"桜田西四丁目","lat":"38.218057","lng":"140.315218"},{"town":"桜田西五丁目","lat":"38.222102","lng":"140.309588"},{"town":"桜田東一丁目","lat":"38.220715","lng":"140.320781"},{"town":"桜田東二丁目","lat":"38.220821","lng":"140.323190"},{"town":"桜田東三丁目","lat":"38.217925","lng":"140.321652"},{"town":"桜田東四丁目","lat":"38.219046","lng":"140.325523"},{"town":"桜田南","lat":"38.215621","lng":"140.312947"},{"town":"桜町","lat":"38.252826","lng":"140.331422"},{"town":"三社","lat":"38.315593","lng":"140.303014"},{"town":"島","lat":"38.287546","lng":"140.314883"},{"town":"嶋北一丁目","lat":"38.286195","lng":"140.322981"},{"town":"嶋北二丁目","lat":"38.286550","lng":"140.319665"},{"town":"嶋北三丁目","lat":"38.289987","lng":"140.321881"},{"town":"嶋北四丁目","lat":"38.287421","lng":"140.317808"},{"town":"嶋南一丁目","lat":"38.280566","lng":"140.322586"},{"town":"嶋南二丁目","lat":"38.280663","lng":"140.319607"},{"town":"嶋南三丁目","lat":"38.281244","lng":"140.317083"},{"town":"嶋南四丁目","lat":"38.281864","lng":"140.315077"},{"town":"下条町一丁目","lat":"38.263117","lng":"140.326888"},{"town":"下条町二丁目","lat":"38.262425","lng":"140.322957"},{"town":"下条町三丁目","lat":"38.267021","lng":"140.322720"},{"town":"下条町四丁目","lat":"38.266032","lng":"140.325989"},{"town":"下条町五丁目","lat":"38.269912","lng":"140.325916"},{"town":"下田","lat":"38.324928","lng":"140.307694"},{"town":"下柳","lat":"38.291768","lng":"140.349570"},{"town":"城南町一丁目","lat":"38.250868","lng":"140.326111"},{"town":"城南町二丁目","lat":"38.252367","lng":"140.326661"},{"town":"城南町三丁目","lat":"38.251646","lng":"140.321894"},{"town":"城北町一丁目","lat":"38.258444","lng":"140.330236"},{"town":"城北町二丁目","lat":"38.259942","lng":"140.329530"},{"town":"白川","lat":"38.316041","lng":"140.309655"},{"town":"城西町一丁目","lat":"38.255978","lng":"140.324077"},{"town":"城西町二丁目","lat":"38.255339","lng":"140.321802"},{"town":"城西町三丁目","lat":"38.256958","lng":"140.318010"},{"town":"城西町四丁目","lat":"38.259560","lng":"140.321120"},{"town":"城西町五丁目","lat":"38.260599","lng":"140.314076"},{"town":"城森","lat":"38.241588","lng":"140.260748"},{"town":"新開一丁目","lat":"38.303116","lng":"140.360104"},{"town":"新開二丁目","lat":"38.305332","lng":"140.361643"},{"town":"新開三丁目","lat":"38.305766","lng":"140.358501"},{"town":"陣場一丁目","lat":"38.277246","lng":"140.310530"},{"town":"陣場二丁目","lat":"38.277256","lng":"140.305696"},{"town":"陣場三丁目","lat":"38.278696","lng":"140.302420"},{"town":"陣場南","lat":"38.275084","lng":"140.309003"},{"town":"末広町","lat":"38.238822","lng":"140.323821"},{"town":"菅原","lat":"38.271976","lng":"140.310365"},{"town":"すげさわの丘","lat":"38.223582","lng":"140.268615"},{"town":"鈴川町一丁目","lat":"38.263651","lng":"140.355497"},{"town":"鈴川町二丁目","lat":"38.267000","lng":"140.355760"},{"town":"鈴川町三丁目","lat":"38.270301","lng":"140.357426"},{"town":"鈴川町四丁目","lat":"38.269985","lng":"140.360401"},{"town":"砂田","lat":"38.259733","lng":"140.291433"},{"town":"砂塚","lat":"38.259898","lng":"140.307581"},{"town":"諏訪町一丁目","lat":"38.245200","lng":"140.339655"},{"town":"諏訪町二丁目","lat":"38.244006","lng":"140.339344"},{"town":"瀬波一丁目","lat":"38.280662","lng":"140.309167"},{"town":"瀬波二丁目","lat":"38.279933","lng":"140.306421"},{"town":"瀬波三丁目","lat":"38.283440","lng":"140.307125"},{"town":"千石","lat":"38.293529","lng":"140.362716"},{"town":"双月新町","lat":"38.256309","lng":"140.362054"},{"town":"双月町","lat":"38.254023","lng":"140.364237"},{"town":"双月町一丁目","lat":"38.258885","lng":"140.353090"},{"town":"双月町二丁目","lat":"38.260993","lng":"140.353813"},{"town":"双月町三丁目","lat":"38.258162","lng":"140.356609"},{"town":"双月町四丁目","lat":"38.254958","lng":"140.354301"},{"town":"反町","lat":"38.246127","lng":"140.265796"},{"town":"大師堂","lat":"38.218787","lng":"140.271733"},{"town":"大野目一丁目","lat":"38.274898","lng":"140.358730"},{"town":"大野目二丁目","lat":"38.278672","lng":"140.357475"},{"town":"大野目三丁目","lat":"38.281709","lng":"140.358860"},{"town":"大野目四丁目","lat":"38.280690","lng":"140.360293"},{"town":"大野目町","lat":"38.286023","lng":"140.356814"},{"town":"高木","lat":"38.233440","lng":"140.284776"},{"town":"高田","lat":"38.307174","lng":"140.320447"},{"town":"高堂","lat":"38.240533","lng":"140.310357"},{"town":"高堂一丁目","lat":"38.238647","lng":"140.310713"},{"town":"高堂二丁目","lat":"38.239148","lng":"140.307474"},{"town":"高原町","lat":"38.275453","lng":"140.372357"},{"town":"立谷川一丁目","lat":"38.312286","lng":"140.384144"},{"town":"立谷川二丁目","lat":"38.313150","lng":"140.379885"},{"town":"立谷川三丁目","lat":"38.313088","lng":"140.373478"},{"town":"伊達城一丁目","lat":"38.309037","lng":"140.362094"},{"town":"伊達城二丁目","lat":"38.308289","lng":"140.358577"},{"town":"伊達城三丁目","lat":"38.310744","lng":"140.359352"},{"town":"立道","lat":"38.274235","lng":"140.304233"},{"town":"田吹","lat":"38.235034","lng":"140.277319"},{"town":"檀野前","lat":"38.296439","lng":"140.321960"},{"town":"近田","lat":"38.289227","lng":"140.365850"},{"town":"千歳一丁目","lat":"38.279793","lng":"140.338724"},{"town":"千歳二丁目","lat":"38.281198","lng":"140.341958"},{"town":"千代田","lat":"38.262160","lng":"140.300622"},{"town":"塚野目","lat":"38.312481","lng":"140.307600"},{"town":"辻","lat":"38.255765","lng":"140.270685"},{"town":"土屋倉","lat":"38.267735","lng":"140.262429"},{"town":"鉄砲町一丁目","lat":"38.238667","lng":"140.329544"},{"town":"鉄砲町二丁目","lat":"38.237824","lng":"140.333554"},{"town":"鉄砲町三丁目","lat":"38.235200","lng":"140.329090"},{"town":"寺西","lat":"38.296654","lng":"140.363929"},{"town":"天神台","lat":"38.269348","lng":"140.290654"},{"town":"天神町","lat":"38.307593","lng":"140.326033"},{"town":"十日町一丁目","lat":"38.247795","lng":"140.334797"},{"town":"十日町二丁目","lat":"38.247022","lng":"140.337241"},{"town":"十日町三丁目","lat":"38.243905","lng":"140.335497"},{"town":"十日町四丁目","lat":"38.244364","lng":"140.333028"},{"town":"藤治屋敷","lat":"38.306198","lng":"140.314314"},{"town":"塔の前","lat":"38.284139","lng":"140.367794"},{"town":"銅町一丁目","lat":"38.273645","lng":"140.338238"},{"town":"銅町二丁目","lat":"38.272225","lng":"140.341686"},{"town":"銅谷口","lat":"38.295643","lng":"140.309365"},{"town":"富神台","lat":"38.239068","lng":"140.281054"},{"town":"富神前","lat":"38.236155","lng":"140.262290"},{"town":"富の中一丁目","lat":"38.236896","lng":"140.303943"},{"town":"富の中二丁目","lat":"38.234193","lng":"140.303896"},{"town":"富の中三丁目","lat":"38.233950","lng":"140.307547"},{"town":"富の中四丁目","lat":"38.231730","lng":"140.307093"},{"town":"百目鬼","lat":"38.225247","lng":"140.277876"},{"town":"豊風","lat":"38.297100","lng":"140.373335"},{"town":"樋越","lat":"38.287037","lng":"140.326371"},{"town":"豊原","lat":"38.267788","lng":"140.308881"},{"town":"鳥居ケ丘","lat":"38.229342","lng":"140.333037"},{"town":"中江","lat":"38.277280","lng":"140.287326"},{"town":"長表","lat":"38.294931","lng":"140.319843"},{"town":"中桜田一丁目","lat":"38.218685","lng":"140.330910"},{"town":"中桜田二丁目","lat":"38.217816","lng":"140.335200"},{"town":"中桜田三丁目","lat":"38.215095","lng":"140.334403"},{"town":"中田","lat":"38.319983","lng":"140.311358"},{"town":"長苗代","lat":"38.245608","lng":"140.303507"},{"town":"中沼","lat":"38.250723","lng":"140.296587"},{"town":"長町","lat":"38.292330","lng":"140.332826"},{"town":"長町一丁目","lat":"38.286857","lng":"140.338407"},{"town":"長町二丁目","lat":"38.287869","lng":"140.340866"},{"town":"長町三丁目","lat":"38.293016","lng":"140.340001"},{"town":"長町四丁目","lat":"38.294079","lng":"140.337026"},{"town":"中道","lat":"38.300622","lng":"140.323142"},{"town":"中屋敷","lat":"38.238323","lng":"140.275768"},{"town":"七十刈","lat":"38.298104","lng":"140.321145"},{"town":"七日町一丁目","lat":"38.253090","lng":"140.337767"},{"town":"七日町二丁目","lat":"38.252397","lng":"140.340123"},{"town":"七日町三丁目","lat":"38.254591","lng":"140.341333"},{"town":"七日町四丁目","lat":"38.253138","lng":"140.344142"},{"town":"七日町五丁目","lat":"38.249966","lng":"140.342866"},{"town":"並柳","lat":"38.263395","lng":"140.257153"},{"town":"成沢西一丁目","lat":"38.211176","lng":"140.316023"},{"town":"成沢西二丁目","lat":"38.210668","lng":"140.312784"},{"town":"成沢西三丁目","lat":"38.207707","lng":"140.313623"},{"town":"成沢西四丁目","lat":"38.206465","lng":"140.317568"},{"town":"成沢西五丁目","lat":"38.208467","lng":"140.319462"},{"town":"南栄町一丁目","lat":"38.234411","lng":"140.321539"},{"town":"南栄町二丁目","lat":"38.231864","lng":"140.320662"},{"town":"南栄町三丁目","lat":"38.229378","lng":"140.320889"},{"town":"西江俣","lat":"38.276603","lng":"140.313216"},{"town":"錦町","lat":"38.260132","lng":"140.334671"},{"town":"西越","lat":"38.289771","lng":"140.362428"},{"town":"西崎","lat":"38.262542","lng":"140.306992"},{"town":"西田一丁目","lat":"38.263144","lng":"140.318889"},{"town":"西田二丁目","lat":"38.264283","lng":"140.314331"},{"town":"西田三丁目","lat":"38.266691","lng":"140.314828"},{"town":"西田四丁目","lat":"38.267295","lng":"140.319185"},{"town":"西田五丁目","lat":"38.269757","lng":"140.315423"},{"town":"西二位田","lat":"38.223165","lng":"140.282901"},{"town":"西前明石","lat":"38.225005","lng":"140.296761"},{"town":"西見田","lat":"38.255298","lng":"140.288880"},{"town":"沼の辺町","lat":"38.263763","lng":"140.363817"},{"town":"馬合","lat":"38.309661","lng":"140.316803"},{"town":"白山一丁目","lat":"38.227774","lng":"140.318240"},{"town":"白山二丁目","lat":"38.224708","lng":"140.316864"},{"town":"白山三丁目","lat":"38.226683","lng":"140.322056"},{"town":"羽黒堂","lat":"38.245908","lng":"140.297014"},{"town":"旅篭町一丁目","lat":"38.255632","lng":"140.336241"},{"town":"旅篭町二丁目","lat":"38.255437","lng":"140.339126"},{"town":"旅篭町三丁目","lat":"38.257205","lng":"140.340605"},{"town":"八幡前","lat":"38.300659","lng":"140.312439"},{"town":"服部","lat":"38.301347","lng":"140.316335"},{"town":"花岡","lat":"38.293301","lng":"140.369463"},{"town":"花楯一丁目","lat":"38.270268","lng":"140.350918"},{"town":"花楯二丁目","lat":"38.274535","lng":"140.350716"},{"town":"浜崎","lat":"38.284782","lng":"140.358936"},{"town":"東青田一丁目","lat":"38.225489","lng":"140.337489"},{"town":"東青田二丁目","lat":"38.224441","lng":"140.340390"},{"town":"東青田三丁目","lat":"38.221393","lng":"140.338458"},{"town":"東青田四丁目","lat":"38.222787","lng":"140.335307"},{"town":"東青田五丁目","lat":"38.220511","lng":"140.333991"},{"town":"東篭野町","lat":"38.298975","lng":"140.304798"},{"town":"東黒沢","lat":"38.191410","lng":"140.305351"},{"town":"東志戸田","lat":"38.278483","lng":"140.293826"},{"town":"東二位田","lat":"38.220522","lng":"140.292067"},{"town":"東原町一丁目","lat":"38.248122","lng":"140.346242"},{"town":"東原町二丁目","lat":"38.245016","lng":"140.344632"},{"town":"東原町三丁目","lat":"38.242196","lng":"140.342836"},{"town":"東原町四丁目","lat":"38.242059","lng":"140.347059"},{"town":"東半郷","lat":"38.188761","lng":"140.322399"},{"town":"東古館","lat":"38.265007","lng":"140.274993"},{"town":"東山形一丁目","lat":"38.242040","lng":"140.372477"},{"town":"東山形二丁目","lat":"38.240606","lng":"140.374206"},{"town":"桧町一丁目","lat":"38.276341","lng":"140.336827"},{"town":"桧町二丁目","lat":"38.276459","lng":"140.332768"},{"town":"桧町三丁目","lat":"38.276566","lng":"140.329689"},{"town":"桧町四丁目","lat":"38.276568","lng":"140.326130"},{"town":"平久保","lat":"38.286624","lng":"140.353463"},{"town":"平清水一丁目","lat":"38.230946","lng":"140.346241"},{"town":"平清水二丁目","lat":"38.228726","lng":"140.348718"},{"town":"深町一丁目","lat":"38.235160","lng":"140.317202"},{"town":"深町二丁目","lat":"38.233721","lng":"140.316876"},{"town":"深町三丁目","lat":"38.231449","lng":"140.316072"},{"town":"藤沢川","lat":"38.261250","lng":"140.271044"},{"town":"舞台","lat":"38.256647","lng":"140.260985"},{"town":"双葉町一丁目","lat":"38.248220","lng":"140.325078"},{"town":"双葉町二丁目","lat":"38.248655","lng":"140.320910"},{"town":"平田","lat":"38.270977","lng":"140.286145"},{"town":"防原町","lat":"38.238820","lng":"140.392181"},{"town":"穂積","lat":"38.283533","lng":"140.364298"},{"town":"本町一丁目","lat":"38.250543","lng":"140.336267"},{"town":"本町二丁目","lat":"38.250209","lng":"140.339054"},{"town":"前田町","lat":"38.237109","lng":"140.349709"},{"town":"松栄","lat":"38.240462","lng":"140.296239"},{"town":"松栄一丁目","lat":"38.237688","lng":"140.295268"},{"town":"松栄二丁目","lat":"38.238745","lng":"140.290209"},{"town":"松波一丁目","lat":"38.238436","lng":"140.358597"},{"town":"松波二丁目","lat":"38.240797","lng":"140.361110"},{"town":"松波三丁目","lat":"38.241805","lng":"140.367820"},{"town":"松波四丁目","lat":"38.238877","lng":"140.366789"},{"town":"松波五丁目","lat":"38.237434","lng":"140.369933"},{"town":"松見町","lat":"38.230653","lng":"140.339161"},{"town":"松山一丁目","lat":"38.234110","lng":"140.346672"},{"town":"松山二丁目","lat":"38.233467","lng":"140.350422"},{"town":"松山三丁目","lat":"38.236728","lng":"140.353763"},{"town":"馬見ケ崎一丁目","lat":"38.281124","lng":"140.333973"},{"town":"馬見ケ崎二丁目","lat":"38.281238","lng":"140.329797"},{"town":"馬見ケ崎三丁目","lat":"38.281292","lng":"140.326218"},{"town":"馬見ケ崎四丁目","lat":"38.284555","lng":"140.327915"},{"town":"見崎川原","lat":"38.301440","lng":"140.331541"},{"town":"三日町一丁目","lat":"38.241280","lng":"140.336200"},{"town":"三日町二丁目","lat":"38.242841","lng":"140.338597"},{"town":"緑町一丁目","lat":"38.257173","lng":"140.345599"},{"town":"緑町二丁目","lat":"38.256565","lng":"140.349940"},{"town":"緑町三丁目","lat":"38.251525","lng":"140.347481"},{"town":"緑町四丁目","lat":"38.253041","lng":"140.351693"},{"town":"南一番町","lat":"38.233010","lng":"140.327798"},{"town":"南二番町","lat":"38.229554","lng":"140.326186"},{"town":"南三番町","lat":"38.231505","lng":"140.324281"},{"town":"南四番町","lat":"38.234016","lng":"140.324737"},{"town":"南石関","lat":"38.249911","lng":"140.304417"},{"town":"南志戸田","lat":"38.272257","lng":"140.293440"},{"town":"南反田","lat":"38.269091","lng":"140.274369"},{"town":"南館一丁目","lat":"38.238184","lng":"140.315751"},{"town":"南館二丁目","lat":"38.238356","lng":"140.313671"},{"town":"南館三丁目","lat":"38.234041","lng":"140.312963"},{"town":"南館四丁目","lat":"38.234821","lng":"140.310774"},{"town":"南館五丁目","lat":"38.236523","lng":"140.307968"},{"town":"南館西","lat":"38.237416","lng":"140.299291"},{"town":"南原町一丁目","lat":"38.238075","lng":"140.345611"},{"town":"南原町二丁目","lat":"38.235827","lng":"140.341694"},{"town":"南原町三丁目","lat":"38.232466","lng":"140.343099"},{"town":"南半郷","lat":"38.184794","lng":"140.317130"},{"town":"南松原一丁目","lat":"38.200128","lng":"140.308789"},{"town":"南松原二丁目","lat":"38.197651","lng":"140.307532"},{"town":"みのりが丘","lat":"38.248871","lng":"140.245471"},{"town":"美畑町","lat":"38.236540","lng":"140.323978"},{"town":"みはらしの丘一丁目","lat":"38.193731","lng":"140.292580"},{"town":"みはらしの丘二丁目","lat":"38.188963","lng":"140.293221"},{"town":"みはらしの丘三丁目","lat":"38.187870","lng":"140.286977"},{"town":"みはらしの丘四丁目","lat":"38.183262","lng":"140.289204"},{"town":"みはらしの丘五丁目","lat":"38.183928","lng":"140.292107"},{"town":"宮浦","lat":"38.258097","lng":"140.300481"},{"town":"宮町一丁目","lat":"38.264011","lng":"140.334833"},{"town":"宮町二丁目","lat":"38.267153","lng":"140.335164"},{"town":"宮町三丁目","lat":"38.270277","lng":"140.335966"},{"town":"宮町四丁目","lat":"38.267185","lng":"140.339854"},{"town":"宮町五丁目","lat":"38.262847","lng":"140.338703"},{"town":"明神前","lat":"38.243705","lng":"140.291092"},{"town":"六日町","lat":"38.258602","lng":"140.342109"},{"town":"元木一丁目","lat":"38.226071","lng":"140.325352"},{"town":"元木二丁目","lat":"38.223969","lng":"140.322905"},{"town":"元木三丁目","lat":"38.223505","lng":"140.317166"},{"town":"本屋敷","lat":"38.291736","lng":"140.318233"},{"town":"門前","lat":"38.215659","lng":"140.269125"},{"town":"薬師町一丁目","lat":"38.262376","lng":"140.342347"},{"town":"薬師町二丁目","lat":"38.262702","lng":"140.346351"},{"town":"谷地前","lat":"38.211689","lng":"140.268188"},{"town":"八ツ口","lat":"38.294339","lng":"140.315315"},{"town":"柳田","lat":"38.262619","lng":"140.284073"},{"town":"やよい一丁目","lat":"38.253498","lng":"140.308160"},{"town":"やよい二丁目","lat":"38.256167","lng":"140.309023"},{"town":"山家本町一丁目","lat":"38.264065","lng":"140.366165"},{"town":"山家本町二丁目","lat":"38.265540","lng":"140.365864"},{"town":"山家町一丁目","lat":"38.265055","lng":"140.358647"},{"town":"山家町二丁目","lat":"38.264442","lng":"140.360621"},{"town":"八日町一丁目","lat":"38.243466","lng":"140.329711"},{"town":"八日町二丁目","lat":"38.241588","lng":"140.329995"},{"town":"横井","lat":"38.282190","lng":"140.290232"},{"town":"横道","lat":"38.254512","lng":"140.296202"},{"town":"芳野","lat":"38.280209","lng":"140.355381"},{"town":"吉原一丁目","lat":"38.229395","lng":"140.315313"},{"town":"吉原二丁目","lat":"38.229754","lng":"140.311213"},{"town":"吉原三丁目","lat":"38.230074","lng":"140.306605"},{"town":"吉原南","lat":"38.222699","lng":"140.311374"},{"town":"流通センター一丁目","lat":"38.291565","lng":"140.352249"},{"town":"流通センター二丁目","lat":"38.290939","lng":"140.355413"},{"town":"流通センター三丁目","lat":"38.289392","lng":"140.358700"},{"town":"流通センター四丁目","lat":"38.294472","lng":"140.359253"},{"town":"若葉町","lat":"38.240817","lng":"140.325261"},{"town":"若宮","lat":"38.229214","lng":"140.303711"},{"town":"若宮一丁目","lat":"38.227283","lng":"140.312212"},{"town":"若宮二丁目","lat":"38.225288","lng":"140.311582"},{"town":"若宮三丁目","lat":"38.226078","lng":"140.306365"},{"town":"若宮四丁目","lat":"38.227947","lng":"140.306691"},{"town":"和合町一丁目","lat":"38.261787","lng":"140.358876"},{"town":"和合町二丁目","lat":"38.259704","lng":"140.357956"},{"town":"和合町三丁目","lat":"38.260146","lng":"140.361584"},{"town":"割田","lat":"38.303767","lng":"140.323322"},{"town":"大字下反田","lat":"38.273146","lng":"140.267424"},{"town":"くぬぎざわ西","lat":"38.270523","lng":"140.278733"},{"town":"大字志戸田","lat":"38.279319","lng":"140.280287"},{"town":"西原二丁目","lat":"38.266342","lng":"140.280834"},{"town":"西原一丁目","lat":"38.264487","lng":"140.281117"},{"town":"大字下椹沢","lat":"38.267488","lng":"140.285208"},{"town":"飯塚町","lat":"38.258058","lng":"140.281706"},{"town":"大字渋江","lat":"38.319425","lng":"140.327704"},{"town":"大字漆山","lat":"38.314587","lng":"140.343542"},{"town":"大字千手堂","lat":"38.312016","lng":"140.335200"}]