[{"town":"あおば","lat":"38.337670","lng":"140.283705"},{"town":"いずみ","lat":"38.340061","lng":"140.276192"},{"town":"大字岡","lat":"38.342282","lng":"140.246371"},{"town":"大字金沢","lat":"38.315569","lng":"140.240985"},{"town":"大字小塩","lat":"38.350370","lng":"140.260262"},{"town":"大字達磨寺","lat":"38.325176","lng":"140.282274"},{"town":"大字土橋","lat":"38.336511","lng":"140.248872"},{"town":"大字長崎","lat":"38.338345","lng":"140.297995"},{"town":"大字向新田","lat":"38.315605","lng":"140.290624"},{"town":"大字柳沢","lat":"38.329652","lng":"140.242305"}]