[{"town":"相生町","koaza":"","lat":32.733844,"lng":129.871781},{"town":"相川町","koaza":"","lat":32.800468,"lng":129.788654},{"town":"青山町","koaza":"","lat":32.77648,"lng":129.848274},{"town":"赤首町","koaza":"","lat":32.851333,"lng":129.690678},{"town":"赤迫一丁目","koaza":"","lat":32.79528,"lng":129.857061},{"town":"赤迫二丁目","koaza":"","lat":32.797787,"lng":129.856877},{"town":"赤迫三丁目","koaza":"","lat":32.800962,"lng":129.854873},{"town":"秋月町","koaza":"","lat":32.747477,"lng":129.849053},{"town":"飽の浦町","koaza":"","lat":32.743229,"lng":129.85688},{"town":"曙町","koaza":"","lat":32.753668,"lng":129.858217},{"town":"旭町","koaza":"","lat":32.750554,"lng":129.864054},{"town":"畝刈町","koaza":"","lat":32.831102,"lng":129.781693},{"town":"畦別当町","koaza":"","lat":32.812614,"lng":129.920849},{"town":"畦町","koaza":"","lat":32.819009,"lng":129.740925},{"town":"愛宕一丁目","koaza":"","lat":32.73852,"lng":129.88779},{"town":"愛宕二丁目","koaza":"","lat":32.737535,"lng":129.891132},{"town":"愛宕三丁目","koaza":"","lat":32.733629,"lng":129.890233},{"town":"愛宕四丁目","koaza":"","lat":32.735359,"lng":129.893977},{"town":"網場町","koaza":"","lat":32.751043,"lng":129.943273},{"town":"油木町","koaza":"","lat":32.782252,"lng":129.847827},{"town":"油屋町","koaza":"","lat":32.742216,"lng":129.881879},{"town":"家野町","koaza":"","lat":32.788097,"lng":129.862499},{"town":"伊王島町一丁目","koaza":"","lat":32.708593,"lng":129.766933},{"town":"伊王島町二丁目","koaza":"","lat":32.696383,"lng":129.780682},{"town":"飯香浦町","koaza":"","lat":32.725328,"lng":129.929208},{"town":"以下宿町","koaza":"","lat":32.618224,"lng":129.799088},{"town":"池島町","koaza":"","lat":32.885527,"lng":129.599625},{"town":"石神町","koaza":"","lat":32.785858,"lng":129.872109},{"town":"泉一丁目","koaza":"","lat":32.794858,"lng":129.865129},{"town":"泉二丁目","koaza":"","lat":32.797592,"lng":129.864286},{"town":"泉三丁目","koaza":"","lat":32.797302,"lng":129.860485},{"town":"泉町","koaza":"","lat":32.804406,"lng":129.867316},{"town":"出雲一丁目","koaza":"","lat":32.728796,"lng":129.873477},{"town":"出雲二丁目","koaza":"","lat":32.728616,"lng":129.869872},{"town":"出雲三丁目","koaza":"","lat":32.724337,"lng":129.873883},{"town":"伊勢町","koaza":"","lat":32.751846,"lng":129.885511},{"town":"磯道町","koaza":"","lat":32.697967,"lng":129.849736},{"town":"稲佐町","koaza":"","lat":32.756075,"lng":129.855261},{"town":"稲田町","koaza":"","lat":32.736855,"lng":129.877894},{"town":"今博多町","koaza":"","lat":32.750591,"lng":129.882127},{"town":"伊良林一丁目","koaza":"","lat":32.750932,"lng":129.886942},{"town":"伊良林二丁目","koaza":"","lat":32.748987,"lng":129.888083},{"town":"伊良林三丁目","koaza":"","lat":32.746312,"lng":129.887635},{"town":"入船町","koaza":"","lat":32.745115,"lng":129.845627},{"town":"岩川町","koaza":"","lat":32.766636,"lng":129.865469},{"town":"岩瀬道町","koaza":"","lat":32.737828,"lng":129.85458},{"town":"岩見町","koaza":"","lat":32.767632,"lng":129.853576},{"town":"岩屋町","koaza":"","lat":32.797372,"lng":129.846388},{"town":"上田町","koaza":"","lat":32.732101,"lng":129.871725},{"town":"上野町","koaza":"","lat":32.778771,"lng":129.867645},{"town":"魚の町","koaza":"","lat":32.748659,"lng":129.879922},{"town":"現川町","koaza":"","lat":32.792212,"lng":129.922377},{"town":"馬町","koaza":"","lat":32.75238,"lng":129.882487},{"town":"梅香崎町","koaza":"","lat":32.739962,"lng":129.874188},{"town":"上町","koaza":"","lat":32.75158,"lng":129.877757},{"town":"江川町","koaza":"","lat":32.683239,"lng":129.843166},{"town":"江戸町","koaza":"","lat":32.744684,"lng":129.87359},{"town":"江の浦町","koaza":"","lat":32.751731,"lng":129.856014},{"town":"恵美須町","koaza":"","lat":32.750517,"lng":129.874573},{"town":"江平一丁目","koaza":"","lat":32.769839,"lng":129.875238},{"town":"江平二丁目","koaza":"","lat":32.773178,"lng":129.873409},{"town":"江平三丁目","koaza":"","lat":32.771652,"lng":129.879712},{"town":"エミネント葉山町","koaza":"","lat":32.801618,"lng":129.844174},{"town":"江里町","koaza":"","lat":32.780766,"lng":129.858381},{"town":"扇町","koaza":"","lat":32.784213,"lng":129.868545},{"town":"大井手町","koaza":"","lat":32.751074,"lng":129.88257},{"town":"大浦東町","koaza":"","lat":32.732743,"lng":129.87341},{"town":"大浦町","koaza":"","lat":32.736614,"lng":129.871739},{"town":"大籠町","koaza":"","lat":32.672195,"lng":129.822768},{"town":"大崎町","koaza":"","lat":32.672634,"lng":129.890059},{"town":"大園町","koaza":"","lat":32.804165,"lng":129.839265},{"town":"太田尾町","koaza":"","lat":32.735193,"lng":129.936671},{"town":"大谷町","koaza":"","lat":32.747068,"lng":129.853987},{"town":"大手一丁目","koaza":"","lat":32.790539,"lng":129.873928},{"town":"大手二丁目","koaza":"","lat":32.789093,"lng":129.878188},{"town":"大手三丁目","koaza":"","lat":32.792023,"lng":129.877427},{"town":"大鳥町","koaza":"","lat":32.748526,"lng":129.858399},{"town":"大浜町","koaza":"","lat":32.750937,"lng":129.839113},{"town":"大橋町","koaza":"","lat":32.781701,"lng":129.86259},{"town":"大宮町","koaza":"","lat":32.797912,"lng":129.834088},{"town":"大山町","koaza":"","lat":32.697046,"lng":129.875056},{"town":"岡町","koaza":"","lat":32.777407,"lng":129.862856},{"town":"桶屋町","koaza":"","lat":32.749621,"lng":129.881191},{"town":"音無町","koaza":"","lat":32.789335,"lng":129.858324},{"town":"尾上町","koaza":"","lat":32.752794,"lng":129.868669},{"town":"御船蔵町","koaza":"","lat":32.757584,"lng":129.871492},{"town":"かき道一丁目","koaza":"","lat":32.770821,"lng":129.953788},{"town":"かき道二丁目","koaza":"","lat":32.77304,"lng":129.958367},{"town":"かき道三丁目","koaza":"","lat":32.772107,"lng":129.964266},{"town":"かき道四丁目","koaza":"","lat":32.767754,"lng":129.963702},{"town":"かき道五丁目","koaza":"","lat":32.767953,"lng":129.959804},{"town":"かき道六丁目","koaza":"","lat":32.765325,"lng":129.96082},{"town":"柿泊町","koaza":"","lat":32.773136,"lng":129.807034},{"town":"籠町","koaza":"","lat":32.740852,"lng":129.87648},{"town":"風頭町","koaza":"","lat":32.742947,"lng":129.888674},{"town":"樫山町","koaza":"","lat":32.812817,"lng":129.737133},{"town":"鍛冶屋町","koaza":"","lat":32.743031,"lng":129.883124},{"town":"春日町","koaza":"","lat":32.743497,"lng":129.951345},{"town":"片淵一丁目","koaza":"","lat":32.754198,"lng":129.886044},{"town":"片淵二丁目","koaza":"","lat":32.756039,"lng":129.887491},{"town":"片淵三丁目","koaza":"","lat":32.761945,"lng":129.892965},{"town":"片淵四丁目","koaza":"","lat":32.761169,"lng":129.889748},{"town":"片淵五丁目","koaza":"","lat":32.767345,"lng":129.892913},{"town":"勝山町","koaza":"","lat":32.751081,"lng":129.879854},{"town":"金堀町","koaza":"","lat":32.774267,"lng":129.844259},{"town":"金屋町","koaza":"","lat":32.749069,"lng":129.874641},{"town":"鹿尾町","koaza":"","lat":32.68653,"lng":129.866983},{"town":"樺島町","koaza":"","lat":32.746391,"lng":129.873147},{"town":"上浦町","koaza":"","lat":32.788166,"lng":129.817856},{"town":"上大野町","koaza":"","lat":32.86739,"lng":129.68311},{"town":"上黒崎町","koaza":"","lat":32.849746,"lng":129.724557},{"town":"上小島一丁目","koaza":"","lat":32.7372,"lng":129.884165},{"town":"上小島二丁目","koaza":"","lat":32.736016,"lng":129.886287},{"town":"上小島三丁目","koaza":"","lat":32.732919,"lng":129.88796},{"town":"上小島四丁目","koaza":"","lat":32.732388,"lng":129.885338},{"town":"上小島五丁目","koaza":"","lat":32.728766,"lng":129.88815},{"town":"上銭座町","koaza":"","lat":32.763617,"lng":129.869481},{"town":"上戸石町","koaza":"","lat":32.778166,"lng":129.973074},{"town":"上戸町","koaza":"","lat":32.7235,"lng":129.870261},{"town":"上戸町一丁目","koaza":"","lat":32.717985,"lng":129.868747},{"town":"上戸町二丁目","koaza":"","lat":32.715715,"lng":129.867638},{"town":"上戸町三丁目","koaza":"","lat":32.716567,"lng":129.870097},{"town":"上戸町四丁目","koaza":"","lat":32.707545,"lng":129.883174},{"town":"上西山町","koaza":"","lat":32.75499,"lng":129.883802},{"town":"神ノ島町一丁目","koaza":"","lat":32.725877,"lng":129.828471},{"town":"神ノ島町二丁目","koaza":"","lat":32.71852,"lng":129.827142},{"town":"神ノ島町三丁目","koaza":"","lat":32.723141,"lng":129.823215},{"town":"蚊焼町","koaza":"","lat":32.646844,"lng":129.814853},{"town":"川上町","koaza":"","lat":32.72789,"lng":129.878},{"town":"川口町","koaza":"","lat":32.767966,"lng":129.863549},{"town":"川内町","koaza":"","lat":32.780078,"lng":129.986953},{"town":"川平町","koaza":"","lat":32.801392,"lng":129.890218},{"town":"川原町","koaza":"","lat":32.631627,"lng":129.822863},{"town":"館内町","koaza":"","lat":32.738959,"lng":129.877078},{"town":"北浦町","koaza":"","lat":32.718165,"lng":129.91384},{"town":"木鉢町一丁目","koaza":"","lat":32.724875,"lng":129.842289},{"town":"木鉢町二丁目","koaza":"","lat":32.73362,"lng":129.840848},{"town":"京太郎町","koaza":"","lat":32.691974,"lng":129.853951},{"town":"京泊一丁目","koaza":"","lat":32.828452,"lng":129.774028},{"town":"京泊二丁目","koaza":"","lat":32.822244,"lng":129.774635},{"town":"京泊三丁目","koaza":"","lat":32.823151,"lng":129.767628},{"town":"琴海大平町","koaza":"","lat":32.958773,"lng":129.799611},{"town":"琴海尾戸町","koaza":"","lat":32.935656,"lng":129.80703},{"town":"琴海形上町","koaza":"","lat":32.943932,"lng":129.762448},{"town":"琴海戸根原町","koaza":"","lat":32.903196,"lng":129.798386},{"town":"琴海戸根町","koaza":"","lat":32.894895,"lng":129.764636},{"town":"琴海村松町","koaza":"","lat":32.875931,"lng":129.776853},{"town":"銀屋町","koaza":"","lat":32.745903,"lng":129.880844},{"town":"草住町","koaza":"","lat":32.688719,"lng":129.848937},{"town":"黒浜町","koaza":"","lat":32.631165,"lng":129.801553},{"town":"毛井首町","koaza":"","lat":32.692474,"lng":129.838088},{"town":"けやき台町","koaza":"","lat":32.796701,"lng":129.879673},{"town":"麹屋町","koaza":"","lat":32.748821,"lng":129.883267},{"town":"興善町","koaza":"","lat":32.748794,"lng":129.876546},{"town":"神浦江川町","koaza":"","lat":32.881164,"lng":129.681588},{"town":"神浦扇山町","koaza":"","lat":32.891664,"lng":129.728013},{"town":"神浦上大中尾町","koaza":"","lat":32.893149,"lng":129.708356},{"town":"神浦上道徳町","koaza":"","lat":32.888038,"lng":129.682478},{"town":"神浦北大中尾町","koaza":"","lat":32.894035,"lng":129.698306},{"town":"神浦口福町","koaza":"","lat":32.895536,"lng":129.678799},{"town":"神浦下大中尾町","koaza":"","lat":32.877183,"lng":129.725391},{"town":"神浦下道徳町","koaza":"","lat":32.886625,"lng":129.675497},{"town":"神浦夏井町","koaza":"","lat":32.873443,"lng":129.68161},{"town":"神浦丸尾町","koaza":"","lat":32.883402,"lng":129.686182},{"town":"神浦向町","koaza":"","lat":32.872238,"lng":129.703919},{"town":"香焼町","koaza":"","lat":32.693089,"lng":129.816611},{"town":"香焼町","koaza":"堀切","lat":32.690675,"lng":129.816291},{"town":"香焼町","koaza":"深浦","lat":32.689726,"lng":129.816289},{"town":"小浦町","koaza":"","lat":32.756614,"lng":129.829495},{"town":"小江原一丁目","koaza":"","lat":32.787118,"lng":129.837022},{"town":"小江原二丁目","koaza":"","lat":32.779058,"lng":129.838712},{"town":"小江原三丁目","koaza":"","lat":32.779452,"lng":129.832468},{"town":"小江原四丁目","koaza":"","lat":32.782256,"lng":129.830864},{"town":"小江原五丁目","koaza":"","lat":32.784525,"lng":129.827372},{"town":"小江町","koaza":"","lat":32.765257,"lng":129.816433},{"town":"小ケ倉町一丁目","koaza":"","lat":32.709472,"lng":129.853141},{"town":"小ケ倉町二丁目","koaza":"","lat":32.705347,"lng":129.852917},{"town":"小ケ倉町三丁目","koaza":"","lat":32.702596,"lng":129.848377},{"town":"古賀町","koaza":"","lat":32.80494,"lng":129.957236},{"town":"国分町","koaza":"","lat":32.725995,"lng":129.858865},{"town":"小菅町","koaza":"","lat":32.726106,"lng":129.864493},{"town":"小瀬戸町","koaza":"","lat":32.72684,"lng":129.834553},{"town":"小曽根町","koaza":"","lat":32.734088,"lng":129.866621},{"town":"木場町","koaza":"","lat":32.773034,"lng":129.903794},{"town":"小峰町","koaza":"","lat":32.781747,"lng":129.872292},{"town":"米山町","koaza":"","lat":32.69032,"lng":129.844477},{"town":"五島町","koaza":"","lat":32.748799,"lng":129.87309},{"town":"幸町","koaza":"","lat":32.758057,"lng":129.865311},{"town":"竿浦町","koaza":"","lat":32.674506,"lng":129.839886},{"town":"界一丁目","koaza":"","lat":32.752766,"lng":129.933647},{"town":"界二丁目","koaza":"","lat":32.755279,"lng":129.940767},{"town":"栄町","koaza":"","lat":32.747575,"lng":129.878208},{"town":"坂本一丁目","koaza":"","lat":32.770214,"lng":129.868548},{"town":"坂本二丁目","koaza":"","lat":32.766186,"lng":129.872192},{"town":"坂本三丁目","koaza":"","lat":32.769723,"lng":129.871657},{"town":"桜木町","koaza":"","lat":32.729536,"lng":129.890919},{"town":"さくらの里一丁目","koaza":"","lat":32.832276,"lng":129.771313},{"town":"さくらの里二丁目","koaza":"","lat":32.832283,"lng":129.765039},{"town":"さくらの里三丁目","koaza":"","lat":32.827235,"lng":129.760708},{"town":"桜馬場一丁目","koaza":"","lat":32.752809,"lng":129.888296},{"town":"桜馬場二丁目","koaza":"","lat":32.753548,"lng":129.890845},{"town":"桜町","koaza":"","lat":32.749966,"lng":129.878143},{"town":"三京町","koaza":"","lat":32.834407,"lng":129.759198},{"town":"三景台町","koaza":"","lat":32.726474,"lng":129.896647},{"town":"三和町","koaza":"","lat":32.693454,"lng":129.849317},{"town":"椎の木町","koaza":"","lat":32.728725,"lng":129.88068},{"town":"塩浜町","koaza":"","lat":32.740856,"lng":129.850326},{"town":"潮見町","koaza":"","lat":32.74056,"lng":129.942709},{"town":"式見町","koaza":"","lat":32.787626,"lng":129.790831},{"town":"下町","koaza":"","lat":32.734267,"lng":129.873306},{"town":"清水町","koaza":"","lat":32.78593,"lng":129.859154},{"town":"下大野町","koaza":"","lat":32.860899,"lng":129.690009},{"town":"下黒崎町","koaza":"","lat":32.83878,"lng":129.711627},{"town":"下西山町","koaza":"","lat":32.755804,"lng":129.885534},{"town":"宿町","koaza":"","lat":32.763263,"lng":129.934806},{"town":"昭和一丁目","koaza":"","lat":32.791113,"lng":129.867518},{"town":"昭和二丁目","koaza":"","lat":32.793244,"lng":129.870802},{"town":"昭和三丁目","koaza":"","lat":32.798279,"lng":129.872653},{"town":"白鳥町","koaza":"","lat":32.7861,"lng":129.855551},{"town":"白木町","koaza":"","lat":32.740854,"lng":129.898677},{"town":"城山台一丁目","koaza":"","lat":32.770583,"lng":129.842943},{"town":"城山台二丁目","koaza":"","lat":32.772293,"lng":129.837032},{"town":"城山町","koaza":"","lat":32.772602,"lng":129.857962},{"town":"新小が倉一丁目","koaza":"","lat":32.708518,"lng":129.859459},{"town":"新小が倉二丁目","koaza":"","lat":32.70816,"lng":129.861974},{"town":"新大工町","koaza":"","lat":32.752809,"lng":129.885753},{"town":"新地町","koaza":"","lat":32.741123,"lng":129.874551},{"town":"新戸町一丁目","koaza":"","lat":32.712822,"lng":129.860792},{"town":"新戸町二丁目","koaza":"","lat":32.712588,"lng":129.865956},{"town":"新戸町三丁目","koaza":"","lat":32.707258,"lng":129.873319},{"town":"新戸町四丁目","koaza":"","lat":32.7114,"lng":129.871981},{"town":"新中川町","koaza":"","lat":32.751308,"lng":129.889924},{"town":"新牧野町","koaza":"","lat":32.859859,"lng":129.715822},{"town":"十人町","koaza":"","lat":32.738801,"lng":129.875153},{"town":"城栄町","koaza":"","lat":32.776573,"lng":129.856031},{"town":"末石町","koaza":"","lat":32.683354,"lng":129.837585},{"town":"芒塚町","koaza":"","lat":32.752985,"lng":129.927741},{"town":"住吉台町","koaza":"","lat":32.795703,"lng":129.859107},{"town":"住吉町","koaza":"","lat":32.792992,"lng":129.860398},{"town":"諏訪町","koaza":"","lat":32.747179,"lng":129.881531},{"town":"銭座町","koaza":"","lat":32.761156,"lng":129.868111},{"town":"園田町","koaza":"","lat":32.797127,"lng":129.811427},{"town":"多以良町","koaza":"","lat":32.813948,"lng":129.779095},{"town":"高丘一丁目","koaza":"","lat":32.732652,"lng":129.879459},{"town":"高丘二丁目","koaza":"","lat":32.732524,"lng":129.882087},{"town":"高尾町","koaza":"","lat":32.778313,"lng":129.874709},{"town":"高島町","koaza":"","lat":32.65791,"lng":129.752881},{"town":"高島町","koaza":"光町","lat":32.657773,"lng":129.755106},{"town":"高島町","koaza":"尾浜","lat":32.659674,"lng":129.754429},{"town":"高島町","koaza":"本町","lat":32.663961,"lng":129.752236},{"town":"高島町","koaza":"百万","lat":32.660771,"lng":129.755317},{"town":"高島町","koaza":"緑ケ丘","lat":32.662462,"lng":129.750057},{"town":"高島町","koaza":"蛎瀬","lat":32.664954,"lng":129.751333},{"town":"高城台一丁目","koaza":"","lat":32.776834,"lng":129.947733},{"town":"高城台二丁目","koaza":"","lat":32.778782,"lng":129.943324},{"town":"高浜町","koaza":"","lat":32.601542,"lng":129.786111},{"town":"高平町","koaza":"","lat":32.741682,"lng":129.885728},{"town":"宝町","koaza":"","lat":32.75894,"lng":129.867426},{"town":"田上一丁目","koaza":"","lat":32.72353,"lng":129.895604},{"town":"田上二丁目","koaza":"","lat":32.725632,"lng":129.886515},{"town":"田上三丁目","koaza":"","lat":32.721901,"lng":129.891423},{"town":"田上四丁目","koaza":"","lat":32.722052,"lng":129.886506},{"town":"竹の久保町","koaza":"","lat":32.765971,"lng":129.859931},{"town":"立岩町","koaza":"","lat":32.76487,"lng":129.845998},{"town":"立山一丁目","koaza":"","lat":32.754768,"lng":129.88004},{"town":"立山二丁目","koaza":"","lat":32.754588,"lng":129.877009},{"town":"立山三丁目","koaza":"","lat":32.756875,"lng":129.878054},{"town":"立山四丁目","koaza":"","lat":32.756924,"lng":129.879547},{"town":"立山五丁目","koaza":"","lat":32.760687,"lng":129.878234},{"town":"田手原町","koaza":"","lat":32.74073,"lng":129.911085},{"town":"田中町","koaza":"","lat":32.771125,"lng":129.931912},{"town":"玉園町","koaza":"","lat":32.752661,"lng":129.87765},{"town":"為石町","koaza":"","lat":32.644865,"lng":129.839972},{"town":"大黒町","koaza":"","lat":32.752149,"lng":129.872589},{"town":"ダイヤランド一丁目","koaza":"","lat":32.703943,"lng":129.863482},{"town":"ダイヤランド二丁目","koaza":"","lat":32.703924,"lng":129.858088},{"town":"ダイヤランド三丁目","koaza":"","lat":32.700941,"lng":129.854156},{"town":"ダイヤランド四丁目","koaza":"","lat":32.698958,"lng":129.856608},{"town":"筑後町","koaza":"","lat":32.753445,"lng":129.874457},{"town":"千々町","koaza":"","lat":32.661974,"lng":129.87149},{"town":"千歳町","koaza":"","lat":32.789787,"lng":129.86226},{"town":"築町","koaza":"","lat":32.745168,"lng":129.876104},{"town":"辻町","koaza":"","lat":32.785203,"lng":129.876739},{"town":"つつじが丘一丁目","koaza":"","lat":32.803594,"lng":129.961312},{"town":"つつじが丘二丁目","koaza":"","lat":32.804277,"lng":129.959724},{"town":"つつじが丘三丁目","koaza":"","lat":32.807943,"lng":129.95955},{"town":"つつじが丘四丁目","koaza":"","lat":32.80752,"lng":129.962105},{"town":"つつじが丘五丁目","koaza":"","lat":32.809875,"lng":129.961762},{"town":"椿が丘町","koaza":"","lat":32.645564,"lng":129.8287},{"town":"鶴の尾町","koaza":"","lat":32.793624,"lng":129.94926},{"town":"鶴見台一丁目","koaza":"","lat":32.687449,"lng":129.841889},{"town":"鶴見台二丁目","koaza":"","lat":32.69045,"lng":129.841667},{"town":"手熊町","koaza":"","lat":32.782174,"lng":129.802278},{"town":"寺町","koaza":"","lat":32.747277,"lng":129.884096},{"town":"天神町","koaza":"","lat":32.759262,"lng":129.86941},{"town":"出来大工町","koaza":"","lat":32.751759,"lng":129.883059},{"town":"出島町","koaza":"","lat":32.742998,"lng":129.872367},{"town":"戸石町","koaza":"","lat":32.766716,"lng":129.978611},{"town":"藤田尾町","koaza":"","lat":32.649748,"lng":129.856287},{"town":"常盤町","koaza":"","lat":32.739694,"lng":129.870537},{"town":"戸町一丁目","koaza":"","lat":32.724577,"lng":129.860871},{"town":"戸町二丁目","koaza":"","lat":32.723684,"lng":129.865873},{"town":"戸町三丁目","koaza":"","lat":32.718618,"lng":129.863843},{"town":"戸町四丁目","koaza":"","lat":32.719373,"lng":129.858476},{"town":"戸町五丁目","koaza":"","lat":32.716668,"lng":129.854957},{"town":"土井首町","koaza":"","lat":32.696301,"lng":129.836811},{"town":"銅座町","koaza":"","lat":32.742984,"lng":129.876577},{"town":"中川一丁目","koaza":"","lat":32.751187,"lng":129.892647},{"town":"中川二丁目","koaza":"","lat":32.75197,"lng":129.894473},{"town":"中小島一丁目","koaza":"","lat":32.738564,"lng":129.881004},{"town":"中小島二丁目","koaza":"","lat":32.7361,"lng":129.881357},{"town":"中里町","koaza":"","lat":32.804724,"lng":129.967065},{"town":"中新町","koaza":"","lat":32.735791,"lng":129.877038},{"town":"中園町","koaza":"","lat":32.792194,"lng":129.858749},{"town":"中町","koaza":"","lat":32.751974,"lng":129.874354},{"town":"長浦町","koaza":"","lat":32.917203,"lng":129.764132},{"town":"永田町","koaza":"","lat":32.835469,"lng":129.725844},{"town":"浪の平町","koaza":"","lat":32.732011,"lng":129.865011},{"town":"滑石一丁目","koaza":"","lat":32.808842,"lng":129.847024},{"town":"滑石二丁目","koaza":"","lat":32.808176,"lng":129.843602},{"town":"滑石三丁目","koaza":"","lat":32.80983,"lng":129.834581},{"town":"滑石四丁目","koaza":"","lat":32.804353,"lng":129.82202},{"town":"滑石五丁目","koaza":"","lat":32.805016,"lng":129.833428},{"town":"滑石六丁目","koaza":"","lat":32.803865,"lng":129.835686},{"town":"鳴滝一丁目","koaza":"","lat":32.755801,"lng":129.895574},{"town":"鳴滝二丁目","koaza":"","lat":32.756727,"lng":129.892022},{"town":"鳴滝三丁目","koaza":"","lat":32.761884,"lng":129.900265},{"town":"鳴見台一丁目","koaza":"","lat":32.820415,"lng":129.806284},{"town":"鳴見台二丁目","koaza":"","lat":32.822904,"lng":129.805516},{"town":"鳴見町","koaza":"","lat":32.821768,"lng":129.815461},{"town":"南越町","koaza":"","lat":32.593458,"lng":129.767874},{"town":"賑町","koaza":"","lat":32.746623,"lng":129.877299},{"town":"西海町","koaza":"","lat":32.859352,"lng":129.77479},{"town":"錦一丁目","koaza":"","lat":32.7899,"lng":129.856011},{"town":"錦二丁目","koaza":"","lat":32.78941,"lng":129.853767},{"town":"錦三丁目","koaza":"","lat":32.789602,"lng":129.846406},{"town":"西北町","koaza":"","lat":32.796984,"lng":129.850695},{"town":"西小島一丁目","koaza":"","lat":32.739998,"lng":129.878371},{"town":"西小島二丁目","koaza":"","lat":32.736191,"lng":129.879502},{"town":"西琴平町","koaza":"","lat":32.728378,"lng":129.862817},{"town":"西坂町","koaza":"","lat":32.755841,"lng":129.874518},{"town":"西出津町","koaza":"","lat":32.851923,"lng":129.699195},{"town":"西立神町","koaza":"","lat":32.734326,"lng":129.850883},{"town":"西泊町","koaza":"","lat":32.728563,"lng":129.848716},{"town":"西町","koaza":"","lat":32.785799,"lng":129.849536},{"town":"西山一丁目","koaza":"","lat":32.762289,"lng":129.881578},{"town":"西山二丁目","koaza":"","lat":32.760711,"lng":129.887133},{"town":"西山三丁目","koaza":"","lat":32.767616,"lng":129.887491},{"town":"西山四丁目","koaza":"","lat":32.774705,"lng":129.888875},{"town":"西山台一丁目","koaza":"","lat":32.782031,"lng":129.888167},{"town":"西山台二丁目","koaza":"","lat":32.781751,"lng":129.893179},{"town":"西山本町","koaza":"","lat":32.757796,"lng":129.883034},{"town":"虹が丘町","koaza":"","lat":32.797863,"lng":129.841504},{"town":"布巻町","koaza":"","lat":32.655617,"lng":129.838135},{"town":"野母崎樺島町","koaza":"","lat":32.560863,"lng":129.78263},{"town":"野母町","koaza":"","lat":32.582143,"lng":129.744906},{"town":"橋口町","koaza":"","lat":32.778686,"lng":129.864769},{"town":"八郎岳町","koaza":"","lat":32.678507,"lng":129.853556},{"town":"八景町","koaza":"","lat":32.726151,"lng":129.883848},{"town":"花丘町","koaza":"","lat":32.792238,"lng":129.86393},{"town":"花園町","koaza":"","lat":32.77152,"lng":129.850704},{"town":"浜口町","koaza":"","lat":32.769237,"lng":129.865419},{"town":"浜平一丁目","koaza":"","lat":32.759343,"lng":129.872749},{"town":"浜平二丁目","koaza":"","lat":32.76087,"lng":129.874993},{"town":"浜町","koaza":"","lat":32.744284,"lng":129.877763},{"town":"早坂町","koaza":"","lat":32.727375,"lng":129.906397},{"town":"葉山一丁目","koaza":"","lat":32.80468,"lng":129.849055},{"town":"葉山二丁目","koaza":"","lat":32.803732,"lng":129.843672},{"town":"春木町","koaza":"","lat":32.762971,"lng":129.852792},{"town":"晴海台町","koaza":"","lat":32.661896,"lng":129.820891},{"town":"光町","koaza":"","lat":32.755205,"lng":129.863958},{"town":"東小島町","koaza":"","lat":32.739612,"lng":129.882882},{"town":"東琴平一丁目","koaza":"","lat":32.729438,"lng":129.865785},{"town":"東琴平二丁目","koaza":"","lat":32.731141,"lng":129.868997},{"town":"東出津町","koaza":"","lat":32.840443,"lng":129.705715},{"town":"東立神町","koaza":"","lat":32.737431,"lng":129.849935},{"town":"東古川町","koaza":"","lat":32.745743,"lng":129.88022},{"town":"東町","koaza":"","lat":32.782899,"lng":129.959455},{"town":"東山手町","koaza":"","lat":32.737122,"lng":129.873968},{"town":"東山町","koaza":"","lat":32.734022,"lng":129.874788},{"town":"彦見町","koaza":"","lat":32.741108,"lng":129.891941},{"town":"日の出町","koaza":"","lat":32.731733,"lng":129.875294},{"town":"平瀬町","koaza":"","lat":32.688852,"lng":129.838373},{"town":"平戸小屋町","koaza":"","lat":32.751177,"lng":129.85849},{"town":"平野町","koaza":"","lat":32.77153,"lng":129.86514},{"town":"平間町","koaza":"","lat":32.797028,"lng":129.940425},{"town":"平山台一丁目","koaza":"","lat":32.662634,"lng":129.831153},{"town":"平山台二丁目","koaza":"","lat":32.662983,"lng":129.827019},{"town":"平山町","koaza":"","lat":32.666221,"lng":129.841919},{"town":"夫婦川町","koaza":"","lat":32.754822,"lng":129.88964},{"town":"深堀町一丁目","koaza":"","lat":32.684582,"lng":129.831834},{"town":"深堀町二丁目","koaza":"","lat":32.686919,"lng":129.82758},{"town":"深堀町三丁目","koaza":"","lat":32.686566,"lng":129.825335},{"town":"深堀町四丁目","koaza":"","lat":32.678937,"lng":129.828959},{"town":"深堀町五丁目","koaza":"","lat":32.685644,"lng":129.822287},{"town":"深堀町六丁目","koaza":"","lat":32.680343,"lng":129.820261},{"town":"福田本町","koaza":"","lat":32.753156,"lng":129.819092},{"town":"富士見町","koaza":"","lat":32.772242,"lng":129.854414},{"town":"淵町","koaza":"","lat":32.75943,"lng":129.855544},{"town":"船石町","koaza":"","lat":32.798049,"lng":129.97921},{"town":"船大工町","koaza":"","lat":32.741967,"lng":129.878799},{"town":"古川町","koaza":"","lat":32.745891,"lng":129.881714},{"town":"古河町","koaza":"","lat":32.730005,"lng":129.863103},{"town":"古町","koaza":"","lat":32.750185,"lng":129.881596},{"town":"古道町","koaza":"","lat":32.697068,"lng":129.858044},{"town":"文教町","koaza":"","lat":32.786923,"lng":129.866995},{"town":"平和町","koaza":"","lat":32.774946,"lng":129.865625},{"town":"弁天町","koaza":"","lat":32.752893,"lng":129.864099},{"town":"宝栄町","koaza":"","lat":32.769688,"lng":129.859996},{"town":"豊洋台一丁目","koaza":"","lat":32.831879,"lng":129.791754},{"town":"豊洋台二丁目","koaza":"","lat":32.828481,"lng":129.793916},{"town":"北栄町","koaza":"","lat":32.800307,"lng":129.827964},{"town":"北陽町","koaza":"","lat":32.811114,"lng":129.822512},{"town":"星取一丁目","koaza":"","lat":32.723195,"lng":129.881179},{"town":"星取二丁目","koaza":"","lat":32.71885,"lng":129.88529},{"town":"本河内一丁目","koaza":"","lat":32.749607,"lng":129.897547},{"town":"本河内二丁目","koaza":"","lat":32.750737,"lng":129.902321},{"town":"本河内三丁目","koaza":"","lat":32.750949,"lng":129.915229},{"town":"本河内四丁目","koaza":"","lat":32.762006,"lng":129.913866},{"town":"牧島町","koaza":"","lat":32.75453,"lng":129.97293},{"town":"牧野町","koaza":"","lat":32.797856,"lng":129.799222},{"town":"松が枝町","koaza":"","lat":32.736011,"lng":129.868172},{"town":"松崎町","koaza":"","lat":32.85348,"lng":129.743317},{"town":"松原町","koaza":"","lat":32.805865,"lng":129.946953},{"town":"松山町","koaza":"","lat":32.774064,"lng":129.86181},{"town":"丸尾町","koaza":"","lat":32.74778,"lng":129.861931},{"town":"丸山町","koaza":"","lat":32.741153,"lng":129.880569},{"town":"万才町","koaza":"","lat":32.746636,"lng":129.875162},{"town":"三重田町","koaza":"","lat":32.828235,"lng":129.734529},{"town":"三重町","koaza":"","lat":32.831103,"lng":129.744208},{"town":"三川町","koaza":"","lat":32.787923,"lng":129.895434},{"town":"見崎町","koaza":"","lat":32.803835,"lng":129.778733},{"town":"水の浦町","koaza":"","lat":32.748933,"lng":129.853913},{"town":"三ツ山町","koaza":"","lat":32.802842,"lng":129.907329},{"town":"緑が丘町","koaza":"","lat":32.782684,"lng":129.855632},{"town":"緑町","koaza":"","lat":32.763106,"lng":129.867237},{"town":"みなと坂一丁目","koaza":"","lat":32.730143,"lng":129.835688},{"town":"みなと坂二丁目","koaza":"","lat":32.734665,"lng":129.836298},{"town":"南が丘町","koaza":"","lat":32.727765,"lng":129.885623},{"town":"南町","koaza":"","lat":32.72958,"lng":129.88279},{"town":"南山手町","koaza":"","lat":32.733205,"lng":129.869126},{"town":"三原一丁目","koaza":"","lat":32.781643,"lng":129.879277},{"town":"三原二丁目","koaza":"","lat":32.783464,"lng":129.883756},{"town":"三原三丁目","koaza":"","lat":32.777212,"lng":129.883763},{"town":"宮崎町","koaza":"","lat":32.618282,"lng":129.820062},{"town":"宮摺町","koaza":"","lat":32.684524,"lng":129.892959},{"town":"三芳町","koaza":"","lat":32.781124,"lng":129.860424},{"town":"向町","koaza":"","lat":32.786459,"lng":129.797236},{"town":"目覚町","koaza":"","lat":32.76342,"lng":129.86557},{"town":"女の都一丁目","koaza":"","lat":32.797754,"lng":129.876529},{"town":"女の都二丁目","koaza":"","lat":32.802431,"lng":129.880166},{"town":"女の都三丁目","koaza":"","lat":32.806055,"lng":129.879807},{"town":"女の都四丁目","koaza":"","lat":32.802622,"lng":129.875442},{"town":"茂木町","koaza":"","lat":32.704498,"lng":129.900824},{"town":"本尾町","koaza":"","lat":32.775583,"lng":129.870973},{"town":"本石灰町","koaza":"","lat":32.74217,"lng":129.879973},{"town":"本原町","koaza":"","lat":32.781213,"lng":129.868044},{"town":"元船町","koaza":"","lat":32.747201,"lng":129.869973},{"town":"元町","koaza":"","lat":32.733699,"lng":129.876845},{"town":"茂里町","koaza":"","lat":32.765779,"lng":129.862516},{"town":"八百屋町","koaza":"","lat":32.751667,"lng":129.880106},{"town":"矢上町","koaza":"","lat":32.776193,"lng":129.951355},{"town":"八千代町","koaza":"","lat":32.755631,"lng":129.869636},{"town":"八つ尾町","koaza":"","lat":32.735775,"lng":129.897198},{"town":"梁川町","koaza":"","lat":32.762513,"lng":129.858817},{"town":"柳谷町","koaza":"","lat":32.792566,"lng":129.85505},{"town":"柳田町","koaza":"","lat":32.685592,"lng":129.846303},{"town":"矢の平一丁目","koaza":"","lat":32.747876,"lng":129.89417},{"town":"矢の平二丁目","koaza":"","lat":32.748251,"lng":129.891174},{"town":"矢の平三丁目","koaza":"","lat":32.744679,"lng":129.894219},{"town":"矢の平四丁目","koaza":"","lat":32.741858,"lng":129.895537},{"town":"八幡町","koaza":"","lat":32.75038,"lng":129.884187},{"town":"弥生町","koaza":"","lat":32.730841,"lng":129.894964},{"town":"横尾一丁目","koaza":"","lat":32.81196,"lng":129.838113},{"town":"横尾二丁目","koaza":"","lat":32.812735,"lng":129.833668},{"town":"横尾三丁目","koaza":"","lat":32.815058,"lng":129.836677},{"town":"横尾四丁目","koaza":"","lat":32.816382,"lng":129.830685},{"town":"横尾五丁目","koaza":"","lat":32.814988,"lng":129.826856},{"town":"四杖町","koaza":"","lat":32.797004,"lng":129.790494},{"town":"寄合町","koaza":"","lat":32.739947,"lng":129.879648},{"town":"万屋町","koaza":"","lat":32.74518,"lng":129.879076},{"town":"炉粕町","koaza":"","lat":32.752897,"lng":129.881749},{"town":"若草町","koaza":"","lat":32.774896,"lng":129.852994},{"town":"若竹町","koaza":"","lat":32.793652,"lng":129.848257},{"town":"若葉町","koaza":"","lat":32.787786,"lng":129.861271},{"town":"脇岬町","koaza":"","lat":32.590579,"lng":129.791271}]