[{"town":"愛野町乙","koaza":"","lat":32.80624,"lng":130.152096},{"town":"愛野町甲","koaza":"","lat":32.817947,"lng":130.162935},{"town":"吾妻町阿母名","koaza":"","lat":32.822609,"lng":130.175808},{"town":"吾妻町牛口名","koaza":"","lat":32.838634,"lng":130.184645},{"town":"吾妻町永中名","koaza":"","lat":32.825642,"lng":130.182011},{"town":"吾妻町大木場名","koaza":"","lat":32.827347,"lng":130.208753},{"town":"吾妻町川床名","koaza":"","lat":32.809125,"lng":130.218374},{"town":"吾妻町栗林名","koaza":"","lat":32.815979,"lng":130.193691},{"town":"吾妻町木場名","koaza":"","lat":32.828844,"lng":130.229865},{"town":"吾妻町田之平名","koaza":"","lat":32.826289,"lng":130.217962},{"town":"吾妻町布江名","koaza":"","lat":32.819027,"lng":130.196574},{"town":"吾妻町馬場名","koaza":"","lat":32.82089,"lng":130.187729},{"town":"吾妻町平江名","koaza":"","lat":32.833134,"lng":130.218124},{"town":"吾妻町古城名","koaza":"","lat":32.83121,"lng":130.216253},{"town":"吾妻町本村名","koaza":"","lat":32.847199,"lng":130.204773},{"town":"小浜町雲仙","koaza":"","lat":32.744428,"lng":130.267558},{"town":"小浜町大亀","koaza":"","lat":32.687899,"lng":130.206526},{"town":"小浜町金浜","koaza":"","lat":32.703859,"lng":130.189998},{"town":"小浜町北木指","koaza":"","lat":32.714362,"lng":130.206756},{"town":"小浜町北野","koaza":"","lat":32.747297,"lng":130.226752},{"town":"小浜町北本町","koaza":"","lat":32.731774,"lng":130.225012},{"town":"小浜町木場","koaza":"","lat":32.708782,"lng":130.241072},{"town":"小浜町飛子","koaza":"","lat":32.696205,"lng":130.176341},{"town":"小浜町富津","koaza":"","lat":32.762817,"lng":130.199684},{"town":"小浜町マリーナ","koaza":"","lat":32.723824,"lng":130.202731},{"town":"小浜町南木指","koaza":"","lat":32.716746,"lng":130.235962},{"town":"小浜町南本町","koaza":"","lat":32.726094,"lng":130.231597},{"town":"小浜町山畑","koaza":"","lat":32.689734,"lng":130.188543},{"town":"国見町神代丁","koaza":"","lat":32.822942,"lng":130.26999},{"town":"国見町神代乙","koaza":"","lat":32.873106,"lng":130.272661},{"town":"国見町神代己","koaza":"","lat":32.864468,"lng":130.280795},{"town":"国見町神代庚","koaza":"","lat":32.856298,"lng":130.287203},{"town":"国見町神代甲","koaza":"","lat":32.862832,"lng":130.275176},{"town":"国見町神代辛","koaza":"","lat":32.828139,"lng":130.277536},{"town":"国見町神代丙","koaza":"","lat":32.860732,"lng":130.269385},{"town":"国見町神代戊","koaza":"","lat":32.847462,"lng":130.262962},{"town":"国見町多比良丁","koaza":"","lat":32.84566,"lng":130.301138},{"town":"国見町多比良乙","koaza":"","lat":32.870957,"lng":130.30794},{"town":"国見町多比良甲","koaza":"","lat":32.864723,"lng":130.310022},{"town":"国見町多比良丙","koaza":"","lat":32.861553,"lng":130.298922},{"town":"国見町多比良戊","koaza":"","lat":32.826828,"lng":130.296372},{"town":"国見町土黒丁","koaza":"","lat":32.872163,"lng":130.287657},{"town":"国見町土黒乙","koaza":"","lat":32.86736,"lng":130.292605},{"town":"国見町土黒己","koaza":"","lat":32.845876,"lng":130.290128},{"town":"国見町土黒庚","koaza":"","lat":32.820861,"lng":130.28346},{"town":"国見町土黒甲","koaza":"","lat":32.872093,"lng":130.301809},{"town":"国見町土黒丙","koaza":"","lat":32.874186,"lng":130.294453},{"town":"国見町土黒戊","koaza":"","lat":32.854639,"lng":130.289682},{"town":"千々石町丁","koaza":"","lat":32.792169,"lng":130.213826},{"town":"千々石町乙","koaza":"","lat":32.776649,"lng":130.19477},{"town":"千々石町己","koaza":"","lat":32.783837,"lng":130.220931},{"town":"千々石町庚","koaza":"","lat":32.769035,"lng":130.245684},{"town":"千々石町甲","koaza":"","lat":32.787206,"lng":130.193899},{"town":"千々石町丙","koaza":"","lat":32.791488,"lng":130.187605},{"town":"千々石町戊","koaza":"","lat":32.778116,"lng":130.206364},{"town":"瑞穂町伊福乙","koaza":"","lat":32.845539,"lng":130.232299},{"town":"瑞穂町伊福甲","koaza":"","lat":32.844126,"lng":130.243681},{"town":"瑞穂町古部乙","koaza":"","lat":32.841016,"lng":130.221423},{"town":"瑞穂町古部甲","koaza":"","lat":32.843563,"lng":130.227632},{"town":"瑞穂町西郷丁","koaza":"","lat":32.829312,"lng":130.258457},{"town":"瑞穂町西郷乙","koaza":"","lat":32.860622,"lng":130.252175},{"town":"瑞穂町西郷己","koaza":"","lat":32.855691,"lng":130.242567},{"town":"瑞穂町西郷庚","koaza":"","lat":32.870581,"lng":130.247587},{"town":"瑞穂町西郷甲","koaza":"","lat":32.868037,"lng":130.252959},{"town":"瑞穂町西郷辛","koaza":"","lat":32.869392,"lng":130.240022},{"town":"瑞穂町西郷丙","koaza":"","lat":32.848972,"lng":130.254919},{"town":"瑞穂町西郷戊","koaza":"","lat":32.837348,"lng":130.248338},{"town":"南串山町乙","koaza":"","lat":32.673769,"lng":130.164716},{"town":"南串山町甲","koaza":"","lat":32.680376,"lng":130.177851},{"town":"南串山町丙","koaza":"","lat":32.672107,"lng":130.143638}]