[{"town":"相生町","lat":"37.925918","lng":"139.052581"},{"town":"赤坂町一丁目","lat":"37.930098","lng":"139.051274"},{"town":"赤坂町二丁目","lat":"37.930388","lng":"139.052714"},{"town":"赤坂町三丁目","lat":"37.931033","lng":"139.054196"},{"town":"明石一丁目","lat":"37.916011","lng":"139.065508"},{"town":"明石二丁目","lat":"37.917127","lng":"139.068623"},{"town":"曙町","lat":"37.930714","lng":"139.049376"},{"town":"旭町通一番町","lat":"37.919669","lng":"139.034929"},{"town":"旭町通二番町","lat":"37.922068","lng":"139.034938"},{"town":"愛宕一丁目","lat":"37.887269","lng":"139.028122"},{"town":"愛宕二丁目","lat":"37.887434","lng":"139.025776"},{"town":"愛宕三丁目","lat":"37.889189","lng":"139.027290"},{"town":"鐙一丁目","lat":"37.905201","lng":"139.067183"},{"town":"鐙二丁目","lat":"37.903842","lng":"139.068433"},{"town":"鐙三丁目","lat":"37.905766","lng":"139.071963"},{"town":"鐙西一丁目","lat":"37.903308","lng":"139.063497"},{"town":"鐙西二丁目","lat":"37.901743","lng":"139.060818"},{"town":"網川原","lat":"37.897332","lng":"139.020421"},{"town":"網川原一丁目","lat":"37.895852","lng":"139.021655"},{"town":"網川原二丁目","lat":"37.892522","lng":"139.021697"},{"town":"有明大橋町","lat":"37.903361","lng":"139.010435"},{"town":"有明台","lat":"37.901194","lng":"139.010381"},{"town":"医学町通一番町","lat":"37.917415","lng":"139.038444"},{"town":"医学町通二番町","lat":"37.917349","lng":"139.037024"},{"town":"礎町通一ノ町","lat":"37.920235","lng":"139.049572"},{"town":"礎町通二ノ町","lat":"37.921263","lng":"139.050341"},{"town":"礎町通三ノ町","lat":"37.922287","lng":"139.051181"},{"town":"礎町通四ノ町","lat":"37.923338","lng":"139.052092"},{"town":"礎町通五ノ町","lat":"37.924298","lng":"139.052851"},{"town":"礎町通六ノ町","lat":"37.925075","lng":"139.053425"},{"town":"礎町通上一ノ町","lat":"37.919276","lng":"139.049157"},{"town":"一番堀通町","lat":"37.913048","lng":"139.038882"},{"town":"稲荷町","lat":"37.932681","lng":"139.055067"},{"town":"入船町一丁目","lat":"37.932383","lng":"139.057046"},{"town":"入船町二丁目","lat":"37.933285","lng":"139.056972"},{"town":"入船町三丁目","lat":"37.934412","lng":"139.056796"},{"town":"入船町四丁目","lat":"37.940148","lng":"139.060974"},{"town":"入船町五丁目","lat":"37.936670","lng":"139.056848"},{"town":"入船町六丁目","lat":"37.937753","lng":"139.056984"},{"town":"祝町","lat":"37.933686","lng":"139.051688"},{"town":"浮洲町","lat":"37.934727","lng":"139.052442"},{"town":"鵜ノ子","lat":"37.883158","lng":"139.083029"},{"town":"姥ケ山","lat":"37.886313","lng":"139.083780"},{"town":"姥ケ山一丁目","lat":"37.887980","lng":"139.074640"},{"town":"姥ケ山二丁目","lat":"37.885684","lng":"139.076398"},{"town":"姥ケ山三丁目","lat":"37.886558","lng":"139.079260"},{"town":"姥ケ山四丁目","lat":"37.889502","lng":"139.079583"},{"town":"姥ケ山五丁目","lat":"37.891000","lng":"139.077407"},{"town":"姥ケ山六丁目","lat":"37.892456","lng":"139.080693"},{"town":"海辺町一番町","lat":"37.943120","lng":"139.060616"},{"town":"海辺町二番町","lat":"37.943051","lng":"139.058928"},{"town":"上沼","lat":"37.881916","lng":"139.037858"},{"town":"営所通一番町","lat":"37.921085","lng":"139.040442"},{"town":"営所通二番町","lat":"37.922834","lng":"139.038105"},{"town":"烏帽子町","lat":"37.933161","lng":"139.047297"},{"town":"近江一丁目","lat":"37.903903","lng":"139.043969"},{"town":"近江二丁目","lat":"37.901784","lng":"139.047492"},{"town":"近江三丁目","lat":"37.901244","lng":"139.044752"},{"town":"翁町一丁目","lat":"37.933559","lng":"139.047782"},{"town":"翁町二丁目","lat":"37.934125","lng":"139.048498"},{"town":"親松","lat":"37.878637","lng":"139.027981"},{"town":"鏡が岡","lat":"37.915990","lng":"139.073402"},{"town":"春日町","lat":"37.912643","lng":"139.054474"},{"town":"学校裏町","lat":"37.916926","lng":"139.037978"},{"town":"学校町通一番町","lat":"37.916493","lng":"139.037728"},{"town":"学校町通二番町","lat":"37.917815","lng":"139.033825"},{"town":"学校町通三番町","lat":"37.917759","lng":"139.028206"},{"town":"上近江一丁目","lat":"37.900858","lng":"139.033168"},{"town":"上近江二丁目","lat":"37.899112","lng":"139.037247"},{"town":"上近江三丁目","lat":"37.898251","lng":"139.034216"},{"town":"上近江四丁目","lat":"37.897771","lng":"139.030309"},{"town":"上大川前通十番町","lat":"37.926489","lng":"139.049137"},{"town":"上大川前通十一番町","lat":"37.927874","lng":"139.049152"},{"town":"上大川前通十二番町","lat":"37.929364","lng":"139.049268"},{"town":"上大川前通一番町","lat":"37.914832","lng":"139.042725"},{"town":"上大川前通二番町","lat":"37.915430","lng":"139.043822"},{"town":"上大川前通三番町","lat":"37.916169","lng":"139.044958"},{"town":"上大川前通四番町","lat":"37.917030","lng":"139.046171"},{"town":"上大川前通五番町","lat":"37.918329","lng":"139.047619"},{"town":"上大川前通六番町","lat":"37.920350","lng":"139.047780"},{"town":"上大川前通七番町","lat":"37.922191","lng":"139.048390"},{"town":"上大川前通八番町","lat":"37.923693","lng":"139.048606"},{"town":"上大川前通九番町","lat":"37.925085","lng":"139.048951"},{"town":"上所一丁目","lat":"37.909486","lng":"139.041234"},{"town":"上所二丁目","lat":"37.907117","lng":"139.034488"},{"town":"上所三丁目","lat":"37.905490","lng":"139.041661"},{"town":"上所上一丁目","lat":"37.904637","lng":"139.031810"},{"town":"上所上二丁目","lat":"37.902903","lng":"139.033706"},{"town":"上所上三丁目","lat":"37.901982","lng":"139.031417"},{"town":"上所中一丁目","lat":"37.905585","lng":"139.036349"},{"town":"上所中二丁目","lat":"37.904180","lng":"139.038449"},{"town":"上所中三丁目","lat":"37.903208","lng":"139.036238"},{"town":"亀田早通","lat":"37.880911","lng":"139.080047"},{"town":"川岸町一丁目","lat":"37.911807","lng":"139.035208"},{"town":"川岸町二丁目","lat":"37.909917","lng":"139.032623"},{"town":"川岸町三丁目","lat":"37.908599","lng":"139.026074"},{"town":"川端町一丁目","lat":"37.913599","lng":"139.043827"},{"town":"川端町二丁目","lat":"37.914510","lng":"139.045603"},{"town":"川端町三丁目","lat":"37.915217","lng":"139.046935"},{"town":"川端町四丁目","lat":"37.916019","lng":"139.048118"},{"town":"川端町五丁目","lat":"37.916994","lng":"139.049428"},{"town":"川端町六丁目","lat":"37.919319","lng":"139.050927"},{"town":"神道寺一丁目","lat":"37.899909","lng":"139.056391"},{"town":"神道寺二丁目","lat":"37.897108","lng":"139.055833"},{"town":"神道寺三丁目","lat":"37.899147","lng":"139.053837"},{"town":"神道寺南一丁目","lat":"37.896382","lng":"139.057943"},{"town":"神道寺南二丁目","lat":"37.894650","lng":"139.059083"},{"town":"蒲原町","lat":"37.918837","lng":"139.067435"},{"town":"北大畑町","lat":"37.925937","lng":"139.041390"},{"town":"北多門町","lat":"37.924886","lng":"139.049708"},{"town":"北浜通一番町","lat":"37.925757","lng":"139.042923"},{"town":"北浜通二番町","lat":"37.926394","lng":"139.042567"},{"town":"北毘沙門町","lat":"37.926417","lng":"139.051500"},{"town":"寄附町","lat":"37.932864","lng":"139.048869"},{"town":"久蔵興野","lat":"37.876576","lng":"139.040541"},{"town":"窪田町","lat":"37.923451","lng":"139.026494"},{"town":"窪田町一丁目","lat":"37.937214","lng":"139.052364"},{"town":"窪田町二丁目","lat":"37.939253","lng":"139.054467"},{"town":"窪田町三丁目","lat":"37.936715","lng":"139.052863"},{"town":"窪田町四丁目","lat":"37.938448","lng":"139.054544"},{"town":"窪田町五丁目","lat":"37.937143","lng":"139.054143"},{"town":"窪田町六丁目","lat":"37.938765","lng":"139.055690"},{"town":"窪田町七丁目","lat":"37.937578","lng":"139.055192"},{"town":"京王一丁目","lat":"37.893239","lng":"139.075812"},{"town":"京王二丁目","lat":"37.894188","lng":"139.079046"},{"town":"京王三丁目","lat":"37.895447","lng":"139.080292"},{"town":"高志一丁目","lat":"37.896425","lng":"139.074144"},{"town":"高志二丁目","lat":"37.897619","lng":"139.077043"},{"town":"寿町一丁目","lat":"37.934240","lng":"139.051391"},{"town":"寿町二丁目","lat":"37.934944","lng":"139.050983"},{"town":"湖南","lat":"37.876450","lng":"139.039176"},{"town":"小張木一丁目","lat":"37.885747","lng":"139.048148"},{"town":"小張木二丁目","lat":"37.886794","lng":"139.041529"},{"town":"小張木三丁目","lat":"37.884386","lng":"139.042160"},{"town":"幸町","lat":"37.909133","lng":"139.049509"},{"town":"幸西一丁目","lat":"37.911771","lng":"139.050531"},{"town":"幸西二丁目","lat":"37.909887","lng":"139.047140"},{"town":"幸西三丁目","lat":"37.911642","lng":"139.045931"},{"town":"幸西四丁目","lat":"37.913401","lng":"139.049106"},{"town":"栄町一丁目","lat":"37.933826","lng":"139.049945"},{"town":"栄町二丁目","lat":"37.934622","lng":"139.050022"},{"town":"栄町三丁目","lat":"37.935551","lng":"139.049851"},{"town":"魁町","lat":"37.929222","lng":"139.056342"},{"town":"桜木町","lat":"37.894044","lng":"139.053251"},{"town":"笹口","lat":"37.912409","lng":"139.071438"},{"town":"笹口一丁目","lat":"37.911749","lng":"139.065760"},{"town":"笹口二丁目","lat":"37.910230","lng":"139.065225"},{"town":"笹口三丁目","lat":"37.912320","lng":"139.070034"},{"town":"三和町","lat":"37.922438","lng":"139.062152"},{"town":"汐見台","lat":"37.913226","lng":"139.010636"},{"town":"紫竹一丁目","lat":"37.909774","lng":"139.076587"},{"town":"紫竹山一丁目","lat":"37.899759","lng":"139.063910"},{"town":"紫竹山二丁目","lat":"37.901371","lng":"139.068043"},{"town":"紫竹山三丁目","lat":"37.902942","lng":"139.072172"},{"town":"紫竹山四丁目","lat":"37.899307","lng":"139.072848"},{"town":"紫竹山五丁目","lat":"37.898379","lng":"139.068946"},{"town":"紫竹山六丁目","lat":"37.897220","lng":"139.065941"},{"town":"紫竹山七丁目","lat":"37.896102","lng":"139.063124"},{"town":"信濃町","lat":"37.908044","lng":"139.012160"},{"town":"下旭町","lat":"37.920703","lng":"139.037913"},{"town":"下大川前通一ノ町","lat":"37.919906","lng":"139.050238"},{"town":"下大川前通二ノ町","lat":"37.920947","lng":"139.051817"},{"town":"下大川前通三ノ町","lat":"37.921625","lng":"139.052892"},{"town":"下大川前通四ノ町","lat":"37.922417","lng":"139.053678"},{"town":"下大川前通五ノ町","lat":"37.923502","lng":"139.054351"},{"town":"下大川前通六ノ町","lat":"37.924468","lng":"139.055337"},{"town":"下大川前通七ノ町","lat":"37.925439","lng":"139.056032"},{"town":"下所島一丁目","lat":"37.907347","lng":"139.044803"},{"town":"下所島二丁目","lat":"37.905905","lng":"139.045772"},{"town":"鐘木","lat":"37.878728","lng":"139.044122"},{"town":"新光町","lat":"37.901591","lng":"139.020995"},{"town":"新島町通一ノ町","lat":"37.920611","lng":"139.048861"},{"town":"新島町通二ノ町","lat":"37.923471","lng":"139.050100"},{"town":"新島町通三ノ町","lat":"37.924479","lng":"139.051838"},{"town":"新島町通四ノ町","lat":"37.925498","lng":"139.053976"},{"town":"新島町通五ノ町","lat":"37.925773","lng":"139.054767"},{"town":"新和一丁目","lat":"37.902030","lng":"139.039250"},{"town":"新和二丁目","lat":"37.900333","lng":"139.042800"},{"town":"新和三丁目","lat":"37.899879","lng":"139.041133"},{"town":"新和四丁目","lat":"37.899342","lng":"139.039491"},{"town":"水道町一丁目","lat":"37.920872","lng":"139.026992"},{"town":"水道町二丁目","lat":"37.922766","lng":"139.031469"},{"town":"菅根町","lat":"37.931640","lng":"139.051789"},{"town":"住吉町","lat":"37.925720","lng":"139.050238"},{"town":"清五郎","lat":"37.881832","lng":"139.053083"},{"town":"関新一丁目","lat":"37.908860","lng":"139.021631"},{"town":"関新二丁目","lat":"37.905963","lng":"139.021371"},{"town":"関新三丁目","lat":"37.906647","lng":"139.018260"},{"town":"関南町","lat":"37.897436","lng":"139.012028"},{"town":"関屋","lat":"37.915905","lng":"139.014650"},{"town":"関屋大川前一丁目","lat":"37.902904","lng":"139.016812"},{"town":"関屋大川前二丁目","lat":"37.905307","lng":"139.015028"},{"town":"関屋御船蔵町","lat":"37.909908","lng":"139.020287"},{"town":"関屋金鉢山町","lat":"37.909191","lng":"139.016923"},{"town":"関屋金衛町一丁目","lat":"37.914124","lng":"139.016644"},{"town":"関屋金衛町二丁目","lat":"37.913100","lng":"139.014680"},{"town":"関屋下川原町一丁目","lat":"37.916789","lng":"139.025508"},{"town":"関屋下川原町二丁目","lat":"37.915220","lng":"139.023714"},{"town":"関屋昭和町一丁目","lat":"37.912237","lng":"139.016198"},{"town":"関屋昭和町二丁目","lat":"37.910757","lng":"139.016953"},{"town":"関屋昭和町三丁目","lat":"37.909358","lng":"139.018684"},{"town":"関屋新町通一丁目","lat":"37.911049","lng":"139.024655"},{"town":"関屋新町通二丁目","lat":"37.909940","lng":"139.022499"},{"town":"関屋田町一丁目","lat":"37.913980","lng":"139.025163"},{"town":"関屋田町二丁目","lat":"37.912968","lng":"139.024192"},{"town":"関屋田町三丁目","lat":"37.912075","lng":"139.022699"},{"town":"関屋田町四丁目","lat":"37.910633","lng":"139.021799"},{"town":"関屋浜松町","lat":"37.908002","lng":"139.015437"},{"town":"関屋本村町一丁目","lat":"37.913137","lng":"139.020396"},{"town":"関屋本村町二丁目","lat":"37.910999","lng":"139.019321"},{"town":"関屋松波町一丁目","lat":"37.918255","lng":"139.024670"},{"town":"関屋松波町二丁目","lat":"37.917041","lng":"139.022152"},{"town":"関屋松波町三丁目","lat":"37.915415","lng":"139.019387"},{"town":"関屋恵町","lat":"37.902942","lng":"139.012706"},{"town":"太右エ門新田","lat":"37.880298","lng":"139.034376"},{"town":"高美町","lat":"37.880809","lng":"139.036860"},{"town":"田中町","lat":"37.929237","lng":"139.042166"},{"town":"田町一丁目","lat":"37.931693","lng":"139.052675"},{"town":"田町二丁目","lat":"37.931851","lng":"139.053534"},{"town":"田町三丁目","lat":"37.931482","lng":"139.054371"},{"town":"俵柳","lat":"37.874950","lng":"139.041253"},{"town":"忠蔵町","lat":"37.936248","lng":"139.053332"},{"town":"月町","lat":"37.922673","lng":"139.050141"},{"town":"附船町一丁目","lat":"37.935064","lng":"139.054790"},{"town":"附船町二丁目","lat":"37.936697","lng":"139.056077"},{"town":"附船町三丁目","lat":"37.937913","lng":"139.056226"},{"town":"出来島一丁目","lat":"37.900332","lng":"139.024014"},{"town":"出来島二丁目","lat":"37.899992","lng":"139.026363"},{"town":"寺裏通一番町","lat":"37.918711","lng":"139.039234"},{"town":"寺裏通二番町","lat":"37.920291","lng":"139.040360"},{"town":"寺山町","lat":"37.932407","lng":"139.051703"},{"town":"天神一丁目","lat":"37.910004","lng":"139.060593"},{"town":"天神二丁目","lat":"37.909445","lng":"139.057778"},{"town":"天神尾一丁目","lat":"37.908787","lng":"139.054648"},{"town":"天神尾二丁目","lat":"37.907676","lng":"139.052217"},{"town":"天明町","lat":"37.920465","lng":"139.063135"},{"town":"鳥屋野一丁目","lat":"37.889229","lng":"139.022899"},{"town":"鳥屋野二丁目","lat":"37.888516","lng":"139.019707"},{"town":"鳥屋野三丁目","lat":"37.884324","lng":"139.020828"},{"town":"豊照町","lat":"37.926989","lng":"139.054129"},{"town":"中大畑町","lat":"37.925707","lng":"139.041519"},{"town":"長潟","lat":"37.884427","lng":"139.064863"},{"town":"長潟一丁目","lat":"37.893078","lng":"139.065008"},{"town":"長潟二丁目","lat":"37.890126","lng":"139.067077"},{"town":"長潟三丁目","lat":"37.887795","lng":"139.069154"},{"town":"長嶺町","lat":"37.915022","lng":"139.069404"},{"town":"鍋潟新田","lat":"37.876396","lng":"139.057043"},{"town":"並木町","lat":"37.925515","lng":"139.052234"},{"town":"西受地町","lat":"37.933251","lng":"139.049783"},{"town":"西馬越","lat":"37.913633","lng":"139.072774"},{"town":"西厩島町","lat":"37.924880","lng":"139.050307"},{"town":"西大畑町","lat":"37.925927","lng":"139.038533"},{"town":"西中町","lat":"37.920903","lng":"139.038751"},{"town":"西船見町","lat":"37.931018","lng":"139.039451"},{"town":"西堀通十番町","lat":"37.928564","lng":"139.044550"},{"town":"西堀通十一番町","lat":"37.929482","lng":"139.045009"},{"town":"西堀通一番町","lat":"37.917452","lng":"139.039676"},{"town":"西堀通二番町","lat":"37.918255","lng":"139.040196"},{"town":"西堀通三番町","lat":"37.919173","lng":"139.041120"},{"town":"西堀通四番町","lat":"37.920248","lng":"139.041853"},{"town":"西堀通五番町","lat":"37.921613","lng":"139.042753"},{"town":"西堀通六番町","lat":"37.923107","lng":"139.042976"},{"town":"西堀通七番町","lat":"37.924712","lng":"139.043512"},{"town":"西堀通八番町","lat":"37.926232","lng":"139.043982"},{"town":"西堀通九番町","lat":"37.927515","lng":"139.044269"},{"town":"西堀前通十番町","lat":"37.927145","lng":"139.045319"},{"town":"西堀前通十一番町","lat":"37.928338","lng":"139.045583"},{"town":"西堀前通一番町","lat":"37.916381","lng":"139.039609"},{"town":"西堀前通二番町","lat":"37.917122","lng":"139.040501"},{"town":"西堀前通三番町","lat":"37.917960","lng":"139.041530"},{"town":"西堀前通四番町","lat":"37.918679","lng":"139.042221"},{"town":"西堀前通五番町","lat":"37.919801","lng":"139.043208"},{"town":"西堀前通六番町","lat":"37.921279","lng":"139.043836"},{"town":"西堀前通七番町","lat":"37.922842","lng":"139.044252"},{"town":"西堀前通八番町","lat":"37.924415","lng":"139.044651"},{"town":"西堀前通九番町","lat":"37.925852","lng":"139.045015"},{"town":"西湊町通一ノ町","lat":"37.929079","lng":"139.051355"},{"town":"西湊町通二ノ町","lat":"37.929564","lng":"139.052868"},{"town":"西湊町通三ノ町","lat":"37.930067","lng":"139.054255"},{"town":"西湊町通四ノ町","lat":"37.930556","lng":"139.055644"},{"town":"沼垂西一丁目","lat":"37.920636","lng":"139.065951"},{"town":"沼垂西二丁目","lat":"37.922327","lng":"139.065157"},{"town":"沼垂西三丁目","lat":"37.924331","lng":"139.064418"},{"town":"沼垂東一丁目","lat":"37.917745","lng":"139.071182"},{"town":"沼垂東二丁目","lat":"37.919937","lng":"139.071210"},{"town":"沼垂東三丁目","lat":"37.921080","lng":"139.070547"},{"town":"沼垂東四丁目","lat":"37.922180","lng":"139.068399"},{"town":"沼垂東五丁目","lat":"37.925024","lng":"139.066983"},{"town":"沼垂東六丁目","lat":"37.925845","lng":"139.069288"},{"town":"白山浦一丁目","lat":"37.915071","lng":"139.033080"},{"town":"白山浦二丁目","lat":"37.913312","lng":"139.028888"},{"town":"白山浦新町通","lat":"37.912547","lng":"139.026365"},{"town":"艀川岸町","lat":"37.932937","lng":"139.053640"},{"town":"花園一丁目","lat":"37.912470","lng":"139.062191"},{"town":"花園二丁目","lat":"37.914478","lng":"139.066004"},{"town":"花町","lat":"37.921719","lng":"139.049586"},{"town":"浜浦町一丁目","lat":"37.911536","lng":"139.012634"},{"town":"浜浦町二丁目","lat":"37.909643","lng":"139.006864"},{"town":"早川町一丁目","lat":"37.929494","lng":"139.050147"},{"town":"早川町二丁目","lat":"37.930373","lng":"139.050649"},{"town":"早川町三丁目","lat":"37.931192","lng":"139.052535"},{"town":"万代一丁目","lat":"37.916506","lng":"139.056743"},{"town":"万代二丁目","lat":"37.917857","lng":"139.053903"},{"town":"万代三丁目","lat":"37.921153","lng":"139.056908"},{"town":"万代四丁目","lat":"37.919071","lng":"139.057848"},{"town":"万代五丁目","lat":"37.918867","lng":"139.059895"},{"town":"万代六丁目","lat":"37.918903","lng":"139.061848"},{"town":"万代島","lat":"37.928232","lng":"139.061913"},{"town":"東入船町","lat":"37.933279","lng":"139.057943"},{"town":"東受地町","lat":"37.931852","lng":"139.050761"},{"town":"東厩島町","lat":"37.925177","lng":"139.051169"},{"town":"東大通一丁目","lat":"37.914694","lng":"139.062022"},{"town":"東大通二丁目","lat":"37.916041","lng":"139.060306"},{"town":"東大畑通一番町","lat":"37.924476","lng":"139.039722"},{"town":"東大畑通二番町","lat":"37.925897","lng":"139.042600"},{"town":"東幸町","lat":"37.907078","lng":"139.049142"},{"town":"東出来島","lat":"37.901936","lng":"139.028593"},{"town":"東中通一番町","lat":"37.918735","lng":"139.038547"},{"town":"東中通二番町","lat":"37.920495","lng":"139.039756"},{"town":"東万代町","lat":"37.917506","lng":"139.063793"},{"town":"東堀通十番町","lat":"37.926837","lng":"139.046748"},{"town":"東堀通十一番町","lat":"37.928117","lng":"139.046832"},{"town":"東堀通十二番町","lat":"37.929391","lng":"139.047068"},{"town":"東堀通十三番町","lat":"37.931184","lng":"139.046975"},{"town":"東堀通一番町","lat":"37.915977","lng":"139.041261"},{"town":"東堀通二番町","lat":"37.916697","lng":"139.042110"},{"town":"東堀通三番町","lat":"37.917453","lng":"139.043037"},{"town":"東堀通四番町","lat":"37.918188","lng":"139.043900"},{"town":"東堀通五番町","lat":"37.919314","lng":"139.044668"},{"town":"東堀通六番町","lat":"37.920921","lng":"139.045328"},{"town":"東堀通七番町","lat":"37.922633","lng":"139.045738"},{"town":"東堀通八番町","lat":"37.924116","lng":"139.046233"},{"town":"東堀通九番町","lat":"37.925653","lng":"139.046741"},{"town":"東堀前通十番町","lat":"37.926624","lng":"139.047219"},{"town":"東堀前通十一番町","lat":"37.927939","lng":"139.047296"},{"town":"東堀前通一番町","lat":"37.915557","lng":"139.041501"},{"town":"東堀前通二番町","lat":"37.916301","lng":"139.042414"},{"town":"東堀前通三番町","lat":"37.917195","lng":"139.043514"},{"town":"東堀前通四番町","lat":"37.917950","lng":"139.044436"},{"town":"東堀前通五番町","lat":"37.919184","lng":"139.045239"},{"town":"東堀前通六番町","lat":"37.920875","lng":"139.045921"},{"town":"東堀前通七番町","lat":"37.922470","lng":"139.046370"},{"town":"東堀前通八番町","lat":"37.924015","lng":"139.046806"},{"town":"東堀前通九番町","lat":"37.925381","lng":"139.047163"},{"town":"東湊町通一ノ町","lat":"37.926737","lng":"139.051046"},{"town":"東湊町通二ノ町","lat":"37.927382","lng":"139.052043"},{"town":"東湊町通三ノ町","lat":"37.927887","lng":"139.053834"},{"town":"東湊町通四ノ町","lat":"37.928191","lng":"139.054909"},{"town":"日の出一丁目","lat":"37.918348","lng":"139.073259"},{"town":"日の出二丁目","lat":"37.918351","lng":"139.075553"},{"town":"日の出三丁目","lat":"37.920818","lng":"139.074613"},{"town":"雲雀町","lat":"37.940923","lng":"139.055986"},{"town":"二葉町一丁目","lat":"37.927288","lng":"139.036696"},{"town":"二葉町二丁目","lat":"37.929606","lng":"139.038316"},{"town":"二葉町三丁目","lat":"37.931980","lng":"139.042639"},{"town":"船場町一丁目","lat":"37.926498","lng":"139.055042"},{"town":"船場町二丁目","lat":"37.927708","lng":"139.055936"},{"town":"船見町一丁目","lat":"37.941023","lng":"139.059136"},{"town":"船見町二丁目","lat":"37.941730","lng":"139.057939"},{"town":"古町通十番町","lat":"37.927002","lng":"139.046030"},{"town":"古町通十一番町","lat":"37.928251","lng":"139.046180"},{"town":"古町通十二番町","lat":"37.929618","lng":"139.046033"},{"town":"古町通十三番町","lat":"37.931121","lng":"139.044534"},{"town":"古町通一番町","lat":"37.916109","lng":"139.040100"},{"town":"古町通二番町","lat":"37.916722","lng":"139.041022"},{"town":"古町通三番町","lat":"37.917596","lng":"139.042110"},{"town":"古町通四番町","lat":"37.918292","lng":"139.042901"},{"town":"古町通五番町","lat":"37.919557","lng":"139.043892"},{"town":"古町通六番町","lat":"37.921126","lng":"139.044556"},{"town":"古町通七番町","lat":"37.922687","lng":"139.044966"},{"town":"古町通八番町","lat":"37.924218","lng":"139.045399"},{"town":"古町通九番町","lat":"37.925698","lng":"139.045806"},{"town":"文京町","lat":"37.906983","lng":"139.007972"},{"town":"弁天一丁目","lat":"37.913417","lng":"139.059282"},{"town":"弁天二丁目","lat":"37.915481","lng":"139.057949"},{"town":"弁天三丁目","lat":"37.912705","lng":"139.058105"},{"town":"弁天橋通一丁目","lat":"37.894565","lng":"139.070152"},{"town":"弁天橋通二丁目","lat":"37.891591","lng":"139.072367"},{"town":"弁天橋通三丁目","lat":"37.889479","lng":"139.073528"},{"town":"堀之内","lat":"37.905272","lng":"139.048689"},{"town":"堀之内南一丁目","lat":"37.903954","lng":"139.051865"},{"town":"堀之内南二丁目","lat":"37.901651","lng":"139.052819"},{"town":"堀之内南三丁目","lat":"37.902361","lng":"139.049240"},{"town":"堀割町","lat":"37.903868","lng":"139.008401"},{"town":"本町通十番町","lat":"37.926558","lng":"139.048036"},{"town":"本町通十一番町","lat":"37.927909","lng":"139.048075"},{"town":"本町通十二番町","lat":"37.929364","lng":"139.048132"},{"town":"本町通十三番町","lat":"37.930979","lng":"139.048354"},{"town":"本町通十四番町","lat":"37.932204","lng":"139.047380"},{"town":"本町通一番町","lat":"37.915151","lng":"139.041927"},{"town":"本町通二番町","lat":"37.915919","lng":"139.043041"},{"town":"本町通三番町","lat":"37.916762","lng":"139.044017"},{"town":"本町通四番町","lat":"37.917600","lng":"139.045022"},{"town":"本町通五番町","lat":"37.918943","lng":"139.045920"},{"town":"本町通六番町","lat":"37.920665","lng":"139.046622"},{"town":"本町通七番町","lat":"37.922373","lng":"139.047107"},{"town":"本町通八番町","lat":"37.923893","lng":"139.047510"},{"town":"本町通九番町","lat":"37.925240","lng":"139.047842"},{"town":"本間町一丁目","lat":"37.926532","lng":"139.049866"},{"town":"本間町二丁目","lat":"37.927735","lng":"139.049899"},{"town":"本間町三丁目","lat":"37.928851","lng":"139.049979"},{"town":"秣川岸通一丁目","lat":"37.923589","lng":"139.049569"},{"town":"秣川岸通二丁目","lat":"37.924754","lng":"139.051341"},{"town":"松岡町","lat":"37.930147","lng":"139.056097"},{"town":"見方町","lat":"37.926850","lng":"139.052989"},{"town":"美咲町一丁目","lat":"37.892550","lng":"139.015654"},{"town":"美咲町二丁目","lat":"37.884903","lng":"139.016817"},{"town":"水島町","lat":"37.911004","lng":"139.053125"},{"town":"緑町","lat":"37.929936","lng":"139.056796"},{"town":"湊町通一ノ町","lat":"37.927747","lng":"139.050791"},{"town":"湊町通二ノ町","lat":"37.928232","lng":"139.052017"},{"town":"湊町通三ノ町","lat":"37.928731","lng":"139.053340"},{"town":"湊町通四ノ町","lat":"37.929343","lng":"139.054936"},{"town":"南大畑町","lat":"37.925032","lng":"139.039633"},{"town":"南笹口一丁目","lat":"37.907964","lng":"139.066329"},{"town":"南笹口二丁目","lat":"37.909167","lng":"139.070614"},{"town":"南多門町","lat":"37.924099","lng":"139.049540"},{"town":"南出来島一丁目","lat":"37.897058","lng":"139.027282"},{"town":"南出来島二丁目","lat":"37.896477","lng":"139.024258"},{"town":"南長潟","lat":"37.884361","lng":"139.072995"},{"town":"南浜通一番町","lat":"37.924228","lng":"139.041857"},{"town":"南浜通二番町","lat":"37.925348","lng":"139.040137"},{"town":"南万代町","lat":"37.913227","lng":"139.056417"},{"town":"南毘沙門町","lat":"37.925974","lng":"139.051489"},{"town":"南横堀町","lat":"37.920688","lng":"139.039090"},{"town":"美の里","lat":"37.883404","lng":"139.078729"},{"town":"室町一丁目","lat":"37.939201","lng":"139.056843"},{"town":"室町二丁目","lat":"37.940679","lng":"139.057609"},{"town":"女池","lat":"37.887257","lng":"139.032005"},{"town":"女池一丁目","lat":"37.897072","lng":"139.050390"},{"town":"女池二丁目","lat":"37.894939","lng":"139.046022"},{"town":"女池三丁目","lat":"37.896772","lng":"139.045206"},{"town":"女池四丁目","lat":"37.895746","lng":"139.039576"},{"town":"女池五丁目","lat":"37.893265","lng":"139.041165"},{"town":"女池六丁目","lat":"37.891838","lng":"139.042091"},{"town":"女池七丁目","lat":"37.890039","lng":"139.042782"},{"town":"女池八丁目","lat":"37.888310","lng":"139.037089"},{"town":"女池上山一丁目","lat":"37.892911","lng":"139.031839"},{"town":"女池上山二丁目","lat":"37.891119","lng":"139.029754"},{"town":"女池上山三丁目","lat":"37.890524","lng":"139.026258"},{"town":"女池上山四丁目","lat":"37.893363","lng":"139.025548"},{"town":"女池上山五丁目","lat":"37.894163","lng":"139.028481"},{"town":"女池北一丁目","lat":"37.895271","lng":"139.034631"},{"town":"女池神明一丁目","lat":"37.890340","lng":"139.037610"},{"town":"女池神明二丁目","lat":"37.889461","lng":"139.034227"},{"town":"女池神明三丁目","lat":"37.888370","lng":"139.030907"},{"town":"女池西一丁目","lat":"37.893494","lng":"139.035361"},{"town":"女池西二丁目","lat":"37.891613","lng":"139.035880"},{"town":"女池東一丁目","lat":"37.897823","lng":"139.052351"},{"town":"女池南一丁目","lat":"37.894316","lng":"139.048570"},{"town":"女池南二丁目","lat":"37.892531","lng":"139.048663"},{"town":"女池南三丁目","lat":"37.889203","lng":"139.049569"},{"town":"元祝町","lat":"37.933495","lng":"139.050780"},{"town":"本馬越一丁目","lat":"37.914426","lng":"139.076467"},{"town":"本馬越二丁目","lat":"37.911438","lng":"139.075369"},{"town":"元下島町","lat":"37.932812","lng":"139.052899"},{"town":"八千代一丁目","lat":"37.914213","lng":"139.054214"},{"town":"八千代二丁目","lat":"37.915634","lng":"139.051969"},{"town":"柳島町一丁目","lat":"37.927435","lng":"139.057067"},{"town":"柳島町二丁目","lat":"37.930309","lng":"139.058069"},{"town":"柳島町三丁目","lat":"37.932050","lng":"139.058632"},{"town":"柳島町四丁目","lat":"37.934268","lng":"139.059260"},{"town":"山田町一丁目","lat":"37.939110","lng":"139.057411"},{"town":"山田町二丁目","lat":"37.940545","lng":"139.058081"},{"town":"山二ツ","lat":"37.889217","lng":"139.089485"},{"town":"山二ツ一丁目","lat":"37.894097","lng":"139.083142"},{"town":"山二ツ二丁目","lat":"37.896197","lng":"139.085292"},{"town":"山二ツ三丁目","lat":"37.894233","lng":"139.086813"},{"town":"山二ツ四丁目","lat":"37.891643","lng":"139.086289"},{"town":"山二ツ五丁目","lat":"37.893575","lng":"139.091854"},{"town":"弥生町","lat":"37.905730","lng":"139.013611"},{"town":"夕栄町","lat":"37.930924","lng":"139.050293"},{"town":"雪町","lat":"37.923700","lng":"139.051153"},{"town":"横一番町","lat":"37.917197","lng":"139.042224"},{"town":"横七番町通一丁目","lat":"37.931677","lng":"139.049716"},{"town":"横七番町通二丁目","lat":"37.932425","lng":"139.050628"},{"town":"横七番町通三丁目","lat":"37.933150","lng":"139.052043"},{"town":"横七番町通四丁目","lat":"37.933565","lng":"139.052937"},{"town":"横七番町通五丁目","lat":"37.933946","lng":"139.053672"},{"town":"横六番町","lat":"37.930298","lng":"139.049474"},{"town":"芳町","lat":"37.926180","lng":"139.053431"},{"town":"四ッ屋町一丁目","lat":"37.932819","lng":"139.045251"},{"town":"四ッ屋町二丁目","lat":"37.933940","lng":"139.046046"},{"town":"四ッ屋町三丁目","lat":"37.934451","lng":"139.047570"},{"town":"米山","lat":"37.907290","lng":"139.056015"},{"town":"米山一丁目","lat":"37.909077","lng":"139.061178"},{"town":"米山二丁目","lat":"37.908314","lng":"139.058239"},{"town":"米山三丁目","lat":"37.906768","lng":"139.062107"},{"town":"米山四丁目","lat":"37.905966","lng":"139.059165"},{"town":"米山五丁目","lat":"37.905130","lng":"139.056142"},{"town":"米山六丁目","lat":"37.902711","lng":"139.057135"},{"town":"寄合町","lat":"37.932021","lng":"139.051261"},{"town":"寄居町","lat":"37.922895","lng":"139.040555"},{"town":"竜が島一丁目","lat":"37.934171","lng":"139.067312"},{"town":"竜が島二丁目","lat":"37.926121","lng":"139.072454"},{"town":"和合町一丁目","lat":"37.899830","lng":"139.052156"},{"town":"和合町二丁目","lat":"37.899156","lng":"139.049516"},{"town":"和合町三丁目","lat":"37.898545","lng":"139.047310"},{"town":"鳥屋野","lat":"37.884466","lng":"139.031999"},{"town":"鳥屋野南三丁目","lat":"37.884583","lng":"139.028564"},{"town":"鳥屋野四丁目","lat":"37.885575","lng":"139.024047"},{"town":"大島","lat":"37.879548","lng":"139.023144"},{"town":"鳥屋野南一丁目","lat":"37.882451","lng":"139.022378"},{"town":"鳥屋野南二丁目","lat":"37.883385","lng":"139.025187"}]