[{"town":"粟生津","lat":"37.646584","lng":"138.866857"},{"town":"秋葉町一丁目","lat":"37.661467","lng":"138.922369"},{"town":"秋葉町二丁目","lat":"37.663164","lng":"138.919467"},{"town":"秋葉町三丁目","lat":"37.659791","lng":"138.918857"},{"town":"秋葉町四丁目","lat":"37.663021","lng":"138.914067"},{"town":"泉新","lat":"37.639111","lng":"138.832168"},{"town":"一ノ山一丁目","lat":"37.624311","lng":"138.846874"},{"town":"一ノ山二丁目","lat":"37.624779","lng":"138.847687"},{"town":"井土巻","lat":"37.658777","lng":"138.939616"},{"town":"井土巻一丁目","lat":"37.655767","lng":"138.932776"},{"town":"井土巻二丁目","lat":"37.652772","lng":"138.932001"},{"town":"井土巻三丁目","lat":"37.650400","lng":"138.934869"},{"town":"井土巻四丁目","lat":"37.654754","lng":"138.935987"},{"town":"井土巻五丁目","lat":"37.651890","lng":"138.937690"},{"town":"笈ケ島","lat":"37.618123","lng":"138.855060"},{"town":"大川津","lat":"37.607103","lng":"138.841981"},{"town":"大関","lat":"37.667259","lng":"138.898613"},{"town":"太田","lat":"37.651749","lng":"138.820051"},{"town":"大武新田","lat":"37.622272","lng":"138.840556"},{"town":"大船渡","lat":"37.699538","lng":"138.947530"},{"town":"大曲","lat":"37.649721","lng":"138.916227"},{"town":"庚塚","lat":"37.694178","lng":"138.915831"},{"town":"上河原","lat":"37.651202","lng":"138.878092"},{"town":"上諏訪","lat":"37.631062","lng":"138.842184"},{"town":"上児木","lat":"37.681957","lng":"138.964690"},{"town":"勘新","lat":"37.693462","lng":"138.950983"},{"town":"国上","lat":"37.662758","lng":"138.809425"},{"town":"熊森","lat":"37.627906","lng":"138.868587"},{"town":"蔵関","lat":"37.654747","lng":"138.903071"},{"town":"源八新田","lat":"37.663624","lng":"138.840999"},{"town":"小池","lat":"37.640729","lng":"138.895462"},{"town":"小池新町","lat":"37.631301","lng":"138.905468"},{"town":"穀町","lat":"37.663579","lng":"138.928133"},{"town":"小島","lat":"37.712349","lng":"138.929856"},{"town":"小関","lat":"37.663532","lng":"138.903181"},{"town":"五千石","lat":"37.612537","lng":"138.831672"},{"town":"五千石荒川一丁目","lat":"37.618819","lng":"138.843418"},{"town":"五千石荒川二丁目","lat":"37.618549","lng":"138.842689"},{"town":"小高","lat":"37.668975","lng":"138.939712"},{"town":"寿町","lat":"37.665966","lng":"138.926497"},{"town":"小中川","lat":"37.701076","lng":"138.962955"},{"town":"小古津新","lat":"37.694079","lng":"138.956823"},{"town":"小牧","lat":"37.676036","lng":"138.948918"},{"town":"幸町","lat":"37.665414","lng":"138.932367"},{"town":"桜町","lat":"37.683713","lng":"138.905949"},{"town":"笹曲","lat":"37.621734","lng":"138.846158"},{"town":"佐善","lat":"37.663976","lng":"138.862683"},{"town":"佐善村新田","lat":"37.664674","lng":"138.853327"},{"town":"佐渡山","lat":"37.716412","lng":"138.917077"},{"town":"佐渡","lat":"37.660754","lng":"138.951431"},{"town":"三王渕","lat":"37.683053","lng":"138.943196"},{"town":"地蔵堂","lat":"37.632481","lng":"138.838030"},{"town":"地蔵堂本町一丁目","lat":"37.625404","lng":"138.840934"},{"town":"地蔵堂本町二丁目","lat":"37.626785","lng":"138.841843"},{"town":"地蔵堂本町三丁目","lat":"37.628197","lng":"138.841765"},{"town":"下粟生津","lat":"37.659697","lng":"138.878751"},{"town":"下諏訪","lat":"37.630608","lng":"138.837731"},{"town":"下児木","lat":"37.683435","lng":"138.970687"},{"town":"新栄町","lat":"37.670279","lng":"138.928501"},{"town":"新興野","lat":"37.626035","lng":"138.855142"},{"town":"新生町","lat":"37.688721","lng":"138.957028"},{"town":"新生町一丁目","lat":"37.690392","lng":"138.956872"},{"town":"新生町二丁目","lat":"37.688223","lng":"138.953209"},{"town":"新長","lat":"37.633484","lng":"138.828542"},{"town":"新町","lat":"37.663490","lng":"138.932121"},{"town":"水道町一丁目","lat":"37.656049","lng":"138.918975"},{"town":"水道町二丁目","lat":"37.657165","lng":"138.914989"},{"town":"水道町三丁目","lat":"37.655927","lng":"138.909676"},{"town":"水道町四丁目","lat":"37.659701","lng":"138.911005"},{"town":"杉名","lat":"37.642526","lng":"138.905004"},{"town":"杉柳","lat":"37.647075","lng":"138.907030"},{"town":"雀森","lat":"37.703459","lng":"138.918945"},{"town":"砂子塚","lat":"37.634912","lng":"138.850843"},{"town":"関崎","lat":"37.694258","lng":"138.938809"},{"town":"杣木","lat":"37.673785","lng":"138.903888"},{"town":"大保","lat":"37.692464","lng":"138.903791"},{"town":"高木","lat":"37.639307","lng":"138.858217"},{"town":"舘野","lat":"37.704479","lng":"138.934285"},{"town":"田中新","lat":"37.654564","lng":"138.892280"},{"town":"中央通り一丁目","lat":"37.663846","lng":"138.929701"},{"town":"中央通り二丁目","lat":"37.665521","lng":"138.930127"},{"town":"中央通り三丁目","lat":"37.667213","lng":"138.931314"},{"town":"中条新田","lat":"37.605588","lng":"138.844880"},{"town":"長所","lat":"37.714025","lng":"138.938563"},{"town":"長辰","lat":"37.665157","lng":"138.834655"},{"town":"次新","lat":"37.687637","lng":"138.965154"},{"town":"燕","lat":"37.677234","lng":"138.917669"},{"town":"道金","lat":"37.636448","lng":"138.913540"},{"town":"殿島一丁目","lat":"37.656358","lng":"138.924860"},{"town":"殿島二丁目","lat":"37.657081","lng":"138.927999"},{"town":"富永","lat":"37.693549","lng":"138.893777"},{"town":"富永十兵衛新田","lat":"37.688153","lng":"138.902049"},{"town":"中川","lat":"37.678238","lng":"138.950609"},{"town":"中島","lat":"37.649625","lng":"138.835768"},{"town":"中諏訪","lat":"37.631409","lng":"138.839879"},{"town":"仲町","lat":"37.662760","lng":"138.924794"},{"town":"長渡","lat":"37.693289","lng":"138.931265"},{"town":"新堀","lat":"37.641086","lng":"138.838538"},{"town":"二階堂","lat":"37.697891","lng":"138.943329"},{"town":"西槙","lat":"37.727744","lng":"138.928758"},{"town":"野中才","lat":"37.629841","lng":"138.832935"},{"town":"野本","lat":"37.658200","lng":"138.888001"},{"town":"灰方","lat":"37.682386","lng":"138.930838"},{"town":"白山町一丁目","lat":"37.664440","lng":"138.922059"},{"town":"白山町二丁目","lat":"37.666543","lng":"138.925160"},{"town":"白山町三丁目","lat":"37.669712","lng":"138.921571"},{"town":"八王寺","lat":"37.640013","lng":"138.922813"},{"town":"花園町","lat":"37.684991","lng":"138.953824"},{"town":"花見","lat":"37.680608","lng":"138.911480"},{"town":"東太田","lat":"37.667550","lng":"138.912374"},{"town":"日之出町","lat":"37.660695","lng":"138.942054"},{"town":"物流センター一丁目","lat":"37.650557","lng":"138.900655"},{"town":"物流センター二丁目","lat":"37.649302","lng":"138.900856"},{"town":"物流センター三丁目","lat":"37.647680","lng":"138.901113"},{"town":"物流センター四丁目","lat":"37.648514","lng":"138.904698"},{"town":"分水あけぼの一丁目","lat":"37.638535","lng":"138.839262"},{"town":"分水旭町一丁目","lat":"37.627377","lng":"138.843019"},{"town":"分水旭町二丁目","lat":"37.627952","lng":"138.844579"},{"town":"分水旭町三丁目","lat":"37.628569","lng":"138.843468"},{"town":"分水旭町四丁目","lat":"37.629666","lng":"138.844293"},{"town":"分水旭町五丁目","lat":"37.631534","lng":"138.844490"},{"town":"分水大武一丁目","lat":"37.625765","lng":"138.842978"},{"town":"分水大武二丁目","lat":"37.626122","lng":"138.843324"},{"town":"分水大武三丁目","lat":"37.626226","lng":"138.844207"},{"town":"分水大武四丁目","lat":"37.627265","lng":"138.843769"},{"town":"分水大武五丁目","lat":"37.624936","lng":"138.843822"},{"town":"分水学校町一丁目","lat":"37.628057","lng":"138.848122"},{"town":"分水学校町二丁目","lat":"37.626505","lng":"138.847766"},{"town":"分水向陽","lat":"37.635623","lng":"138.839866"},{"town":"分水栄町","lat":"37.625342","lng":"138.842557"},{"town":"分水桜町一丁目","lat":"37.628289","lng":"138.840375"},{"town":"分水桜町二丁目","lat":"37.627695","lng":"138.838459"},{"town":"分水桜町三丁目","lat":"37.625466","lng":"138.838905"},{"town":"分水新町一丁目","lat":"37.621159","lng":"138.842631"},{"town":"分水新町二丁目","lat":"37.622757","lng":"138.843463"},{"town":"分水新町三丁目","lat":"37.623929","lng":"138.842931"},{"town":"分水新町四丁目","lat":"37.624397","lng":"138.842245"},{"town":"分水東学校町一丁目","lat":"37.629675","lng":"138.846419"},{"town":"分水東学校町二丁目","lat":"37.631007","lng":"138.846389"},{"town":"分水東学校町三丁目","lat":"37.632409","lng":"138.846727"},{"town":"分水文京町","lat":"37.634814","lng":"138.842435"},{"town":"分水向山一丁目","lat":"37.624714","lng":"138.845418"},{"town":"分水向山二丁目","lat":"37.626166","lng":"138.845258"},{"town":"分水弥生町","lat":"37.633637","lng":"138.845362"},{"town":"本町一丁目","lat":"37.665378","lng":"138.928110"},{"town":"本町二丁目","lat":"37.666874","lng":"138.928334"},{"town":"牧ケ花","lat":"37.651812","lng":"138.853797"},{"town":"牧ケ花村新田","lat":"37.655351","lng":"138.843606"},{"town":"真木山","lat":"37.641690","lng":"138.810446"},{"town":"幕島","lat":"37.640778","lng":"138.804572"},{"town":"又新","lat":"37.687440","lng":"138.947356"},{"town":"松橋","lat":"37.694821","lng":"138.925501"},{"town":"溝","lat":"37.657385","lng":"138.864138"},{"town":"溝古新","lat":"37.663699","lng":"138.866791"},{"town":"溝古新村新田","lat":"37.670115","lng":"138.853893"},{"town":"溝村新田","lat":"37.661765","lng":"138.852896"},{"town":"南一丁目","lat":"37.657837","lng":"138.922479"},{"town":"南二丁目","lat":"37.660202","lng":"138.925365"},{"town":"南三丁目","lat":"37.660286","lng":"138.926956"},{"town":"南四丁目","lat":"37.660260","lng":"138.928310"},{"town":"南五丁目","lat":"37.659241","lng":"138.930092"},{"town":"南六丁目","lat":"37.659303","lng":"138.931637"},{"town":"南七丁目","lat":"37.659239","lng":"138.934703"},{"town":"宮町","lat":"37.663722","lng":"138.926721"},{"town":"柳山","lat":"37.639478","lng":"138.902662"},{"town":"横田","lat":"37.635908","lng":"138.884250"},{"town":"吉田","lat":"37.694320","lng":"138.885549"},{"town":"吉田曙町","lat":"37.685628","lng":"138.886477"},{"town":"吉田旭町一丁目","lat":"37.687451","lng":"138.876359"},{"town":"吉田旭町二丁目","lat":"37.686796","lng":"138.875183"},{"town":"吉田旭町三丁目","lat":"37.686438","lng":"138.873281"},{"town":"吉田旭町四丁目","lat":"37.685223","lng":"138.874053"},{"town":"吉田東町","lat":"37.695625","lng":"138.881447"},{"town":"吉田春日町","lat":"37.683614","lng":"138.882229"},{"town":"吉田学校町","lat":"37.694610","lng":"138.878571"},{"town":"吉田神田町","lat":"37.691282","lng":"138.882026"},{"town":"吉田上町","lat":"37.689568","lng":"138.875896"},{"town":"吉田鴻巣","lat":"37.706293","lng":"138.889782"},{"town":"吉田寿町","lat":"37.697302","lng":"138.873705"},{"town":"吉田幸町","lat":"37.695669","lng":"138.874636"},{"town":"吉田栄町","lat":"37.680775","lng":"138.871335"},{"town":"吉田下中野","lat":"37.674229","lng":"138.888378"},{"town":"吉田下町","lat":"37.692340","lng":"138.879173"},{"town":"吉田新田町","lat":"37.688151","lng":"138.871955"},{"town":"吉田新町","lat":"37.686882","lng":"138.872556"},{"town":"吉田神明町","lat":"37.694194","lng":"138.876109"},{"town":"吉田水道町","lat":"37.680614","lng":"138.870240"},{"town":"吉田大保町","lat":"37.688209","lng":"138.883805"},{"town":"吉田堤町","lat":"37.687628","lng":"138.878538"},{"town":"吉田中町","lat":"37.690584","lng":"138.877134"},{"town":"吉田西太田","lat":"37.670843","lng":"138.878112"},{"town":"吉田浜首","lat":"37.689782","lng":"138.869297"},{"town":"吉田浜首町","lat":"37.689738","lng":"138.870965"},{"town":"吉田東栄町","lat":"37.681995","lng":"138.876213"},{"town":"吉田日之出町","lat":"37.686257","lng":"138.879902"},{"town":"吉田文京町","lat":"37.703668","lng":"138.880106"},{"town":"吉田法花堂","lat":"37.679961","lng":"138.891238"},{"town":"吉田本所","lat":"37.697729","lng":"138.878510"},{"town":"吉田松岡新田","lat":"37.679689","lng":"138.876917"},{"town":"吉田松岡町","lat":"37.689227","lng":"138.877650"},{"town":"吉田宮小路","lat":"37.701591","lng":"138.873925"},{"town":"吉田本町","lat":"37.708316","lng":"138.874288"},{"town":"吉田矢作","lat":"37.691126","lng":"138.868657"},{"town":"吉田弥生町","lat":"37.693670","lng":"138.871845"},{"town":"吉田吉栄","lat":"37.685429","lng":"138.895987"},{"town":"吉田若生町","lat":"37.701454","lng":"138.885940"},{"town":"四ツ屋","lat":"37.683557","lng":"138.958686"},{"town":"米納津","lat":"37.699866","lng":"138.905143"},{"town":"渡部","lat":"37.651227","lng":"138.797658"}]