[{"town":"宇々島郷","koaza":"","lat":33.17302,"lng":129.038612,"zip":"8574700"},{"town":"大島郷","koaza":"","lat":33.169787,"lng":129.022254,"zip":"8574708"},{"town":"黒島郷","koaza":"","lat":33.180571,"lng":129.058359,"zip":"8574706"},{"town":"中村郷","koaza":"","lat":33.201268,"lng":129.064429,"zip":"8574703"},{"town":"納島郷","koaza":"","lat":33.222622,"lng":129.069363,"zip":"8574711"},{"town":"野崎郷","koaza":"","lat":33.186627,"lng":129.127665,"zip":"8574709"},{"town":"浜津郷","koaza":"","lat":33.202473,"lng":129.039282,"zip":"8574705"},{"town":"笛吹郷","koaza":"","lat":33.192347,"lng":129.053175,"zip":"8574701"},{"town":"前方郷","koaza":"","lat":33.201271,"lng":129.075963,"zip":"8574702"},{"town":"班島郷","koaza":"","lat":33.206448,"lng":129.019105,"zip":"8574707"},{"town":"六島郷","koaza":"","lat":33.223789,"lng":129.135211,"zip":"8574712"},{"town":"柳郷","koaza":"","lat":33.209989,"lng":129.051923,"zip":"8574704"},{"town":"藪路木島郷","koaza":"","lat":33.18201,"lng":129.020408,"zip":"8574700"}]