[{"town":"大字赤羽","lat":"35.968789","lng":"138.003733"},{"town":"大字伊那富","lat":"35.967512","lng":"137.946309"},{"town":"大字小野","lat":"36.040281","lng":"137.961593"},{"town":"大字小野筑","lat":"36.048038","lng":"137.968854"},{"town":"大字上島","lat":"36.014840","lng":"137.961348"},{"town":"大字上平出","lat":"35.994005","lng":"138.004112"},{"town":"大字澤底","lat":"35.981683","lng":"138.029432"},{"town":"大字辰野","lat":"35.999566","lng":"137.992410"},{"town":"大字樋口","lat":"35.956549","lng":"138.003125"},{"town":"大字平出","lat":"35.992712","lng":"138.014510"},{"town":"大字横川","lat":"35.968179","lng":"137.883432"},{"town":"大石平","lat":"35.980970","lng":"138.008919"},{"town":"中央","lat":"35.986143","lng":"137.984948"},{"town":"中山","lat":"35.973234","lng":"138.003146"},{"town":"富士塚","lat":"35.975149","lng":"137.979020"},{"town":"南平","lat":"35.948344","lng":"137.972424"}]