[{"town":"荒井","lat":"35.844037","lng":"137.943096"},{"town":"荒井内の萱","lat":"35.836553","lng":"137.891384"},{"town":"伊那","lat":"35.838166","lng":"137.869905"},{"town":"伊那部","lat":"35.823949","lng":"137.962246"},{"town":"上の原","lat":"35.843135","lng":"137.983521"},{"town":"小沢","lat":"35.849205","lng":"137.927213"},{"town":"上新田","lat":"35.827233","lng":"137.965225"},{"town":"上牧","lat":"35.853540","lng":"137.978841"},{"town":"狐島","lat":"35.833986","lng":"137.960273"},{"town":"小四郎久保","lat":"35.856203","lng":"137.955026"},{"town":"境","lat":"35.832009","lng":"137.971839"},{"town":"坂下","lat":"35.843826","lng":"137.956557"},{"town":"下新田","lat":"35.825622","lng":"137.954596"},{"town":"仙美","lat":"35.847063","lng":"137.991592"},{"town":"高遠町長藤","lat":"35.867639","lng":"138.086734"},{"town":"高遠町小原","lat":"35.816436","lng":"138.053510"},{"town":"高遠町勝間","lat":"35.813491","lng":"138.068106"},{"town":"高遠町上山田","lat":"35.822746","lng":"138.032091"},{"town":"高遠町芝平","lat":"35.907072","lng":"138.146196"},{"town":"高遠町下山田","lat":"35.815010","lng":"138.046955"},{"town":"高遠町西高遠","lat":"35.853700","lng":"138.059188"},{"town":"高遠町荊口","lat":"35.868686","lng":"138.131231"},{"town":"高遠町東高遠","lat":"35.837157","lng":"138.075222"},{"town":"高遠町藤澤","lat":"35.932476","lng":"138.112005"},{"town":"高遠町山室","lat":"35.843297","lng":"138.114576"},{"town":"中央","lat":"35.842743","lng":"137.971198"},{"town":"手良沢岡","lat":"35.874342","lng":"138.007708"},{"town":"手良中坪","lat":"35.858792","lng":"138.034230"},{"town":"手良野口","lat":"35.888810","lng":"138.040013"},{"town":"富県","lat":"35.799768","lng":"138.012120"},{"town":"中の原","lat":"35.854412","lng":"137.923357"},{"town":"西春近","lat":"35.805569","lng":"137.898038"},{"town":"西町","lat":"35.834656","lng":"137.944366"},{"town":"西箕輪","lat":"35.882448","lng":"137.904527"},{"town":"野底","lat":"35.858749","lng":"137.998179"},{"town":"長谷市野瀬","lat":"35.728069","lng":"138.070093"},{"town":"長谷浦","lat":"35.656725","lng":"138.150325"},{"town":"長谷黒河内","lat":"35.808042","lng":"138.151728"},{"town":"長谷杉島","lat":"35.718741","lng":"138.116107"},{"town":"長谷中尾","lat":"35.758255","lng":"138.085125"},{"town":"長谷非持","lat":"35.813920","lng":"138.104302"},{"town":"長谷溝口","lat":"35.789467","lng":"138.090035"},{"town":"日影","lat":"35.835894","lng":"137.979683"},{"town":"東春近","lat":"35.798004","lng":"137.960259"},{"town":"平沢","lat":"35.854055","lng":"137.906436"},{"town":"福島","lat":"35.870229","lng":"137.993132"},{"town":"前原","lat":"35.851228","lng":"137.991274"},{"town":"ますみヶ丘","lat":"35.843213","lng":"137.914324"},{"town":"美篶","lat":"35.842701","lng":"138.007846"},{"town":"御園","lat":"35.857504","lng":"137.960993"},{"town":"美原","lat":"35.849847","lng":"137.994763"},{"town":"山寺","lat":"35.849700","lng":"137.958398"},{"town":"横山","lat":"35.847639","lng":"137.895552"},{"town":"若宮","lat":"35.853303","lng":"137.986587"}]