[{"town":"大字面替","lat":"36.292905","lng":"138.523370"},{"town":"大字草越","lat":"36.311984","lng":"138.529116"},{"town":"大字塩野","lat":"36.367150","lng":"138.492002"},{"town":"大字広戸","lat":"36.307660","lng":"138.533661"},{"town":"大字馬瀬口","lat":"36.326034","lng":"138.498353"},{"town":"大字御代田","lat":"36.311409","lng":"138.509488"},{"town":"大字豊昇","lat":"36.294630","lng":"138.538697"},{"town":"大字茂沢","lat":"36.297287","lng":"138.560716"}]