[{"town":"大字芦津","lat":"35.278365","lng":"134.347762"},{"town":"大字市瀬","lat":"35.290363","lng":"134.237148"},{"town":"大字岩神","lat":"35.269538","lng":"134.221408"},{"town":"大字宇波","lat":"35.246227","lng":"134.162269"},{"town":"大字大背","lat":"35.218185","lng":"134.199010"},{"town":"大字大内","lat":"35.251783","lng":"134.283124"},{"town":"大字大屋","lat":"35.212496","lng":"134.241567"},{"town":"大字大呂","lat":"35.272433","lng":"134.298183"},{"town":"大字奥本","lat":"35.194081","lng":"134.193441"},{"town":"大字尾見","lat":"35.245623","lng":"134.294561"},{"town":"大字木原","lat":"35.242103","lng":"134.222799"},{"town":"大字口宇波","lat":"35.242651","lng":"134.186459"},{"town":"大字口波多","lat":"35.261767","lng":"134.184413"},{"town":"大字慶所","lat":"35.221045","lng":"134.229523"},{"town":"大字毛谷","lat":"35.261480","lng":"134.264030"},{"town":"大字河津原","lat":"35.194315","lng":"134.166167"},{"town":"大字郷原","lat":"35.264818","lng":"134.273785"},{"town":"大字駒帰","lat":"35.224525","lng":"134.330382"},{"town":"大字坂原","lat":"35.269853","lng":"134.213275"},{"town":"大字篠坂","lat":"35.260984","lng":"134.255599"},{"town":"大字惣地","lat":"35.265545","lng":"134.195915"},{"town":"大字智頭","lat":"35.267531","lng":"134.239403"},{"town":"大字中田","lat":"35.266108","lng":"134.209468"},{"town":"大字中原","lat":"35.239440","lng":"134.314063"},{"town":"大字新見","lat":"35.253184","lng":"134.203391"},{"town":"大字西宇塚","lat":"35.221115","lng":"134.175192"},{"town":"大字西谷","lat":"35.216812","lng":"134.271922"},{"town":"大字西野","lat":"35.281168","lng":"134.274108"},{"town":"大字野原","lat":"35.206690","lng":"134.211047"},{"town":"大字波多","lat":"35.268184","lng":"134.158358"},{"town":"大字埴師","lat":"35.233235","lng":"134.245938"},{"town":"大字早瀬","lat":"35.218192","lng":"134.216956"},{"town":"大字東宇塚","lat":"35.205710","lng":"134.182683"},{"town":"大字福原","lat":"35.223865","lng":"134.301012"},{"town":"大字穂見","lat":"35.241338","lng":"134.250097"},{"town":"大字真鹿野","lat":"35.202526","lng":"134.220545"},{"town":"大字三田","lat":"35.247116","lng":"134.215888"},{"town":"大字南方","lat":"35.254034","lng":"134.244276"},{"town":"大字三吉","lat":"35.228549","lng":"134.216484"},{"town":"大字八河谷","lat":"35.301550","lng":"134.330432"},{"town":"大字山根","lat":"35.251919","lng":"134.233153"},{"town":"大字横田","lat":"35.236391","lng":"134.219158"}]