[{"town":"青木","koaza":"","lat":34.856244,"lng":138.248834},{"town":"青木一丁目","koaza":"","lat":34.854607,"lng":138.249883},{"town":"青木二丁目","koaza":"","lat":34.857989,"lng":138.251323},{"town":"青木三丁目","koaza":"","lat":34.854661,"lng":138.2528},{"town":"青葉町一丁目","koaza":"","lat":34.845078,"lng":138.241125},{"town":"青葉町二丁目","koaza":"","lat":34.844003,"lng":138.244183},{"town":"青葉町三丁目","koaza":"","lat":34.84224,"lng":138.239599},{"town":"青葉町四丁目","koaza":"","lat":34.841119,"lng":138.244198},{"town":"青葉町五丁目","koaza":"","lat":34.839143,"lng":138.243214},{"town":"旭が丘","koaza":"","lat":34.875345,"lng":138.244817},{"town":"五十海","koaza":"","lat":34.882071,"lng":138.264868},{"town":"五十海一丁目","koaza":"","lat":34.87853,"lng":138.259701},{"town":"五十海二丁目","koaza":"","lat":34.880049,"lng":138.258614},{"town":"五十海三丁目","koaza":"","lat":34.882471,"lng":138.261269},{"town":"五十海四丁目","koaza":"","lat":34.880937,"lng":138.262582},{"town":"泉町","koaza":"","lat":34.831847,"lng":138.261254},{"town":"稲川","koaza":"","lat":34.862538,"lng":138.263024},{"town":"稲川一丁目","koaza":"","lat":34.865377,"lng":138.254588},{"town":"潮","koaza":"","lat":34.898556,"lng":138.272043},{"town":"内瀬戸","koaza":"","lat":34.853968,"lng":138.223557},{"town":"駅前一丁目","koaza":"","lat":34.850503,"lng":138.25317},{"town":"駅前二丁目","koaza":"","lat":34.851887,"lng":138.252091},{"town":"駅前三丁目","koaza":"","lat":34.849702,"lng":138.248172},{"town":"大洲一丁目","koaza":"","lat":34.833068,"lng":138.246695},{"town":"大洲二丁目","koaza":"","lat":34.830541,"lng":138.248711},{"town":"大洲三丁目","koaza":"","lat":34.830802,"lng":138.253701},{"town":"大洲四丁目","koaza":"","lat":34.828952,"lng":138.259171},{"town":"大洲五丁目","koaza":"","lat":34.825757,"lng":138.254786},{"town":"大手一丁目","koaza":"","lat":34.873603,"lng":138.265979},{"town":"大手二丁目","koaza":"","lat":34.875558,"lng":138.268177},{"town":"岡出山一丁目","koaza":"","lat":34.867498,"lng":138.256024},{"town":"岡出山二丁目","koaza":"","lat":34.868072,"lng":138.258973},{"town":"岡出山三丁目","koaza":"","lat":34.869452,"lng":138.261127},{"town":"岡部町青羽根","koaza":"","lat":34.977976,"lng":138.228825},{"town":"岡部町入野","koaza":"","lat":34.916866,"lng":138.258889},{"town":"岡部町内谷","koaza":"","lat":34.909189,"lng":138.288552},{"town":"岡部町岡部","koaza":"","lat":34.920766,"lng":138.297388},{"town":"岡部町桂島","koaza":"","lat":34.934944,"lng":138.272257},{"town":"岡部町子持坂","koaza":"","lat":34.912418,"lng":138.27153},{"town":"岡部町玉取","koaza":"","lat":34.989553,"lng":138.24326},{"town":"岡部町殿","koaza":"","lat":34.950769,"lng":138.259576},{"town":"岡部町新舟","koaza":"","lat":34.956446,"lng":138.240162},{"town":"岡部町野田沢","koaza":"","lat":34.961207,"lng":138.27379},{"town":"岡部町羽佐間","koaza":"","lat":34.945728,"lng":138.268887},{"town":"岡部町宮島","koaza":"","lat":34.969805,"lng":138.255509},{"town":"岡部町三輪","koaza":"","lat":34.906347,"lng":138.303499},{"town":"岡部町村良","koaza":"","lat":34.919037,"lng":138.266423},{"town":"音羽町一丁目","koaza":"","lat":34.87041,"lng":138.239382},{"town":"音羽町二丁目","koaza":"","lat":34.872599,"lng":138.237857},{"town":"音羽町三丁目","koaza":"","lat":34.874654,"lng":138.237499},{"town":"音羽町四丁目","koaza":"","lat":34.875231,"lng":138.24163},{"town":"音羽町五丁目","koaza":"","lat":34.875483,"lng":138.238591},{"town":"音羽町六丁目","koaza":"","lat":34.878471,"lng":138.236284},{"town":"鬼島","koaza":"","lat":34.886755,"lng":138.280004},{"town":"上青島","koaza":"","lat":34.843328,"lng":138.224027},{"town":"上当間","koaza":"","lat":34.884023,"lng":138.287363},{"town":"上藪田","koaza":"","lat":34.892258,"lng":138.254265},{"town":"仮宿","koaza":"","lat":34.900534,"lng":138.276889},{"town":"鬼岩寺","koaza":"","lat":34.873717,"lng":138.248993},{"town":"北方","koaza":"","lat":34.929649,"lng":138.242475},{"town":"久兵衛市右衛門請新田","koaza":"","lat":34.84035,"lng":138.221819},{"town":"清里一丁目","koaza":"","lat":34.894318,"lng":138.262392},{"town":"清里二丁目","koaza":"","lat":34.898377,"lng":138.261014},{"town":"源助","koaza":"","lat":34.825228,"lng":138.225947},{"town":"小石川町一丁目","koaza":"","lat":34.852396,"lng":138.257355},{"town":"小石川町二丁目","koaza":"","lat":34.855383,"lng":138.256454},{"town":"小石川町三丁目","koaza":"","lat":34.85611,"lng":138.260573},{"town":"小石川町四丁目","koaza":"","lat":34.854261,"lng":138.263784},{"town":"光洋台","koaza":"","lat":34.847414,"lng":138.22326},{"town":"郡","koaza":"","lat":34.875297,"lng":138.272494},{"town":"郡一丁目","koaza":"","lat":34.871183,"lng":138.263894},{"town":"五平","koaza":"","lat":34.828591,"lng":138.242476},{"town":"志太","koaza":"","lat":34.865226,"lng":138.228085},{"town":"志太一丁目","koaza":"","lat":34.860876,"lng":138.249857},{"town":"志太二丁目","koaza":"","lat":34.862149,"lng":138.246912},{"town":"志太三丁目","koaza":"","lat":34.865381,"lng":138.2475},{"town":"志太四丁目","koaza":"","lat":34.863253,"lng":138.251744},{"town":"志太五丁目","koaza":"","lat":34.860912,"lng":138.254253},{"town":"下青島","koaza":"","lat":34.846842,"lng":138.24076},{"town":"下当間","koaza":"","lat":34.889797,"lng":138.289845},{"town":"下之郷","koaza":"","lat":34.901095,"lng":138.239021},{"town":"下藪田","koaza":"","lat":34.890719,"lng":138.266901},{"town":"新南新屋","koaza":"","lat":34.856707,"lng":138.245333},{"town":"城南一丁目","koaza":"","lat":34.8658,"lng":138.268198},{"town":"城南二丁目","koaza":"","lat":34.866532,"lng":138.27244},{"town":"城南三丁目","koaza":"","lat":34.867431,"lng":138.275717},{"town":"末広一丁目","koaza":"","lat":34.840824,"lng":138.236789},{"town":"末広二丁目","koaza":"","lat":34.84222,"lng":138.234619},{"town":"末広三丁目","koaza":"","lat":34.842208,"lng":138.229615},{"town":"末広四丁目","koaza":"","lat":34.840661,"lng":138.227016},{"town":"助宗","koaza":"","lat":34.898244,"lng":138.216601},{"town":"駿河台一丁目","koaza":"","lat":34.864342,"lng":138.235796},{"town":"駿河台二丁目","koaza":"","lat":34.862402,"lng":138.2352},{"town":"駿河台三丁目","koaza":"","lat":34.863079,"lng":138.230891},{"town":"駿河台四丁目","koaza":"","lat":34.861419,"lng":138.229077},{"town":"駿河台五丁目","koaza":"","lat":34.857553,"lng":138.228753},{"town":"青南町一丁目","koaza":"","lat":34.837366,"lng":138.242307},{"town":"青南町二丁目","koaza":"","lat":34.834112,"lng":138.242145},{"town":"青南町三丁目","koaza":"","lat":34.831401,"lng":138.23252},{"town":"青南町四丁目","koaza":"","lat":34.835398,"lng":138.23529},{"town":"青南町五丁目","koaza":"","lat":34.839164,"lng":138.23672},{"town":"瀬古","koaza":"","lat":34.870403,"lng":138.234842},{"town":"瀬古一丁目","koaza":"","lat":34.866548,"lng":138.241927},{"town":"瀬古二丁目","koaza":"","lat":34.864615,"lng":138.24159},{"town":"瀬古三丁目","koaza":"","lat":34.867984,"lng":138.23704},{"town":"瀬戸新屋","koaza":"","lat":34.849604,"lng":138.241599},{"town":"瀬戸ノ谷","koaza":"","lat":34.970712,"lng":138.193066},{"town":"善左衛門","koaza":"","lat":34.821321,"lng":138.235801},{"town":"善左衛門一丁目","koaza":"","lat":34.824608,"lng":138.240701},{"town":"善左衛門二丁目","koaza":"","lat":34.824219,"lng":138.246266},{"town":"善左衛門三丁目","koaza":"","lat":34.822148,"lng":138.251153},{"town":"大新島","koaza":"","lat":34.831118,"lng":138.272978},{"town":"高岡一丁目","koaza":"","lat":34.841474,"lng":138.253612},{"town":"高岡二丁目","koaza":"","lat":34.839222,"lng":138.253852},{"town":"高岡三丁目","koaza":"","lat":34.840216,"lng":138.249716},{"town":"高岡四丁目","koaza":"","lat":34.836471,"lng":138.251496},{"town":"高洲","koaza":"","lat":34.837446,"lng":138.260311},{"town":"高洲一丁目","koaza":"","lat":34.841047,"lng":138.265479},{"town":"高田","koaza":"","lat":34.907888,"lng":138.26241},{"town":"高柳","koaza":"","lat":34.847707,"lng":138.275127},{"town":"高柳一丁目","koaza":"","lat":34.852154,"lng":138.265768},{"town":"高柳二丁目","koaza":"","lat":34.849188,"lng":138.265711},{"town":"高柳三丁目","koaza":"","lat":34.845191,"lng":138.264318},{"town":"高柳四丁目","koaza":"","lat":34.843683,"lng":138.267153},{"town":"滝沢","koaza":"","lat":34.916216,"lng":138.179892},{"town":"立花一丁目","koaza":"","lat":34.869608,"lng":138.266229},{"town":"立花二丁目","koaza":"","lat":34.87247,"lng":138.269278},{"town":"立花三丁目","koaza":"","lat":34.870052,"lng":138.271233},{"town":"田中一丁目","koaza":"","lat":34.87121,"lng":138.274013},{"town":"田中二丁目","koaza":"","lat":34.872585,"lng":138.276357},{"town":"田中三丁目","koaza":"","lat":34.870994,"lng":138.278928},{"town":"田沼一丁目","koaza":"","lat":34.848303,"lng":138.255843},{"town":"田沼二丁目","koaza":"","lat":34.849609,"lng":138.259503},{"town":"田沼三丁目","koaza":"","lat":34.845764,"lng":138.257797},{"town":"田沼四丁目","koaza":"","lat":34.84265,"lng":138.25881},{"town":"田沼五丁目","koaza":"","lat":34.840521,"lng":138.258242},{"town":"大西町一丁目","koaza":"","lat":34.830878,"lng":138.240228},{"town":"大西町二丁目","koaza":"","lat":34.828031,"lng":138.238678},{"town":"大西町三丁目","koaza":"","lat":34.827669,"lng":138.23107},{"town":"大東町","koaza":"","lat":34.825704,"lng":138.269356},{"town":"茶町一丁目","koaza":"","lat":34.871115,"lng":138.24836},{"town":"茶町二丁目","koaza":"","lat":34.869081,"lng":138.245702},{"town":"茶町三丁目","koaza":"","lat":34.871695,"lng":138.243898},{"town":"茶町四丁目","koaza":"","lat":34.873177,"lng":138.244146},{"town":"忠兵衛","koaza":"","lat":34.83626,"lng":138.247214},{"town":"築地","koaza":"","lat":34.859794,"lng":138.274639},{"town":"築地一丁目","koaza":"","lat":34.858418,"lng":138.267778},{"town":"築地上","koaza":"","lat":34.855219,"lng":138.272281},{"town":"寺島","koaza":"","lat":34.889195,"lng":138.212061},{"town":"天王町一丁目","koaza":"","lat":34.877236,"lng":138.26123},{"town":"天王町二丁目","koaza":"","lat":34.877532,"lng":138.263741},{"town":"天王町三丁目","koaza":"","lat":34.879012,"lng":138.266882},{"town":"時ケ谷","koaza":"","lat":34.88488,"lng":138.251888},{"town":"中ノ合","koaza":"","lat":34.905232,"lng":138.247835},{"town":"中藪田","koaza":"","lat":34.898597,"lng":138.26522},{"town":"西方","koaza":"","lat":34.934266,"lng":138.223537},{"town":"若王子","koaza":"","lat":34.87538,"lng":138.254295},{"town":"若王子一丁目","koaza":"","lat":34.876226,"lng":138.258848},{"town":"若王子二丁目","koaza":"","lat":34.877427,"lng":138.254968},{"town":"若王子三丁目","koaza":"","lat":34.878797,"lng":138.255636},{"town":"花倉","koaza":"","lat":34.90159,"lng":138.230252},{"town":"原","koaza":"","lat":34.881265,"lng":138.237809},{"town":"東町","koaza":"","lat":34.858763,"lng":138.260066},{"town":"兵太夫","koaza":"","lat":34.841198,"lng":138.274975},{"town":"平島","koaza":"","lat":34.877415,"lng":138.285134},{"town":"藤枝一丁目","koaza":"","lat":34.867212,"lng":138.252026},{"town":"藤枝二丁目","koaza":"","lat":34.867704,"lng":138.25058},{"town":"藤枝三丁目","koaza":"","lat":34.871231,"lng":138.251868},{"town":"藤枝四丁目","koaza":"","lat":34.869212,"lng":138.254096},{"town":"藤枝五丁目","koaza":"","lat":34.871301,"lng":138.255851},{"town":"藤岡一丁目","koaza":"","lat":34.881849,"lng":138.266859},{"town":"藤岡二丁目","koaza":"","lat":34.882176,"lng":138.269452},{"town":"藤岡三丁目","koaza":"","lat":34.885943,"lng":138.267885},{"town":"藤岡四丁目","koaza":"","lat":34.887937,"lng":138.26878},{"town":"藤岡五丁目","koaza":"","lat":34.883773,"lng":138.264872},{"town":"堀之内","koaza":"","lat":34.878692,"lng":138.223421},{"town":"堀之内一丁目","koaza":"","lat":34.872584,"lng":138.231949},{"town":"本郷","koaza":"","lat":34.920507,"lng":138.206099},{"town":"本町一丁目","koaza":"","lat":34.872184,"lng":138.2595},{"town":"本町二丁目","koaza":"","lat":34.873447,"lng":138.261731},{"town":"本町三丁目","koaza":"","lat":34.87548,"lng":138.264829},{"town":"本町四丁目","koaza":"","lat":34.877541,"lng":138.269079},{"town":"前島","koaza":"","lat":34.837065,"lng":138.247733},{"town":"前島一丁目","koaza":"","lat":34.847726,"lng":138.250454},{"town":"前島二丁目","koaza":"","lat":34.845412,"lng":138.251118},{"town":"前島三丁目","koaza":"","lat":34.842065,"lng":138.248344},{"town":"益津","koaza":"","lat":34.865627,"lng":138.259612},{"town":"益津下","koaza":"","lat":34.864535,"lng":138.265313},{"town":"水上","koaza":"","lat":34.854014,"lng":138.241772},{"town":"水守","koaza":"","lat":34.878777,"lng":138.277423},{"town":"水守一丁目","koaza":"","lat":34.881307,"lng":138.271152},{"town":"水守二丁目","koaza":"","lat":34.879733,"lng":138.27366},{"town":"水守三丁目","koaza":"","lat":34.881876,"lng":138.276812},{"town":"緑町一丁目","koaza":"","lat":34.867394,"lng":138.261789},{"town":"緑町二丁目","koaza":"","lat":34.866476,"lng":138.264064},{"town":"緑の丘","koaza":"","lat":34.853329,"lng":138.236533},{"town":"南新屋","koaza":"","lat":34.856762,"lng":138.247828},{"town":"南清里","koaza":"","lat":34.891342,"lng":138.263128},{"town":"南駿河台一丁目","koaza":"","lat":34.861251,"lng":138.242124},{"town":"南駿河台二丁目","koaza":"","lat":34.859612,"lng":138.238772},{"town":"南駿河台三丁目","koaza":"","lat":34.857859,"lng":138.235067},{"town":"南駿河台四丁目","koaza":"","lat":34.860437,"lng":138.233846},{"town":"南駿河台五丁目","koaza":"","lat":34.859021,"lng":138.23079},{"town":"南駿河台六丁目","koaza":"","lat":34.856671,"lng":138.231889},{"town":"宮原","koaza":"","lat":34.894126,"lng":138.198615},{"town":"谷稲葉","koaza":"","lat":34.874706,"lng":138.210931},{"town":"弥左衛門","koaza":"","lat":34.825711,"lng":138.259442},{"town":"八幡","koaza":"","lat":34.887803,"lng":138.274946},{"town":"横内","koaza":"","lat":34.897323,"lng":138.2859},{"town":"与左衛門","koaza":"","lat":34.837121,"lng":138.270833}]