[{"town":"甲田町浅塚","lat":"34.712147","lng":"132.722066"},{"town":"甲田町上小原","lat":"34.659081","lng":"132.759953"},{"town":"甲田町上甲立","lat":"34.705814","lng":"132.745088"},{"town":"甲田町下小原","lat":"34.675242","lng":"132.749169"},{"town":"甲田町下甲立","lat":"34.717397","lng":"132.760581"},{"town":"甲田町糘地","lat":"34.734995","lng":"132.742436"},{"town":"甲田町高田原","lat":"34.679728","lng":"132.794865"},{"town":"甲田町深瀬","lat":"34.739892","lng":"132.766284"},{"town":"高宮町川根","lat":"34.820373","lng":"132.663066"},{"town":"高宮町来女木","lat":"34.757560","lng":"132.671612"},{"town":"高宮町佐々部","lat":"34.785996","lng":"132.715687"},{"town":"高宮町羽佐竹","lat":"34.776887","lng":"132.692339"},{"town":"高宮町原田","lat":"34.733866","lng":"132.699672"},{"town":"高宮町船木","lat":"34.781099","lng":"132.754066"},{"town":"高宮町房後","lat":"34.753640","lng":"132.733208"},{"town":"美土里町生田","lat":"34.804141","lng":"132.588063"},{"town":"美土里町北","lat":"34.766966","lng":"132.641337"},{"town":"美土里町桑田","lat":"34.757006","lng":"132.586750"},{"town":"美土里町本郷","lat":"34.715157","lng":"132.612542"},{"town":"美土里町横田","lat":"34.721343","lng":"132.661363"},{"town":"向原町有留","lat":"34.564727","lng":"132.698460"},{"town":"向原町坂","lat":"34.606417","lng":"132.755413"},{"town":"向原町戸島","lat":"34.632243","lng":"132.722124"},{"town":"向原町長田","lat":"34.604231","lng":"132.698984"},{"town":"向原町保垣","lat":"34.572037","lng":"132.727197"},{"town":"八千代町勝田","lat":"34.618559","lng":"132.627566"},{"town":"八千代町上根","lat":"34.586579","lng":"132.592034"},{"town":"八千代町佐々井","lat":"34.623628","lng":"132.595609"},{"town":"八千代町下根","lat":"34.606629","lng":"132.587194"},{"town":"八千代町土師","lat":"34.656683","lng":"132.608064"},{"town":"八千代町向山","lat":"34.582345","lng":"132.560840"},{"town":"吉田町相合","lat":"34.688799","lng":"132.687605"},{"town":"吉田町小山","lat":"34.629234","lng":"132.681618"},{"town":"吉田町桂","lat":"34.633924","lng":"132.655076"},{"town":"吉田町上入江","lat":"34.613857","lng":"132.641321"},{"town":"吉田町川本","lat":"34.644104","lng":"132.664229"},{"town":"吉田町国司","lat":"34.653359","lng":"132.702965"},{"town":"吉田町高野","lat":"34.641185","lng":"132.649473"},{"town":"吉田町下入江","lat":"34.614814","lng":"132.658869"},{"town":"吉田町常楽寺","lat":"34.660214","lng":"132.676855"},{"town":"吉田町竹原","lat":"34.647690","lng":"132.685280"},{"town":"吉田町多治比","lat":"34.688445","lng":"132.647011"},{"town":"吉田町中馬","lat":"34.660264","lng":"132.642833"},{"town":"吉田町常友","lat":"34.656631","lng":"132.690035"},{"town":"吉田町長屋","lat":"34.640823","lng":"132.635757"},{"town":"吉田町西浦","lat":"34.668139","lng":"132.667684"},{"town":"吉田町福原","lat":"34.638552","lng":"132.671209"},{"town":"吉田町山手","lat":"34.655483","lng":"132.669367"},{"town":"吉田町山部","lat":"34.684256","lng":"132.705032"},{"town":"吉田町吉田","lat":"34.676745","lng":"132.719367"}]