[{"town":"大字吉年","lat":"34.447272","lng":"135.615964"},{"town":"大字川野邊","lat":"34.466279","lng":"135.630678"},{"town":"大字二河原邊","lat":"34.452332","lng":"135.634657"},{"town":"大字森屋","lat":"34.466335","lng":"135.619167"},{"town":"大字桐山","lat":"34.446790","lng":"135.634838"},{"town":"大字小吹","lat":"34.437739","lng":"135.611804"},{"town":"大字中津原","lat":"34.432692","lng":"135.625316"},{"town":"大字東阪","lat":"34.443337","lng":"135.628242"},{"town":"大字千早","lat":"34.412663","lng":"135.657350"},{"town":"大字水分","lat":"34.447798","lng":"135.651934"}]