[{"town":"東中島六丁目","lat":"34.733444","lng":"135.511339"},{"town":"下新庄一丁目","lat":"34.743554","lng":"135.518693"},{"town":"菅原五丁目","lat":"34.740364","lng":"135.519140"},{"town":"北江口三丁目","lat":"34.760369","lng":"135.545978"},{"town":"大隅二丁目","lat":"34.750391","lng":"135.545326"},{"town":"東淡路三丁目","lat":"34.735753","lng":"135.520111"},{"town":"下新庄二丁目","lat":"34.743397","lng":"135.520694"},{"town":"小松五丁目","lat":"34.753901","lng":"135.547212"},{"town":"大道南三丁目","lat":"34.743507","lng":"135.546930"},{"town":"瑞光三丁目","lat":"34.751217","lng":"135.542592"},{"town":"東淡路五丁目","lat":"34.737545","lng":"135.521332"},{"town":"瑞光五丁目","lat":"34.752953","lng":"135.551733"},{"town":"大隅一丁目","lat":"34.748378","lng":"135.540204"},{"town":"豊里四丁目","lat":"34.739431","lng":"135.540707"},{"town":"菅原七丁目","lat":"34.741375","lng":"135.523627"},{"town":"淡路一丁目","lat":"34.736508","lng":"135.509095"},{"town":"菅原四丁目","lat":"34.740493","lng":"135.528641"},{"town":"淡路二丁目","lat":"34.736565","lng":"135.512116"},{"town":"豊新三丁目","lat":"34.744842","lng":"135.532102"},{"town":"西淡路二丁目","lat":"34.736895","lng":"135.506990"},{"town":"下新庄六丁目","lat":"34.747282","lng":"135.525725"},{"town":"菅原六丁目","lat":"34.739816","lng":"135.521899"},{"town":"瑞光一丁目","lat":"34.748686","lng":"135.535405"},{"town":"瑞光二丁目","lat":"34.750041","lng":"135.539173"},{"town":"瑞光四丁目","lat":"34.752449","lng":"135.547018"},{"town":"大桐一丁目","lat":"34.745098","lng":"135.545450"},{"town":"菅原三丁目","lat":"34.739438","lng":"135.525761"},{"town":"東中島四丁目","lat":"34.732862","lng":"135.505922"},{"town":"上新庄一丁目","lat":"34.745156","lng":"135.528970"},{"town":"北江口二丁目","lat":"34.759077","lng":"135.545163"},{"town":"東中島五丁目","lat":"34.733226","lng":"135.508977"},{"town":"東中島三丁目","lat":"34.730424","lng":"135.506527"},{"town":"東淡路四丁目","lat":"34.738462","lng":"135.518584"},{"town":"東中島二丁目","lat":"34.727926","lng":"135.505166"},{"town":"東淡路二丁目","lat":"34.736098","lng":"135.515869"},{"town":"豊新一丁目","lat":"34.742015","lng":"135.532822"},{"town":"淡路五丁目","lat":"34.742651","lng":"135.516225"},{"town":"小松一丁目","lat":"34.752086","lng":"135.534622"},{"town":"北江口四丁目","lat":"34.759031","lng":"135.548779"},{"town":"南江口二丁目","lat":"34.755732","lng":"135.548412"},{"town":"大桐二丁目","lat":"34.747137","lng":"135.543223"},{"town":"豊新五丁目","lat":"34.746663","lng":"135.536480"},{"town":"豊新四丁目","lat":"34.744611","lng":"135.535675"},{"town":"淡路四丁目","lat":"34.739946","lng":"135.515571"},{"town":"下新庄三丁目","lat":"34.744248","lng":"135.523985"},{"town":"西淡路四丁目","lat":"34.742088","lng":"135.507907"},{"town":"西淡路五丁目","lat":"34.742622","lng":"135.512139"},{"town":"淡路三丁目","lat":"34.738582","lng":"135.512087"},{"town":"大桐三丁目","lat":"34.748213","lng":"135.546113"},{"town":"東中島一丁目","lat":"34.730218","lng":"135.502842"},{"town":"相川二丁目","lat":"34.757938","lng":"135.535437"},{"town":"豊新二丁目","lat":"34.742652","lng":"135.528669"},{"town":"小松四丁目","lat":"34.753512","lng":"135.542639"},{"town":"北江口一丁目","lat":"34.758993","lng":"135.541483"},{"town":"小松二丁目","lat":"34.753285","lng":"135.536704"},{"town":"井高野二丁目","lat":"34.763201","lng":"135.549063"},{"town":"西淡路三丁目","lat":"34.739619","lng":"135.508805"},{"town":"西淡路一丁目","lat":"34.737110","lng":"135.504558"},{"town":"南江口一丁目","lat":"34.755768","lng":"135.543111"},{"town":"小松三丁目","lat":"34.753777","lng":"135.539064"},{"town":"相川三丁目","lat":"34.758983","lng":"135.538245"},{"town":"井高野一丁目","lat":"34.762550","lng":"135.543099"},{"town":"井高野四丁目","lat":"34.766098","lng":"135.549839"},{"town":"上新庄三丁目","lat":"34.751875","lng":"135.532283"},{"town":"下新庄五丁目","lat":"34.747621","lng":"135.521621"},{"town":"相川一丁目","lat":"34.756896","lng":"135.532179"},{"town":"豊里六丁目","lat":"34.741628","lng":"135.538829"},{"town":"上新庄二丁目","lat":"34.748114","lng":"135.530648"},{"town":"豊里五丁目","lat":"34.740389","lng":"135.544349"},{"town":"豊里七丁目","lat":"34.744061","lng":"135.541564"},{"town":"東淡路一丁目","lat":"34.734585","lng":"135.521291"},{"town":"下新庄四丁目","lat":"34.747410","lng":"135.517554"},{"town":"大桐五丁目","lat":"34.750369","lng":"135.552434"},{"town":"菅原一丁目","lat":"34.735809","lng":"135.527162"},{"town":"井高野三丁目","lat":"34.765192","lng":"135.544732"},{"town":"豊里一丁目","lat":"34.736921","lng":"135.535973"},{"town":"西淡路六丁目","lat":"34.746388","lng":"135.513450"},{"town":"大桐四丁目","lat":"34.747910","lng":"135.552092"},{"town":"大道南二丁目","lat":"34.743848","lng":"135.552117"},{"town":"柴島三丁目","lat":"34.731437","lng":"135.516964"},{"town":"豊里三丁目","lat":"34.737605","lng":"135.548232"},{"town":"大道南一丁目","lat":"34.740405","lng":"135.551308"},{"town":"菅原二丁目","lat":"34.736365","lng":"135.532098"},{"town":"豊里二丁目","lat":"34.737832","lng":"135.538482"},{"town":"南江口三丁目","lat":"34.754137","lng":"135.555275"},{"town":"柴島二丁目","lat":"34.725172","lng":"135.513471"},{"town":"柴島一丁目","lat":"34.727286","lng":"135.508070"}]