[{"town":"生野西二丁目","lat":"34.647770","lng":"135.525974"},{"town":"中川一丁目","lat":"34.663515","lng":"135.542719"},{"town":"林寺一丁目","lat":"34.645581","lng":"135.528860"},{"town":"中川三丁目","lat":"34.660218","lng":"135.544614"},{"town":"中川西三丁目","lat":"34.655593","lng":"135.540545"},{"town":"勝山南二丁目","lat":"34.653133","lng":"135.531038"},{"town":"小路東六丁目","lat":"34.657104","lng":"135.562812"},{"town":"新今里六丁目","lat":"34.663302","lng":"135.551425"},{"town":"中川五丁目","lat":"34.657482","lng":"135.545186"},{"town":"鶴橋四丁目","lat":"34.663817","lng":"135.537010"},{"town":"中川東一丁目","lat":"34.657476","lng":"135.547738"},{"town":"中川四丁目","lat":"34.657496","lng":"135.542676"},{"town":"鶴橋一丁目","lat":"34.663780","lng":"135.530765"},{"town":"中川六丁目","lat":"34.654933","lng":"135.542022"},{"town":"新今里五丁目","lat":"34.660221","lng":"135.548826"},{"town":"鶴橋五丁目","lat":"34.663833","lng":"135.538549"},{"town":"舎利寺一丁目","lat":"34.651113","lng":"135.538241"},{"town":"田島三丁目","lat":"34.648352","lng":"135.542140"},{"town":"林寺三丁目","lat":"34.644894","lng":"135.534632"},{"town":"新今里二丁目","lat":"34.663613","lng":"135.547147"},{"town":"小路三丁目","lat":"34.657254","lng":"135.554456"},{"town":"小路東一丁目","lat":"34.662974","lng":"135.557682"},{"town":"生野東四丁目","lat":"34.647251","lng":"135.534496"},{"town":"巽南四丁目","lat":"34.637657","lng":"135.549847"},{"town":"新今里四丁目","lat":"34.663392","lng":"135.549406"},{"town":"林寺五丁目","lat":"34.644641","lng":"135.537710"},{"town":"林寺六丁目","lat":"34.642177","lng":"135.537119"},{"town":"生野西一丁目","lat":"34.650341","lng":"135.526426"},{"town":"鶴橋三丁目","lat":"34.663926","lng":"135.535123"},{"town":"田島二丁目","lat":"34.650051","lng":"135.542219"},{"town":"鶴橋二丁目","lat":"34.663924","lng":"135.532743"},{"town":"小路東五丁目","lat":"34.657120","lng":"135.560245"},{"town":"勝山北四丁目","lat":"34.655919","lng":"135.536665"},{"town":"桃谷四丁目","lat":"34.659863","lng":"135.537090"},{"town":"桃谷五丁目","lat":"34.659757","lng":"135.538808"},{"town":"生野東二丁目","lat":"34.647341","lng":"135.531429"},{"town":"中川東二丁目","lat":"34.657442","lng":"135.550985"},{"town":"勝山北二丁目","lat":"34.656107","lng":"135.531748"},{"town":"小路東四丁目","lat":"34.657152","lng":"135.557268"},{"town":"勝山南四丁目","lat":"34.652846","lng":"135.538453"},{"town":"中川二丁目","lat":"34.660399","lng":"135.542876"},{"town":"生野東一丁目","lat":"34.650126","lng":"135.531932"},{"town":"小路東三丁目","lat":"34.659958","lng":"135.560254"},{"town":"勝山南一丁目","lat":"34.653285","lng":"135.528465"},{"town":"田島一丁目","lat":"34.652212","lng":"135.542346"},{"town":"中川西二丁目","lat":"34.659854","lng":"135.540684"},{"town":"舎利寺三丁目","lat":"34.647023","lng":"135.537875"},{"town":"新今里七丁目","lat":"34.660168","lng":"135.551069"},{"town":"小路東二丁目","lat":"34.660097","lng":"135.557497"},{"town":"舎利寺二丁目","lat":"34.649177","lng":"135.538101"},{"town":"生野西三丁目","lat":"34.650320","lng":"135.529017"},{"town":"林寺四丁目","lat":"34.641927","lng":"135.534082"},{"town":"勝山南三丁目","lat":"34.653021","lng":"135.534218"},{"town":"巽西四丁目","lat":"34.643799","lng":"135.546856"},{"town":"新今里一丁目","lat":"34.663815","lng":"135.544597"},{"town":"桃谷一丁目","lat":"34.659827","lng":"135.529717"},{"town":"巽北三丁目","lat":"34.655180","lng":"135.553953"},{"town":"新今里三丁目","lat":"34.660377","lng":"135.546545"},{"town":"中川西一丁目","lat":"34.663851","lng":"135.540830"},{"town":"勝山北五丁目","lat":"34.655591","lng":"135.538740"},{"town":"生野西四丁目","lat":"34.647896","lng":"135.528282"},{"town":"勝山北三丁目","lat":"34.655936","lng":"135.534213"},{"town":"生野東三丁目","lat":"34.650221","lng":"135.534556"},{"town":"巽北四丁目","lat":"34.654444","lng":"135.557325"},{"town":"桃谷三丁目","lat":"34.660035","lng":"135.535100"},{"town":"田島四丁目","lat":"34.646478","lng":"135.542099"},{"town":"勝山北一丁目","lat":"34.656065","lng":"135.529111"},{"town":"田島六丁目","lat":"34.641790","lng":"135.541880"},{"town":"林寺二丁目","lat":"34.644161","lng":"135.531412"},{"town":"巽南一丁目","lat":"34.641266","lng":"135.546890"},{"town":"巽東一丁目","lat":"34.650811","lng":"135.555747"},{"town":"巽中四丁目","lat":"34.643913","lng":"135.551059"},{"town":"小路二丁目","lat":"34.660195","lng":"135.554239"},{"town":"巽西三丁目","lat":"34.646464","lng":"135.546577"},{"town":"小路一丁目","lat":"34.663210","lng":"135.554333"},{"town":"巽南二丁目","lat":"34.637782","lng":"135.547773"},{"town":"巽北二丁目","lat":"34.655083","lng":"135.550336"},{"town":"巽西二丁目","lat":"34.649169","lng":"135.546354"},{"town":"巽西一丁目","lat":"34.652001","lng":"135.546189"},{"town":"巽南三丁目","lat":"34.641320","lng":"135.551366"},{"town":"田島五丁目","lat":"34.644109","lng":"135.542126"},{"town":"巽東二丁目","lat":"34.645668","lng":"135.555407"},{"town":"桃谷二丁目","lat":"34.660042","lng":"135.532293"},{"town":"巽中三丁目","lat":"34.646683","lng":"135.551233"},{"town":"巽中二丁目","lat":"34.649443","lng":"135.551414"},{"town":"巽北一丁目","lat":"34.654894","lng":"135.545674"},{"town":"巽中一丁目","lat":"34.652045","lng":"135.551580"},{"town":"巽南五丁目","lat":"34.636682","lng":"135.551351"},{"town":"巽東三丁目","lat":"34.650957","lng":"135.559439"},{"town":"巽東四丁目","lat":"34.646139","lng":"135.559040"}]