[{"town":"ときわ台五丁目","lat":"34.902589","lng":"135.441199"},{"town":"ときわ台二丁目","lat":"34.906165","lng":"135.442556"},{"town":"東ときわ台一丁目","lat":"34.901583","lng":"135.443685"},{"town":"ときわ台三丁目","lat":"34.905141","lng":"135.442389"},{"town":"希望ケ丘四丁目","lat":"34.911986","lng":"135.512507"},{"town":"東ときわ台四丁目","lat":"34.903021","lng":"135.448872"},{"town":"希望ケ丘一丁目","lat":"34.919462","lng":"135.504823"},{"town":"東ときわ台七丁目","lat":"34.900010","lng":"135.447394"},{"town":"ときわ台四丁目","lat":"34.904013","lng":"135.440913"},{"town":"東ときわ台六丁目","lat":"34.900308","lng":"135.449619"},{"town":"ときわ台六丁目","lat":"34.901885","lng":"135.439526"},{"town":"光風台一丁目","lat":"34.901142","lng":"135.437117"},{"town":"東ときわ台三丁目","lat":"34.902440","lng":"135.445948"},{"town":"東ときわ台二丁目","lat":"34.904261","lng":"135.446995"},{"town":"東ときわ台八丁目","lat":"34.897337","lng":"135.446926"},{"town":"希望ケ丘五丁目","lat":"34.912848","lng":"135.510182"},{"town":"東ときわ台九丁目","lat":"34.897161","lng":"135.449731"},{"town":"希望ケ丘六丁目","lat":"34.915926","lng":"135.508078"},{"town":"希望ケ丘三丁目","lat":"34.914826","lng":"135.513221"},{"town":"新光風台五丁目","lat":"34.906304","lng":"135.432308"},{"town":"ときわ台一丁目","lat":"34.905096","lng":"135.437840"},{"town":"光風台二丁目","lat":"34.900145","lng":"135.435763"},{"town":"光風台三丁目","lat":"34.898997","lng":"135.433327"},{"town":"新光風台二丁目","lat":"34.905645","lng":"135.429206"},{"town":"光風台五丁目","lat":"34.899839","lng":"135.443225"},{"town":"希望ケ丘二丁目","lat":"34.917763","lng":"135.509393"},{"town":"東ときわ台五丁目","lat":"34.901620","lng":"135.451516"},{"town":"光風台四丁目","lat":"34.895327","lng":"135.433176"},{"town":"新光風台四丁目","lat":"34.909137","lng":"135.432535"},{"town":"新光風台三丁目","lat":"34.909935","lng":"135.428313"},{"town":"光風台六丁目","lat":"34.895808","lng":"135.436139"},{"town":"新光風台一丁目","lat":"34.902079","lng":"135.431114"},{"town":"寺田","lat":"34.937415","lng":"135.508963"},{"town":"野間口","lat":"34.930672","lng":"135.482911"},{"town":"余野","lat":"34.924785","lng":"135.490790"},{"town":"牧","lat":"34.937235","lng":"135.491428"},{"town":"切畑","lat":"34.922579","lng":"135.513937"},{"town":"高山","lat":"34.886021","lng":"135.489198"},{"town":"川尻","lat":"34.913675","lng":"135.476798"},{"town":"木代","lat":"34.909325","lng":"135.502079"},{"town":"吉川","lat":"34.910409","lng":"135.449776"}]