[{"town":"旭町","koaza":"","lat":32.491004,"lng":130.195017},{"town":"天草町大江","koaza":"","lat":32.329819,"lng":129.992915},{"town":"天草町大江軍浦","koaza":"","lat":32.316607,"lng":130.004334},{"town":"天草町大江向","koaza":"","lat":32.282319,"lng":129.998161},{"town":"天草町下田北","koaza":"","lat":32.418184,"lng":130.022299},{"town":"天草町下田南","koaza":"","lat":32.400982,"lng":130.016866},{"town":"天草町高浜北","koaza":"","lat":32.380843,"lng":130.019646},{"town":"天草町高浜南","koaza":"","lat":32.36386,"lng":129.99843},{"town":"天草町福連木","koaza":"","lat":32.41859,"lng":130.069572},{"town":"有明町赤崎","koaza":"","lat":32.501227,"lng":130.333113},{"town":"有明町大浦","koaza":"","lat":32.505408,"lng":130.357744},{"town":"有明町大島子","koaza":"","lat":32.462682,"lng":130.266721},{"town":"有明町楠甫","koaza":"","lat":32.496915,"lng":130.366658},{"town":"有明町上津浦","koaza":"","lat":32.485446,"lng":130.308258},{"town":"有明町小島子","koaza":"","lat":32.469165,"lng":130.283757},{"town":"有明町下津浦","koaza":"","lat":32.471736,"lng":130.310191},{"town":"有明町須子","koaza":"","lat":32.514309,"lng":130.346775},{"town":"五和町鬼池","koaza":"","lat":32.539397,"lng":130.16719},{"town":"五和町御領","koaza":"","lat":32.520851,"lng":130.178144},{"town":"五和町城河原一丁目","koaza":"","lat":32.490587,"lng":130.153623},{"town":"五和町城河原二丁目","koaza":"","lat":32.490469,"lng":130.128258},{"town":"五和町城河原三丁目","koaza":"","lat":32.498785,"lng":130.146008},{"town":"五和町手野一丁目","koaza":"","lat":32.512808,"lng":130.139717},{"town":"五和町手野二丁目","koaza":"","lat":32.526141,"lng":130.140829},{"town":"五和町二江","koaza":"","lat":32.539286,"lng":130.13489},{"town":"今釜新町","koaza":"","lat":32.460068,"lng":130.196299},{"town":"今釜町","koaza":"","lat":32.462933,"lng":130.193512},{"town":"牛深町","koaza":"","lat":32.208765,"lng":130.010513},{"town":"牛深町","koaza":"大池田","lat":32.200482,"lng":130.031547},{"town":"太田町","koaza":"","lat":32.451455,"lng":130.197601},{"town":"大浜町","koaza":"","lat":32.45996,"lng":130.189147},{"town":"魚貫町","koaza":"","lat":32.245648,"lng":130.013651},{"town":"亀場町亀川","koaza":"","lat":32.441364,"lng":130.195224},{"town":"亀場町食場","koaza":"","lat":32.426987,"lng":130.172281},{"town":"河浦町今田","koaza":"","lat":32.369605,"lng":130.088966},{"town":"河浦町今富","koaza":"","lat":32.328575,"lng":130.028819},{"town":"河浦町河浦","koaza":"","lat":32.338645,"lng":130.067004},{"town":"河浦町崎津","koaza":"","lat":32.313414,"lng":130.021246},{"town":"河浦町白木河内","koaza":"","lat":32.315225,"lng":130.092761},{"town":"河浦町新合","koaza":"","lat":32.33562,"lng":130.110249},{"town":"河浦町立原","koaza":"","lat":32.344778,"lng":130.131697},{"town":"河浦町久留","koaza":"","lat":32.295152,"lng":130.083891},{"town":"河浦町宮野河内","koaza":"","lat":32.303938,"lng":130.132038},{"town":"河浦町路木","koaza":"","lat":32.274453,"lng":130.071084},{"town":"川原新町","koaza":"","lat":32.452061,"lng":130.183424},{"town":"川原町","koaza":"","lat":32.455567,"lng":130.183601},{"town":"北浜町","koaza":"","lat":32.468235,"lng":130.204453},{"town":"北原町","koaza":"","lat":32.46572,"lng":130.185192},{"town":"楠浦町","koaza":"","lat":32.413507,"lng":130.191677},{"town":"久玉町","koaza":"","lat":32.231334,"lng":130.04667},{"town":"倉岳町浦","koaza":"","lat":32.43373,"lng":130.354426},{"town":"倉岳町棚底","koaza":"","lat":32.414427,"lng":130.333898},{"town":"倉岳町宮田","koaza":"","lat":32.407025,"lng":130.311693},{"town":"小松原町","koaza":"","lat":32.461773,"lng":130.190192},{"town":"御所浦町御所浦","koaza":"","lat":32.327513,"lng":130.347314},{"town":"御所浦町牧島","koaza":"","lat":32.353836,"lng":130.319123},{"town":"御所浦町横浦","koaza":"","lat":32.366944,"lng":130.34811},{"town":"佐伊津町","koaza":"","lat":32.491761,"lng":130.179905},{"town":"栄町","koaza":"","lat":32.455351,"lng":130.191913},{"town":"志柿町","koaza":"","lat":32.449357,"lng":130.235105},{"town":"下浦町","koaza":"","lat":32.415478,"lng":130.246015},{"town":"新和町碇石","koaza":"","lat":32.368932,"lng":130.147219},{"town":"新和町大多尾","koaza":"","lat":32.361056,"lng":130.210838},{"town":"新和町大宮地","koaza":"","lat":32.388716,"lng":130.167167},{"town":"新和町小宮地","koaza":"","lat":32.346831,"lng":130.181479},{"town":"新和町中田","koaza":"","lat":32.339099,"lng":130.157018},{"town":"城下町","koaza":"","lat":32.459846,"lng":130.186266},{"town":"浄南町","koaza":"","lat":32.450031,"lng":130.195318},{"town":"栖本町打田","koaza":"","lat":32.429919,"lng":130.280162},{"town":"栖本町河内","koaza":"","lat":32.443777,"lng":130.306405},{"town":"栖本町馬場","koaza":"","lat":32.41748,"lng":130.264665},{"town":"栖本町古江","koaza":"","lat":32.408303,"lng":130.288075},{"town":"栖本町湯船原","koaza":"","lat":32.42375,"lng":130.297095},{"town":"諏訪町","koaza":"","lat":32.453694,"lng":130.188727},{"town":"瀬戸町","koaza":"","lat":32.450686,"lng":130.205947},{"town":"中央新町","koaza":"","lat":32.456086,"lng":130.189712},{"town":"中村町","koaza":"","lat":32.470177,"lng":130.18791},{"town":"枦宇土町","koaza":"","lat":32.427677,"lng":130.129946},{"town":"八幡町","koaza":"","lat":32.466808,"lng":130.189661},{"town":"浜崎町","koaza":"","lat":32.462982,"lng":130.186405},{"town":"東浜町","koaza":"","lat":32.45833,"lng":130.19255},{"town":"東町","koaza":"","lat":32.451553,"lng":130.201099},{"town":"深海町","koaza":"","lat":32.261622,"lng":130.093146},{"town":"二浦町亀浦","koaza":"","lat":32.272212,"lng":130.015737},{"town":"二浦町早浦","koaza":"","lat":32.268851,"lng":130.049265},{"town":"船之尾町","koaza":"","lat":32.458565,"lng":130.184351},{"town":"古川町","koaza":"","lat":32.455145,"lng":130.186205},{"town":"本渡町広瀬","koaza":"","lat":32.471854,"lng":130.198296},{"town":"本渡町本戸馬場","koaza":"","lat":32.470754,"lng":130.175845},{"town":"本渡町本渡","koaza":"","lat":32.448945,"lng":130.162446},{"town":"本渡町本泉","koaza":"","lat":32.477156,"lng":130.172417},{"town":"本町下河内","koaza":"","lat":32.472501,"lng":130.161301},{"town":"本町新休","koaza":"","lat":32.467139,"lng":130.145991},{"town":"本町本","koaza":"","lat":32.455311,"lng":130.113248},{"town":"丸尾町","koaza":"","lat":32.469455,"lng":130.184684},{"town":"港町","koaza":"","lat":32.457189,"lng":130.19736},{"town":"南新町","koaza":"","lat":32.453498,"lng":130.194847},{"town":"南町","koaza":"","lat":32.452141,"lng":130.190718},{"town":"宮地岳町","koaza":"","lat":32.38574,"lng":130.118364},{"town":"山の手町","koaza":"","lat":32.451645,"lng":130.18515}]