[{"town":"吉富","koaza":"","lat":32.943212,"lng":130.794728},{"town":"米原","koaza":"","lat":33.00069,"lng":130.796581},{"town":"赤星","koaza":"","lat":32.963367,"lng":130.8079},{"town":"市野瀬","koaza":"","lat":33.016327,"lng":130.826228},{"town":"出田","koaza":"","lat":32.952128,"lng":130.802845},{"town":"今","koaza":"","lat":32.967741,"lng":130.817024},{"town":"大平","koaza":"","lat":32.994955,"lng":130.834738},{"town":"小木","koaza":"","lat":33.032371,"lng":130.819297},{"town":"片角","koaza":"","lat":32.975638,"lng":130.817798},{"town":"木柑子","koaza":"","lat":32.94813,"lng":130.779085},{"town":"木柑子","koaza":"英","lat":32.949101,"lng":130.784589},{"town":"北宮","koaza":"","lat":32.972697,"lng":130.810691},{"town":"木野","koaza":"","lat":32.995716,"lng":130.790106},{"town":"旭志伊坂","koaza":"","lat":32.937165,"lng":130.826668},{"town":"旭志伊萩","koaza":"","lat":32.949578,"lng":130.8549},{"town":"旭志尾足","koaza":"","lat":32.923028,"lng":130.857497},{"town":"旭志小原","koaza":"","lat":32.939799,"lng":130.86086},{"town":"旭志川辺","koaza":"","lat":32.919634,"lng":130.832064},{"town":"旭志新明","koaza":"","lat":32.943528,"lng":130.841111},{"town":"旭志麓","koaza":"","lat":32.9459,"lng":130.90013},{"town":"旭志弁利","koaza":"","lat":32.966177,"lng":130.892571},{"town":"玉祥寺","koaza":"","lat":32.989583,"lng":130.806522},{"town":"袈裟尾","koaza":"","lat":32.988374,"lng":130.79844},{"town":"木庭","koaza":"","lat":32.986035,"lng":130.836663},{"town":"重味","koaza":"","lat":33.020678,"lng":130.862489},{"town":"泗水町亀尾","koaza":"","lat":32.944513,"lng":130.770385},{"town":"泗水町住吉","koaza":"","lat":32.927328,"lng":130.817957},{"town":"泗水町田島","koaza":"","lat":32.939833,"lng":130.742698},{"town":"泗水町富納","koaza":"","lat":32.933395,"lng":130.801831},{"town":"泗水町豊水","koaza":"","lat":32.934427,"lng":130.761481},{"town":"泗水町永","koaza":"","lat":32.920932,"lng":130.803466},{"town":"泗水町福本","koaza":"","lat":32.918419,"lng":130.783426},{"town":"泗水町南田島","koaza":"","lat":32.927295,"lng":130.740955},{"town":"泗水町吉富","koaza":"","lat":32.934358,"lng":130.784025},{"town":"七城町荒牧","koaza":"","lat":32.979293,"lng":130.761146},{"town":"七城町台","koaza":"","lat":32.983125,"lng":130.756338},{"town":"七城町岡田","koaza":"","lat":32.982558,"lng":130.773509},{"town":"七城町小野崎","koaza":"","lat":32.959674,"lng":130.733119},{"town":"七城町加恵","koaza":"","lat":32.971484,"lng":130.745793},{"town":"七城町亀尾","koaza":"","lat":32.953881,"lng":130.761415},{"town":"七城町清水","koaza":"","lat":32.959223,"lng":130.770605},{"town":"七城町甲佐町","koaza":"","lat":32.967573,"lng":130.766102},{"town":"七城町菰入","koaza":"","lat":32.963358,"lng":130.7599},{"town":"七城町新古閑","koaza":"","lat":32.96148,"lng":130.775978},{"town":"七城町砂田","koaza":"","lat":32.97316,"lng":130.765605},{"town":"七城町瀬戸口","koaza":"","lat":32.991413,"lng":130.776738},{"town":"七城町蘇崎","koaza":"","lat":32.955824,"lng":130.739421},{"town":"七城町高島","koaza":"","lat":32.968625,"lng":130.742928},{"town":"七城町高田","koaza":"","lat":32.976355,"lng":130.750778},{"town":"七城町流川","koaza":"","lat":32.982634,"lng":130.768457},{"town":"七城町橋田","koaza":"","lat":32.968061,"lng":130.7351},{"town":"七城町林原","koaza":"","lat":32.954309,"lng":130.747152},{"town":"七城町辺田","koaza":"","lat":32.984108,"lng":130.763226},{"town":"七城町水次","koaza":"","lat":32.982501,"lng":130.781141},{"town":"七城町山崎","koaza":"","lat":32.985164,"lng":130.789446},{"town":"四町分","koaza":"","lat":32.986409,"lng":130.878401},{"town":"下河原","koaza":"","lat":32.970361,"lng":130.848499},{"town":"大琳寺","koaza":"","lat":32.974269,"lng":130.803322},{"town":"大琳寺","koaza":"下原","lat":32.971341,"lng":130.800375},{"town":"大琳寺","koaza":"東善寺","lat":32.974921,"lng":130.805238},{"town":"豊間","koaza":"","lat":33.002512,"lng":130.82583},{"town":"長田","koaza":"","lat":32.959708,"lng":130.788311},{"town":"西寺","koaza":"","lat":32.969011,"lng":130.787002},{"town":"西迫間","koaza":"","lat":33.001393,"lng":130.811428},{"town":"野間口","koaza":"","lat":32.978011,"lng":130.791826},{"town":"原","koaza":"","lat":33.012995,"lng":130.924257},{"town":"班蛇口","koaza":"","lat":33.067843,"lng":130.868359},{"town":"稗方","koaza":"","lat":33.004711,"lng":130.80176},{"town":"広瀬","koaza":"","lat":32.950038,"lng":130.790023},{"town":"深川","koaza":"","lat":32.967734,"lng":130.804314},{"town":"藤田","koaza":"","lat":32.975048,"lng":130.832297},{"town":"村田","koaza":"","lat":32.959718,"lng":130.797397},{"town":"森北","koaza":"","lat":32.951472,"lng":130.823661},{"town":"雪野","koaza":"","lat":33.014462,"lng":130.837303},{"town":"龍門","koaza":"","lat":33.045463,"lng":130.836517},{"town":"隈府","koaza":"","lat":32.984623,"lng":130.812684},{"town":"隈府","koaza":"下堀","lat":32.975893,"lng":130.811822},{"town":"亘","koaza":"","lat":32.984395,"lng":130.822721}]