[{"town":"大字赤井","lat":"32.768995","lng":"130.826655"},{"town":"大字小池","lat":"32.750495","lng":"130.807013"},{"town":"大字小谷","lat":"32.820608","lng":"130.856199"},{"town":"大字上陳","lat":"32.802857","lng":"130.862148"},{"town":"大字木山","lat":"32.797025","lng":"130.817907"},{"town":"大字古閑","lat":"32.793408","lng":"130.789626"},{"town":"大字寺中","lat":"32.808424","lng":"130.836187"},{"town":"大字島田","lat":"32.760840","lng":"130.789058"},{"town":"大字下陳","lat":"32.792052","lng":"130.867649"},{"town":"大字杉堂","lat":"32.823187","lng":"130.872053"},{"town":"大字惣領","lat":"32.786758","lng":"130.799427"},{"town":"大字田原","lat":"32.811724","lng":"130.844306"},{"town":"大字辻の城","lat":"32.795009","lng":"130.821203"},{"town":"大字寺迫","lat":"32.800939","lng":"130.826108"},{"town":"大字砥川","lat":"32.758623","lng":"130.822113"},{"town":"大字平田","lat":"32.806591","lng":"130.829865"},{"town":"大字広崎","lat":"32.784811","lng":"130.786676"},{"town":"大字福富","lat":"32.784813","lng":"130.795968"},{"town":"大字福原","lat":"32.777680","lng":"130.858034"},{"town":"大字馬水","lat":"32.786090","lng":"130.806496"},{"town":"大字宮園","lat":"32.795547","lng":"130.814255"},{"town":"大字安永","lat":"32.790590","lng":"130.810311"}]