[{"town":"秋田","koaza":"","lat":33.020163,"lng":132.931886},{"town":"赤松町","koaza":"","lat":32.98461,"lng":132.917532},{"town":"麻生","koaza":"","lat":33.028276,"lng":132.940484},{"town":"荒川","koaza":"","lat":32.98711,"lng":132.861848},{"town":"有岡","koaza":"","lat":32.965302,"lng":132.830293},{"town":"伊才原","koaza":"","lat":33.085433,"lng":132.955377},{"town":"井沢","koaza":"","lat":32.977003,"lng":132.968888},{"town":"磯ノ川","koaza":"","lat":32.975424,"lng":132.843511},{"town":"板ノ川","koaza":"","lat":33.040315,"lng":132.8792},{"town":"岩田","koaza":"","lat":33.0118,"lng":132.91024},{"town":"鵜ノ江","koaza":"","lat":33.04805,"lng":132.818823},{"town":"右山","koaza":"","lat":32.980676,"lng":132.945829},{"town":"右山五月町","koaza":"","lat":32.987265,"lng":132.941214},{"town":"右山天神町","koaza":"","lat":32.985271,"lng":132.941591},{"town":"右山元町一丁目","koaza":"","lat":32.986222,"lng":132.938509},{"town":"右山元町二丁目","koaza":"","lat":32.983398,"lng":132.938954},{"town":"右山元町三丁目","koaza":"","lat":32.982302,"lng":132.941008},{"town":"駅前町","koaza":"","lat":32.984141,"lng":132.943927},{"town":"江ノ村","koaza":"","lat":32.958745,"lng":132.864797},{"town":"生ノ川","koaza":"","lat":32.977331,"lng":132.85298},{"town":"大西ノ川","koaza":"","lat":33.11584,"lng":132.937099},{"town":"大屋敷","koaza":"","lat":33.120637,"lng":133.001116},{"town":"大用","koaza":"","lat":33.098806,"lng":132.974504},{"town":"奥鴨川","koaza":"","lat":33.08071,"lng":132.868159},{"town":"片魚","koaza":"","lat":33.132774,"lng":132.985712},{"town":"勝間","koaza":"","lat":33.055731,"lng":132.782025},{"town":"上ノ土居","koaza":"","lat":32.951367,"lng":132.845888},{"town":"川登","koaza":"","lat":33.033588,"lng":132.863186},{"town":"九樹","koaza":"","lat":32.950471,"lng":132.83303},{"town":"楠","koaza":"","lat":33.041694,"lng":132.826223},{"town":"楠島","koaza":"","lat":32.983578,"lng":132.888863},{"town":"口鴨川","koaza":"","lat":33.04022,"lng":132.901908},{"town":"具同","koaza":"","lat":32.982688,"lng":132.908327},{"town":"具同田黒一丁目","koaza":"","lat":32.98885,"lng":132.919169},{"town":"具同田黒二丁目","koaza":"","lat":32.985698,"lng":132.920732},{"town":"具同田黒三丁目","koaza":"","lat":32.984683,"lng":132.919323},{"town":"国見","koaza":"","lat":32.985521,"lng":132.875226},{"town":"久保川","koaza":"","lat":33.076158,"lng":132.826563},{"town":"古津賀","koaza":"","lat":32.992085,"lng":132.963538},{"town":"古津賀一丁目","koaza":"","lat":32.985281,"lng":132.954917},{"town":"古津賀二丁目","koaza":"","lat":32.988159,"lng":132.957548},{"town":"古津賀三丁目","koaza":"","lat":32.984013,"lng":132.958536},{"town":"古津賀四丁目","koaza":"","lat":32.98288,"lng":132.953065},{"town":"小西ノ川","koaza":"","lat":33.107117,"lng":132.950311},{"town":"古尾","koaza":"","lat":33.107805,"lng":132.911911},{"town":"佐岡","koaza":"","lat":32.991833,"lng":132.94549},{"town":"坂本","koaza":"","lat":32.957227,"lng":132.927868},{"town":"佐田","koaza":"","lat":33.010724,"lng":132.891017},{"town":"実崎","koaza":"","lat":32.955966,"lng":132.969671},{"town":"敷地","koaza":"","lat":33.014536,"lng":132.923032},{"town":"下田","koaza":"","lat":32.944261,"lng":132.989734},{"town":"住次郎","koaza":"","lat":33.127637,"lng":132.96115},{"town":"常六","koaza":"","lat":33.131315,"lng":133.014398},{"town":"高瀬","koaza":"","lat":33.032373,"lng":132.82344},{"town":"竹島","koaza":"","lat":32.971992,"lng":132.982332},{"town":"竹屋敷","koaza":"","lat":33.124145,"lng":132.879429},{"town":"田出ノ川","koaza":"","lat":33.0541,"lng":132.850822},{"town":"田野川","koaza":"","lat":33.047655,"lng":132.915935},{"town":"手洗川","koaza":"","lat":33.015992,"lng":132.838222},{"town":"津蔵渕","koaza":"","lat":32.923908,"lng":132.95404},{"town":"角崎","koaza":"","lat":32.975089,"lng":132.954428},{"town":"利岡","koaza":"","lat":33.02093,"lng":132.903234},{"town":"中村","koaza":"","lat":33.000077,"lng":132.924747},{"town":"中村愛宕町","koaza":"","lat":32.994013,"lng":132.933227},{"town":"中村一条通一丁目","koaza":"","lat":32.992386,"lng":132.934785},{"town":"中村一条通二丁目","koaza":"","lat":32.992314,"lng":132.936176},{"town":"中村一条通三丁目","koaza":"","lat":32.992097,"lng":132.937333},{"town":"中村一条通四丁目","koaza":"","lat":32.991959,"lng":132.938534},{"town":"中村一条通五丁目","koaza":"","lat":32.991543,"lng":132.940636},{"town":"中村岩崎町","koaza":"","lat":32.987,"lng":132.930388},{"town":"中村大橋通一丁目","koaza":"","lat":32.989706,"lng":132.928187},{"town":"中村大橋通二丁目","koaza":"","lat":32.991145,"lng":132.930928},{"town":"中村大橋通三丁目","koaza":"","lat":32.990965,"lng":132.932821},{"town":"中村大橋通四丁目","koaza":"","lat":32.990554,"lng":132.934387},{"town":"中村大橋通五丁目","koaza":"","lat":32.99094,"lng":132.936006},{"town":"中村大橋通六丁目","koaza":"","lat":32.989742,"lng":132.93712},{"town":"中村大橋通七丁目","koaza":"","lat":32.989507,"lng":132.940564},{"town":"中村於東町","koaza":"","lat":32.993817,"lng":132.93641},{"town":"中村上小姓町","koaza":"","lat":32.994954,"lng":132.931131},{"town":"中村京町一丁目","koaza":"","lat":32.9936,"lng":132.934673},{"town":"中村京町二丁目","koaza":"","lat":32.994562,"lng":132.934959},{"town":"中村京町三丁目","koaza":"","lat":32.995593,"lng":132.934987},{"town":"中村京町四丁目","koaza":"","lat":32.996846,"lng":132.935051},{"town":"中村京町五丁目","koaza":"","lat":32.998244,"lng":132.93517},{"town":"中村小姓町","koaza":"","lat":32.994007,"lng":132.932361},{"town":"中村栄町","koaza":"","lat":32.99176,"lng":132.932968},{"town":"中村桜町","koaza":"","lat":32.997208,"lng":132.933331},{"town":"中村四万十町","koaza":"","lat":32.988183,"lng":132.929428},{"town":"中村新町一丁目","koaza":"","lat":32.993539,"lng":132.935581},{"town":"中村新町二丁目","koaza":"","lat":32.994521,"lng":132.935787},{"town":"中村新町三丁目","koaza":"","lat":32.995424,"lng":132.936072},{"town":"中村新町四丁目","koaza":"","lat":32.99683,"lng":132.936032},{"town":"中村新町五丁目","koaza":"","lat":32.998276,"lng":132.936164},{"town":"中村天神橋","koaza":"","lat":32.992512,"lng":132.933378},{"town":"中村百笑町","koaza":"","lat":32.992905,"lng":132.926514},{"town":"中村羽生小路","koaza":"","lat":32.989535,"lng":132.933387},{"town":"中村東下町","koaza":"","lat":32.99195,"lng":132.932082},{"town":"中村東町一丁目","koaza":"","lat":32.993932,"lng":132.939348},{"town":"中村東町二丁目","koaza":"","lat":32.995638,"lng":132.939221},{"town":"中村東町三丁目","koaza":"","lat":32.997559,"lng":132.938988},{"town":"中村本町一丁目","koaza":"","lat":32.993535,"lng":132.933902},{"town":"中村本町二丁目","koaza":"","lat":32.994589,"lng":132.934106},{"town":"中村本町三丁目","koaza":"","lat":32.995621,"lng":132.93414},{"town":"中村本町四丁目","koaza":"","lat":32.996887,"lng":132.934191},{"town":"中村本町五丁目","koaza":"","lat":32.99819,"lng":132.934296},{"town":"中村丸の内","koaza":"","lat":32.997886,"lng":132.931918},{"town":"中村山手通","koaza":"","lat":32.992529,"lng":132.930827},{"town":"中村弥生町","koaza":"","lat":32.989749,"lng":132.931526},{"town":"名鹿","koaza":"","lat":32.923398,"lng":132.991023},{"town":"鍋島","koaza":"","lat":32.959804,"lng":132.981313},{"town":"西土佐岩間","koaza":"","lat":33.135021,"lng":132.818282},{"town":"西土佐江川","koaza":"","lat":33.231992,"lng":132.79115},{"town":"西土佐江川崎","koaza":"","lat":33.178206,"lng":132.769873},{"town":"西土佐大宮","koaza":"","lat":33.13465,"lng":132.727911},{"town":"西土佐奥屋内","koaza":"","lat":33.106535,"lng":132.703292},{"town":"西土佐茅生","koaza":"","lat":33.123619,"lng":132.809323},{"town":"西土佐玖木","koaza":"","lat":33.092103,"lng":132.756143},{"town":"西土佐口屋内","koaza":"","lat":33.090074,"lng":132.795312},{"town":"西土佐黒尊","koaza":"","lat":33.148192,"lng":132.653973},{"town":"西土佐下家地","koaza":"","lat":33.164286,"lng":132.73968},{"town":"西土佐須崎","koaza":"","lat":33.149608,"lng":132.746407},{"town":"西土佐橘","koaza":"","lat":33.155379,"lng":132.791513},{"town":"西土佐津賀","koaza":"","lat":33.126619,"lng":132.77147},{"town":"西土佐津野川","koaza":"","lat":33.136517,"lng":132.789999},{"town":"西土佐中家地","koaza":"","lat":33.179757,"lng":132.740473},{"town":"西土佐長生","koaza":"","lat":33.190355,"lng":132.807024},{"town":"西土佐中半","koaza":"","lat":33.113041,"lng":132.832394},{"town":"西土佐西ケ方","koaza":"","lat":33.192788,"lng":132.752171},{"town":"西土佐半家","koaza":"","lat":33.215295,"lng":132.810842},{"town":"西土佐藤ノ川","koaza":"","lat":33.163928,"lng":132.848265},{"town":"西土佐用井","koaza":"","lat":33.168884,"lng":132.805149},{"town":"西土佐薮ケ市","koaza":"","lat":33.141084,"lng":132.761813},{"town":"入田","koaza":"","lat":32.998147,"lng":132.907341},{"town":"初崎","koaza":"","lat":32.927315,"lng":132.979996},{"town":"平野","koaza":"","lat":32.954406,"lng":132.990332},{"town":"深木","koaza":"","lat":32.945172,"lng":132.945605},{"town":"藤","koaza":"","lat":33.031928,"lng":132.952495},{"town":"双海","koaza":"","lat":32.970464,"lng":132.994084},{"town":"不破","koaza":"","lat":32.979631,"lng":132.937137},{"town":"不破上町","koaza":"","lat":32.985766,"lng":132.935748},{"town":"間崎","koaza":"","lat":32.943291,"lng":132.97256},{"town":"三里","koaza":"","lat":33.009292,"lng":132.864657},{"town":"三ツ又","koaza":"","lat":33.124752,"lng":133.037394},{"town":"森沢","koaza":"","lat":32.958012,"lng":132.897811},{"town":"安並","koaza":"","lat":33.012078,"lng":132.942901},{"town":"山路","koaza":"","lat":32.961108,"lng":132.954092},{"town":"横瀬","koaza":"","lat":32.990915,"lng":132.832319},{"town":"若藤","koaza":"","lat":33.027726,"lng":132.897528},{"town":"渡川一丁目","koaza":"","lat":32.989729,"lng":132.922319},{"town":"渡川二丁目","koaza":"","lat":32.986142,"lng":132.922418},{"town":"渡川三丁目","koaza":"","lat":32.986533,"lng":132.92457},{"town":"蕨岡","koaza":"","lat":33.053158,"lng":132.947993},{"town":"具同","koaza":"北ミソデン","lat":32.978132,"lng":132.915823},{"town":"古津賀","koaza":"大場","lat":32.980651,"lng":132.953036}]