[{"town":"壱斗俵","koaza":"","lat":33.294442,"lng":133.112547},{"town":"大道","koaza":"","lat":33.279239,"lng":132.892906},{"town":"天ノ川","koaza":"","lat":33.184302,"lng":133.090205},{"town":"檜生原","koaza":"","lat":33.238108,"lng":133.061631},{"town":"魚ノ川","koaza":"","lat":33.2808,"lng":133.155996},{"town":"相去","koaza":"","lat":33.220902,"lng":133.046774},{"town":"秋丸","koaza":"","lat":33.18647,"lng":133.070902},{"town":"家地川","koaza":"","lat":33.158098,"lng":133.080869},{"town":"井崎","koaza":"","lat":33.200127,"lng":132.855196},{"town":"市生原","koaza":"","lat":33.274781,"lng":133.117776},{"town":"市ノ又","koaza":"","lat":33.199265,"lng":133.039623},{"town":"打井川","koaza":"","lat":33.150786,"lng":133.033799},{"town":"浦越","koaza":"","lat":33.205072,"lng":132.947609},{"town":"江師","koaza":"","lat":33.213201,"lng":132.963201},{"town":"大井川","koaza":"","lat":33.207974,"lng":132.884781},{"town":"大井野","koaza":"","lat":33.206323,"lng":133.119803},{"town":"大鶴津","koaza":"","lat":33.197892,"lng":133.219445},{"town":"大向","koaza":"","lat":33.184207,"lng":133.098253},{"town":"興津","koaza":"","lat":33.164538,"lng":133.179012},{"town":"奥呉地","koaza":"","lat":33.295405,"lng":133.156131},{"town":"奥神ノ川","koaza":"","lat":33.263966,"lng":133.076721},{"town":"小野","koaza":"","lat":33.230246,"lng":132.865577},{"town":"親ケ内","koaza":"","lat":33.215267,"lng":133.183778},{"town":"折合","koaza":"","lat":33.26513,"lng":133.047031},{"town":"替坂本","koaza":"","lat":33.268141,"lng":133.176654},{"town":"香月が丘","koaza":"","lat":33.215661,"lng":133.128763},{"town":"影野","koaza":"","lat":33.284505,"lng":133.17897},{"town":"数神","koaza":"","lat":33.229724,"lng":133.177209},{"town":"上秋丸","koaza":"","lat":33.307117,"lng":133.109501},{"town":"上岡","koaza":"","lat":33.184812,"lng":133.017784},{"town":"茅吹手","koaza":"","lat":33.214047,"lng":132.928236},{"town":"烏手","koaza":"","lat":33.195764,"lng":133.058748},{"town":"河内","koaza":"","lat":33.218224,"lng":132.865607},{"town":"川ノ内","koaza":"","lat":33.292334,"lng":133.142251},{"town":"北琴平町","koaza":"","lat":33.215164,"lng":133.134704},{"town":"希ノ川","koaza":"","lat":33.173073,"lng":132.991538},{"town":"金上野","koaza":"","lat":33.191734,"lng":133.144042},{"town":"口神ノ川","koaza":"","lat":33.201305,"lng":133.10556},{"town":"久保川","koaza":"","lat":33.244695,"lng":132.888678},{"town":"窪川","koaza":"","lat":33.205801,"lng":133.133679},{"town":"窪川中津川","koaza":"","lat":33.29633,"lng":133.089399},{"town":"黒石","koaza":"","lat":33.219647,"lng":133.199318},{"town":"小石","koaza":"","lat":33.20623,"lng":132.979539},{"town":"神ノ西","koaza":"","lat":33.213082,"lng":133.122161},{"town":"古城","koaza":"","lat":33.260891,"lng":132.828419},{"town":"小鶴津","koaza":"","lat":33.216877,"lng":133.235139},{"town":"琴平町","koaza":"","lat":33.212498,"lng":133.135195},{"town":"小向","koaza":"","lat":33.235804,"lng":133.162576},{"town":"木屋ケ内","koaza":"","lat":33.243497,"lng":132.979241},{"town":"根元原","koaza":"","lat":33.220887,"lng":133.142517},{"town":"西原","koaza":"","lat":33.193867,"lng":133.126757},{"town":"榊山町","koaza":"","lat":33.213147,"lng":133.139038},{"town":"作屋","koaza":"","lat":33.264621,"lng":133.109096},{"town":"里川","koaza":"","lat":33.185783,"lng":132.94258},{"town":"茂串町","koaza":"","lat":33.208174,"lng":133.133254},{"town":"仕出原","koaza":"","lat":33.223807,"lng":133.118257},{"town":"下岡","koaza":"","lat":33.189409,"lng":133.003864},{"town":"下呉地","koaza":"","lat":33.268787,"lng":133.165051},{"town":"下津井","koaza":"","lat":33.294436,"lng":132.936121},{"town":"下道","koaza":"","lat":33.265718,"lng":132.946461},{"town":"勝賀野","koaza":"","lat":33.274174,"lng":133.143828},{"town":"昭和","koaza":"","lat":33.21651,"lng":132.905971},{"town":"志和","koaza":"","lat":33.224376,"lng":133.234228},{"town":"志和峰","koaza":"","lat":33.229334,"lng":133.218954},{"town":"新開町","koaza":"","lat":33.209251,"lng":133.129535},{"town":"上宮","koaza":"","lat":33.17653,"lng":133.049738},{"town":"地吉","koaza":"","lat":33.256846,"lng":132.804567},{"town":"瀬里","koaza":"","lat":33.187652,"lng":132.987071},{"town":"大正","koaza":"","lat":33.174579,"lng":132.960289},{"town":"大正大奈路","koaza":"","lat":33.232176,"lng":132.989825},{"town":"大正北ノ川","koaza":"","lat":33.185239,"lng":133.034281},{"town":"大正中津川","koaza":"","lat":33.277737,"lng":132.999161},{"town":"高野","koaza":"","lat":33.173277,"lng":133.106142},{"town":"津賀","koaza":"","lat":33.225245,"lng":132.932155},{"town":"寺野","koaza":"","lat":33.220923,"lng":133.076053},{"town":"十川","koaza":"","lat":33.258318,"lng":132.865551},{"town":"十和川口","koaza":"","lat":33.229452,"lng":132.835868},{"town":"戸川","koaza":"","lat":33.26429,"lng":132.850111},{"town":"床鍋","koaza":"","lat":33.302949,"lng":133.175121},{"town":"富岡","koaza":"","lat":33.225995,"lng":133.16058},{"town":"土居","koaza":"","lat":33.240064,"lng":133.198046},{"town":"道徳","koaza":"","lat":33.276104,"lng":133.189558},{"town":"中神ノ川","koaza":"","lat":33.228409,"lng":133.098201},{"town":"中ノ越","koaza":"","lat":33.232349,"lng":133.158556},{"town":"中村","koaza":"","lat":33.271886,"lng":133.131244},{"town":"七里","koaza":"","lat":33.256801,"lng":133.134137},{"town":"奈路","koaza":"","lat":33.23567,"lng":133.185645},{"town":"仁井田","koaza":"","lat":33.245124,"lng":133.165121},{"town":"西川角","koaza":"","lat":33.245569,"lng":133.131808},{"town":"西ノ川","koaza":"","lat":33.230375,"lng":132.97101},{"town":"根々崎","koaza":"","lat":33.224857,"lng":133.134128},{"town":"野地","koaza":"","lat":33.177756,"lng":133.072719},{"town":"野々川","koaza":"","lat":33.190162,"lng":132.905255},{"town":"八千数","koaza":"","lat":33.209195,"lng":133.177557},{"town":"飯ノ川","koaza":"","lat":33.239166,"lng":133.21296},{"town":"東大奈路","koaza":"","lat":33.227839,"lng":133.145287},{"town":"東川角","koaza":"","lat":33.237944,"lng":133.133724},{"town":"東北ノ川","koaza":"","lat":33.287694,"lng":133.125552},{"town":"東町","koaza":"","lat":33.209526,"lng":133.13734},{"town":"日野地","koaza":"","lat":33.319065,"lng":133.059388},{"town":"平串","koaza":"","lat":33.227772,"lng":133.152965},{"town":"平野","koaza":"","lat":33.250878,"lng":133.188605},{"town":"広瀬","koaza":"","lat":33.20413,"lng":132.83176},{"town":"弘瀬","koaza":"","lat":33.165912,"lng":133.059043},{"town":"弘見","koaza":"","lat":33.233325,"lng":133.200099},{"town":"藤ノ川","koaza":"","lat":33.217097,"lng":133.169169},{"town":"古市町","koaza":"","lat":33.207747,"lng":133.141447},{"town":"本堂","koaza":"","lat":33.217999,"lng":133.191219},{"town":"本町","koaza":"","lat":33.21025,"lng":133.13354},{"town":"見付","koaza":"","lat":33.201648,"lng":133.162503},{"town":"南川口","koaza":"","lat":33.201657,"lng":133.08519},{"town":"峰ノ上","koaza":"","lat":33.173053,"lng":133.139499},{"town":"宮内","koaza":"","lat":33.237342,"lng":133.11084},{"town":"向川","koaza":"","lat":33.22469,"lng":133.165446},{"town":"芳川","koaza":"","lat":33.225479,"lng":133.014706},{"town":"与津地","koaza":"","lat":33.198643,"lng":133.192061},{"town":"米奥","koaza":"","lat":33.276838,"lng":133.092093},{"town":"六反地","koaza":"","lat":33.257631,"lng":133.167218},{"town":"若井","koaza":"","lat":33.183291,"lng":133.105048},{"town":"若井川","koaza":"","lat":33.17349,"lng":133.123416}]