[{"town":"樺ノ川","koaza":"","lat":33.450002,"lng":133.231841},{"town":"赤木","koaza":"","lat":33.458037,"lng":133.182465},{"town":"大野","koaza":"","lat":33.444887,"lng":133.165526},{"town":"貝ノ川","koaza":"","lat":33.46123,"lng":133.199738},{"town":"貝ノ川床鍋","koaza":"","lat":33.409089,"lng":133.188029},{"town":"烏出川","koaza":"","lat":33.40812,"lng":133.072534},{"town":"北川","koaza":"","lat":33.383002,"lng":133.019683},{"town":"久保川","koaza":"","lat":33.455934,"lng":133.213749},{"town":"黒川","koaza":"","lat":33.452228,"lng":133.155625},{"town":"桑ケ市","koaza":"","lat":33.395256,"lng":133.086169},{"town":"白石","koaza":"","lat":33.438063,"lng":133.123722},{"town":"新土居","koaza":"","lat":33.437189,"lng":133.239653},{"town":"杉ノ川","koaza":"","lat":33.439608,"lng":133.152678},{"town":"力石","koaza":"","lat":33.408224,"lng":133.048006},{"town":"永野","koaza":"","lat":33.443047,"lng":133.200008},{"town":"西谷","koaza":"","lat":33.428399,"lng":133.197457},{"town":"姫野々","koaza":"","lat":33.438374,"lng":133.214995},{"town":"船戸","koaza":"","lat":33.431168,"lng":133.086067},{"town":"三間川","koaza":"","lat":33.448389,"lng":133.243361},{"town":"芳生野","koaza":"","lat":33.43607,"lng":133.023981}]