[{"town":"新シ町","lat":"34.997770","lng":"135.775867"},{"town":"粟田口粟田山北町","lat":"35.007407","lng":"135.786158"},{"town":"粟田口粟田山南町","lat":"35.002737","lng":"135.786308"},{"town":"粟田口鍛冶町","lat":"35.008698","lng":"135.785894"},{"town":"粟田口華頂町","lat":"35.008075","lng":"135.788640"},{"town":"粟田口花頂山町","lat":"35.005279","lng":"135.786043"},{"town":"粟田口高台寺山町","lat":"34.998417","lng":"135.788537"},{"town":"粟田口三条坊町","lat":"35.007755","lng":"135.783249"},{"town":"粟田口長楽寺山町","lat":"35.001935","lng":"135.784820"},{"town":"粟田口東大谷山町","lat":"35.000352","lng":"135.784992"},{"town":"池殿町","lat":"34.996263","lng":"135.772538"},{"town":"石垣町西側","lat":"34.994697","lng":"135.771522"},{"town":"石垣町東側","lat":"34.994529","lng":"135.772019"},{"town":"石橋町","lat":"35.006860","lng":"135.777796"},{"town":"一橋野本町","lat":"34.984749","lng":"135.768907"},{"town":"一橋宮ノ内町","lat":"34.987811","lng":"135.768314"},{"town":"井手町","lat":"35.002360","lng":"135.772174"},{"town":"稲荷町北組","lat":"35.007493","lng":"135.778459"},{"town":"稲荷町南組","lat":"35.007362","lng":"135.778170"},{"town":"今熊野阿弥陀ケ峯町","lat":"34.987867","lng":"135.784051"},{"town":"今熊野池田町","lat":"34.984562","lng":"135.772124"},{"town":"今熊野梅ケ谷町","lat":"34.980902","lng":"135.787356"},{"town":"今熊野北日吉町","lat":"34.989770","lng":"135.779178"},{"town":"今熊野小松山町","lat":"34.984193","lng":"135.785950"},{"town":"今熊野泉山町","lat":"34.977507","lng":"135.784912"},{"town":"今熊野総山町","lat":"34.983029","lng":"135.786696"},{"town":"今熊野剣宮町","lat":"34.982797","lng":"135.776830"},{"town":"今熊野椥ノ森町","lat":"34.983701","lng":"135.774401"},{"town":"今熊野東山町","lat":"34.988192","lng":"135.787424"},{"town":"今熊野悲田院山町","lat":"34.978058","lng":"135.777137"},{"town":"今熊野日吉町","lat":"34.987060","lng":"135.779606"},{"town":"今熊野宝蔵町","lat":"34.985006","lng":"135.776509"},{"town":"今熊野本多山町","lat":"34.975518","lng":"135.781058"},{"town":"今熊野南谷町","lat":"34.975647","lng":"135.778601"},{"town":"今熊野南日吉町","lat":"34.984185","lng":"135.780395"},{"town":"今小路町","lat":"35.009270","lng":"135.780009"},{"town":"今道町","lat":"35.009505","lng":"135.787225"},{"town":"上田町","lat":"34.998676","lng":"135.777811"},{"town":"梅宮町","lat":"35.007882","lng":"135.779867"},{"town":"梅本町","lat":"35.006149","lng":"135.776913"},{"town":"夷町","lat":"35.009348","lng":"135.783445"},{"town":"蛭子町北組","lat":"34.993148","lng":"135.770592"},{"town":"蛭子町南組","lat":"34.992367","lng":"135.770440"},{"town":"大井手町","lat":"35.009540","lng":"135.780212"},{"town":"大阪町","lat":"34.994308","lng":"135.769158"},{"town":"大橋町","lat":"35.009159","lng":"135.772917"},{"town":"音羽町","lat":"34.995905","lng":"135.771122"},{"town":"鍵屋町","lat":"34.992245","lng":"135.767937"},{"town":"門脇町","lat":"34.996028","lng":"135.773344"},{"town":"金屋町","lat":"34.996104","lng":"135.770426"},{"town":"鐘鋳町","lat":"34.993121","lng":"135.774450"},{"town":"上新シ町","lat":"34.993505","lng":"135.773548"},{"town":"上池田町","lat":"34.986172","lng":"135.771177"},{"town":"上馬町","lat":"34.991384","lng":"135.779210"},{"town":"上梅屋町","lat":"34.992847","lng":"135.773229"},{"town":"上棟梁町","lat":"34.993467","lng":"135.771463"},{"town":"上弁天町","lat":"35.000299","lng":"135.778460"},{"town":"上堀詰町","lat":"34.991127","lng":"135.768152"},{"town":"上柳町","lat":"35.001065","lng":"135.771708"},{"town":"亀井町","lat":"35.002264","lng":"135.772772"},{"town":"唐戸鼻町","lat":"35.007843","lng":"135.778909"},{"town":"川端町","lat":"35.003976","lng":"135.771973"},{"town":"瓦役町","lat":"34.992272","lng":"135.778741"},{"town":"祇園町北側","lat":"35.004192","lng":"135.777738"},{"town":"祇園町南側","lat":"35.002337","lng":"135.775788"},{"town":"北木之元町","lat":"35.008647","lng":"135.777867"},{"town":"北御門町","lat":"34.997979","lng":"135.771480"},{"town":"北棟梁町","lat":"34.994108","lng":"135.770799"},{"town":"清井町","lat":"35.002020","lng":"135.778081"},{"town":"教業町","lat":"35.008584","lng":"135.775775"},{"town":"清水一丁目","lat":"34.994871","lng":"135.783514"},{"town":"清水二丁目","lat":"34.996539","lng":"135.780087"},{"town":"清水三丁目","lat":"34.997236","lng":"135.781397"},{"town":"清水四丁目","lat":"34.996514","lng":"135.778059"},{"town":"清水五丁目","lat":"34.997132","lng":"135.776469"},{"town":"清本町","lat":"35.005045","lng":"135.774997"},{"town":"金園町","lat":"34.998679","lng":"135.778752"},{"town":"興善町","lat":"34.996813","lng":"135.775867"},{"town":"五軒町","lat":"35.009185","lng":"135.781273"},{"town":"小島町","lat":"34.996142","lng":"135.776122"},{"town":"五条橋東二丁目","lat":"34.995383","lng":"135.771051"},{"town":"五条橋東三丁目","lat":"34.995197","lng":"135.772374"},{"town":"五条橋東四丁目","lat":"34.995064","lng":"135.773581"},{"town":"五条橋東五丁目","lat":"34.994868","lng":"135.774614"},{"town":"五条橋東六丁目","lat":"34.994196","lng":"135.778167"},{"town":"小松町","lat":"35.000649","lng":"135.774012"},{"town":"西海子町","lat":"35.009525","lng":"135.778219"},{"town":"鞘町一丁目","lat":"34.995204","lng":"135.769292"},{"town":"三十三間堂廻り","lat":"34.987992","lng":"135.772773"},{"town":"三町目","lat":"35.009371","lng":"135.775798"},{"town":"七軒町","lat":"35.009524","lng":"135.776990"},{"town":"慈法院庵町","lat":"34.993500","lng":"135.775417"},{"town":"下新シ町","lat":"34.993872","lng":"135.772326"},{"town":"下池田町","lat":"34.983591","lng":"135.770836"},{"town":"下馬町","lat":"34.992102","lng":"135.777103"},{"town":"下梅屋町","lat":"34.993327","lng":"135.772431"},{"town":"下河原町","lat":"35.000619","lng":"135.780694"},{"town":"下棟梁町","lat":"34.992458","lng":"135.771241"},{"town":"下弁天町","lat":"34.999363","lng":"135.777539"},{"town":"下堀詰町","lat":"34.989936","lng":"135.768142"},{"town":"下柳町","lat":"34.999760","lng":"135.771408"},{"town":"上人町","lat":"34.994901","lng":"135.768299"},{"town":"定法寺町","lat":"35.010304","lng":"135.783146"},{"town":"正面町","lat":"34.992187","lng":"135.768965"},{"town":"白糸町","lat":"34.994811","lng":"135.777889"},{"town":"新瓦町西組","lat":"34.986709","lng":"135.771481"},{"town":"新瓦町東組","lat":"34.986750","lng":"135.772362"},{"town":"新五軒町","lat":"35.007458","lng":"135.772264"},{"town":"進之町","lat":"35.008048","lng":"135.777731"},{"town":"末吉町","lat":"35.005001","lng":"135.773709"},{"town":"朱雀町","lat":"34.995354","lng":"135.768421"},{"town":"清閑寺池田町","lat":"34.990945","lng":"135.782921"},{"town":"清閑寺歌ノ中山町","lat":"34.991108","lng":"135.788323"},{"town":"清閑寺清水上山町","lat":"34.995603","lng":"135.787520"},{"town":"清閑寺下山町","lat":"34.992598","lng":"135.782284"},{"town":"清閑寺山ノ内町","lat":"34.990293","lng":"135.785573"},{"town":"清閑寺霊山町","lat":"34.998541","lng":"135.783572"},{"town":"石泉院町","lat":"35.009979","lng":"135.780534"},{"town":"泉涌寺五葉ノ辻町","lat":"34.982254","lng":"135.771948"},{"town":"泉涌寺雀ケ森町","lat":"34.981463","lng":"135.773203"},{"town":"泉涌寺東林町","lat":"34.980500","lng":"135.775282"},{"town":"泉涌寺門前町","lat":"34.982764","lng":"135.774036"},{"town":"泉涌寺山内町","lat":"34.979240","lng":"135.779213"},{"town":"大黒町","lat":"35.008260","lng":"135.773192"},{"town":"高畑町","lat":"35.007640","lng":"135.777486"},{"town":"竹村町","lat":"34.995923","lng":"135.775275"},{"town":"辰巳町","lat":"34.987873","lng":"135.770608"},{"town":"巽町","lat":"35.007635","lng":"135.776008"},{"town":"田中町","lat":"34.996293","lng":"135.769736"},{"town":"谷川町","lat":"35.008820","lng":"135.789159"},{"town":"玉水町","lat":"34.998778","lng":"135.777206"},{"town":"多門町","lat":"34.996292","lng":"135.774288"},{"town":"茶屋町","lat":"34.990868","lng":"135.772254"},{"town":"月輪町","lat":"34.997981","lng":"135.777575"},{"town":"月見町","lat":"35.001331","lng":"135.777745"},{"town":"堤町","lat":"35.008482","lng":"135.779716"},{"town":"土居之内町","lat":"35.008925","lng":"135.780099"},{"town":"常盤町","lat":"34.992602","lng":"135.775771"},{"town":"富永町","lat":"35.004361","lng":"135.774282"},{"town":"豊浦町","lat":"34.993196","lng":"135.769039"},{"town":"中之町","lat":"35.009387","lng":"135.784603"},{"town":"長光町","lat":"35.008609","lng":"135.776578"},{"town":"西川原町","lat":"34.997371","lng":"135.770264"},{"town":"西小物座町","lat":"35.009216","lng":"135.789049"},{"town":"西御門町","lat":"34.998072","lng":"135.770551"},{"town":"西橘町","lat":"34.993673","lng":"135.767982"},{"town":"西棟梁町","lat":"34.992575","lng":"135.770972"},{"town":"西之町","lat":"35.006460","lng":"135.773808"},{"town":"西之門町","lat":"34.989002","lng":"135.770603"},{"town":"西町","lat":"35.009381","lng":"135.782298"},{"town":"廿一軒町","lat":"35.004095","lng":"135.772959"},{"town":"二町目","lat":"35.009378","lng":"135.774651"},{"town":"塗師屋町","lat":"34.990661","lng":"135.770357"},{"town":"梅林町","lat":"34.995480","lng":"135.776428"},{"town":"博多町","lat":"35.001152","lng":"135.772295"},{"town":"橋本町","lat":"35.005714","lng":"135.775548"},{"town":"八軒町","lat":"35.008999","lng":"135.779241"},{"town":"東姉小路町","lat":"35.010036","lng":"135.779476"},{"town":"東音羽町","lat":"34.993080","lng":"135.776894"},{"town":"東川原町","lat":"34.997104","lng":"135.770691"},{"town":"東瓦町","lat":"34.987805","lng":"135.775871"},{"town":"東小物座町","lat":"35.008014","lng":"135.790443"},{"town":"東橘町","lat":"34.993658","lng":"135.768658"},{"town":"東町","lat":"35.009384","lng":"135.785868"},{"town":"東橋詰町","lat":"34.995685","lng":"135.769556"},{"town":"東分木町","lat":"35.009369","lng":"135.788008"},{"town":"毘沙門町","lat":"35.000410","lng":"135.776710"},{"town":"日吉町","lat":"34.988834","lng":"135.767981"},{"town":"福稲柿本町","lat":"34.978825","lng":"135.768466"},{"town":"福稲上高松町","lat":"34.975159","lng":"135.769197"},{"town":"福稲川原町","lat":"34.973649","lng":"135.766004"},{"town":"福稲岸ノ上町","lat":"34.981662","lng":"135.769146"},{"town":"福稲御所ノ内町","lat":"34.978522","lng":"135.769647"},{"town":"福稲下高松町","lat":"34.973570","lng":"135.768490"},{"town":"福稲高原町","lat":"34.974926","lng":"135.767307"},{"town":"袋町","lat":"34.994712","lng":"135.770987"},{"town":"古川町","lat":"35.008514","lng":"135.778806"},{"town":"古西町","lat":"35.006994","lng":"135.776719"},{"town":"分木町","lat":"35.009483","lng":"135.779035"},{"town":"弁財天町","lat":"35.006078","lng":"135.772305"},{"town":"北斗町","lat":"34.988430","lng":"135.770532"},{"town":"星野町","lat":"34.998311","lng":"135.778206"},{"town":"堀池町","lat":"35.010146","lng":"135.781957"},{"town":"本池田町","lat":"34.985114","lng":"135.770777"},{"town":"本瓦町","lat":"34.986586","lng":"135.773432"},{"town":"本町十丁目","lat":"34.983873","lng":"135.770324"},{"town":"本町十一丁目","lat":"34.982468","lng":"135.769965"},{"town":"本町十二丁目","lat":"34.981538","lng":"135.770526"},{"town":"本町十三丁目","lat":"34.980946","lng":"135.770321"},{"town":"本町十四丁目","lat":"34.980374","lng":"135.770360"},{"town":"本町十五丁目","lat":"34.977103","lng":"135.773013"},{"town":"本町十六丁目","lat":"34.978863","lng":"135.771021"},{"town":"本町十七丁目","lat":"34.977748","lng":"135.770962"},{"town":"本町十八丁目","lat":"34.975950","lng":"135.770834"},{"town":"本町十九丁目","lat":"34.974464","lng":"135.770630"},{"town":"本町一丁目","lat":"34.994912","lng":"135.770102"},{"town":"本町二十丁目","lat":"34.973048","lng":"135.770756"},{"town":"本町二十一丁目","lat":"34.971803","lng":"135.770775"},{"town":"本町二十二丁目","lat":"34.970593","lng":"135.771006"},{"town":"本町二丁目","lat":"34.994136","lng":"135.769879"},{"town":"本町三丁目","lat":"34.993265","lng":"135.769783"},{"town":"本町四丁目","lat":"34.992336","lng":"135.769682"},{"town":"本町五丁目","lat":"34.990377","lng":"135.769573"},{"town":"本町六丁目","lat":"34.988976","lng":"135.769596"},{"town":"本町七丁目","lat":"34.988134","lng":"135.769651"},{"town":"本町八丁目","lat":"34.986696","lng":"135.769775"},{"town":"本町九丁目","lat":"34.985464","lng":"135.770001"},{"town":"本町新五丁目","lat":"34.991312","lng":"135.769595"},{"town":"本町新六丁目","lat":"34.989600","lng":"135.769580"},{"town":"蒔田町","lat":"34.986702","lng":"135.770869"},{"town":"桝屋町","lat":"34.998494","lng":"135.781247"},{"town":"松原町","lat":"35.005888","lng":"135.778496"},{"town":"円山町","lat":"35.002868","lng":"135.782749"},{"town":"三盛町","lat":"34.996536","lng":"135.773258"},{"town":"南梅屋町","lat":"34.992972","lng":"135.771850"},{"town":"南瓦町","lat":"34.985760","lng":"135.773303"},{"town":"南木之元町","lat":"35.008431","lng":"135.777949"},{"town":"南西海子町","lat":"35.008997","lng":"135.777994"},{"town":"南棟梁町","lat":"34.987298","lng":"135.770324"},{"town":"南町","lat":"34.999430","lng":"135.778477"},{"town":"宮川筋一丁目","lat":"35.002793","lng":"135.771621"},{"town":"宮川筋二丁目","lat":"35.001432","lng":"135.771080"},{"town":"宮川筋三丁目","lat":"35.000666","lng":"135.770822"},{"town":"宮川筋四丁目","lat":"34.999757","lng":"135.770453"},{"town":"宮川筋五丁目","lat":"34.998930","lng":"135.770199"},{"town":"宮川筋六丁目","lat":"34.998143","lng":"135.769524"},{"town":"宮川筋七丁目","lat":"34.997242","lng":"135.769098"},{"town":"宮川筋八丁目","lat":"34.996273","lng":"135.768698"},{"town":"妙法院前側町","lat":"34.990482","lng":"135.775894"},{"town":"三吉町","lat":"35.007030","lng":"135.775431"},{"town":"元町","lat":"35.007078","lng":"135.773690"},{"town":"元吉町","lat":"35.005728","lng":"135.773788"},{"town":"森下町","lat":"34.996644","lng":"135.770487"},{"town":"薬師町","lat":"34.997702","lng":"135.772401"},{"town":"八坂上町","lat":"34.998504","lng":"135.779586"},{"town":"山崎町","lat":"34.996504","lng":"135.771909"},{"town":"山城町","lat":"34.997426","lng":"135.771134"},{"town":"山田町","lat":"34.996875","lng":"135.769937"},{"town":"大和大路一丁目","lat":"34.990689","lng":"135.770961"},{"town":"大和大路二丁目","lat":"34.989944","lng":"135.770967"},{"town":"大和町","lat":"35.003083","lng":"135.772819"},{"town":"遊行前町","lat":"34.994844","lng":"135.776639"},{"town":"柚之木町","lat":"35.010338","lng":"135.784094"},{"town":"弓矢町","lat":"34.998379","lng":"135.772410"},{"town":"芳野町","lat":"34.994302","lng":"135.773127"},{"town":"林下町","lat":"35.005932","lng":"135.782695"},{"town":"六軒町","lat":"35.002000","lng":"135.772052"},{"town":"轆轤町","lat":"34.997456","lng":"135.774114"},{"town":"若竹町","lat":"35.008334","lng":"135.775049"},{"town":"若松町","lat":"35.007967","lng":"135.774082"},{"town":"鷲尾町","lat":"35.001862","lng":"135.780686"}]