[{"town":"相生町","lat":"35.300239","lng":"135.254655"},{"town":"青野町","lat":"35.305678","lng":"135.259105"},{"town":"旭町","lat":"35.317435","lng":"135.309021"},{"town":"綾中町","lat":"35.301240","lng":"135.259119"},{"town":"有岡町","lat":"35.328685","lng":"135.256440"},{"town":"安国寺町","lat":"35.335137","lng":"135.311821"},{"town":"五泉町","lat":"35.421812","lng":"135.432438"},{"town":"石原町","lat":"35.316568","lng":"135.207009"},{"town":"五津合町","lat":"35.380714","lng":"135.416393"},{"town":"位田町","lat":"35.324921","lng":"135.241722"},{"town":"井根町","lat":"35.351369","lng":"135.357412"},{"town":"井倉新町","lat":"35.305486","lng":"135.250184"},{"town":"井倉町","lat":"35.301936","lng":"135.241886"},{"town":"今田町","lat":"35.333602","lng":"135.211592"},{"town":"上杉町","lat":"35.364642","lng":"135.322861"},{"town":"上野町","lat":"35.290526","lng":"135.255912"},{"town":"内久井町","lat":"35.388962","lng":"135.270007"},{"town":"梅迫町","lat":"35.344654","lng":"135.318384"},{"town":"上延町","lat":"35.294930","lng":"135.233611"},{"town":"駅前通り","lat":"35.300631","lng":"135.252282"},{"town":"老富町","lat":"35.437894","lng":"135.479860"},{"town":"大島町","lat":"35.298132","lng":"135.225015"},{"town":"大畠町","lat":"35.333604","lng":"135.226440"},{"town":"小貝町","lat":"35.309809","lng":"135.202642"},{"town":"岡町","lat":"35.299019","lng":"135.238827"},{"town":"岡安町","lat":"35.335731","lng":"135.294322"},{"town":"小畑町","lat":"35.349571","lng":"135.189485"},{"town":"於与岐町","lat":"35.378037","lng":"135.358027"},{"town":"小呂町","lat":"35.339181","lng":"135.273724"},{"town":"鍛治屋町","lat":"35.340810","lng":"135.201065"},{"town":"金河内町","lat":"35.386697","lng":"135.248426"},{"town":"釜輪町","lat":"35.302311","lng":"135.356539"},{"town":"上八田町","lat":"35.356497","lng":"135.272664"},{"town":"川糸町","lat":"35.300382","lng":"135.263003"},{"town":"上原町","lat":"35.289133","lng":"135.323160"},{"town":"私市町","lat":"35.319612","lng":"135.196830"},{"town":"栗町","lat":"35.316381","lng":"135.221450"},{"town":"黒谷町","lat":"35.380878","lng":"135.316909"},{"town":"小西町","lat":"35.328903","lng":"135.200256"},{"town":"故屋岡町","lat":"35.395678","lng":"135.491269"},{"town":"幸通り","lat":"35.301389","lng":"135.250709"},{"town":"桜が丘一丁目","lat":"35.318537","lng":"135.275652"},{"town":"桜が丘二丁目","lat":"35.317303","lng":"135.278771"},{"town":"桜が丘三丁目","lat":"35.322607","lng":"135.282578"},{"town":"里町","lat":"35.312801","lng":"135.264069"},{"town":"志賀郷町","lat":"35.368623","lng":"135.239253"},{"town":"下替地町","lat":"35.279248","lng":"135.326152"},{"town":"七百石町","lat":"35.366725","lng":"135.290743"},{"town":"篠田町","lat":"35.372954","lng":"135.281609"},{"town":"下原町","lat":"35.280495","lng":"135.311727"},{"town":"下八田町","lat":"35.309017","lng":"135.283220"},{"town":"城山町","lat":"35.329069","lng":"135.270473"},{"town":"神宮寺町","lat":"35.297488","lng":"135.250321"},{"town":"新宮町","lat":"35.296570","lng":"135.259411"},{"town":"新庄町","lat":"35.347995","lng":"135.214703"},{"town":"新町","lat":"35.296160","lng":"135.258489"},{"town":"高倉町","lat":"35.331125","lng":"135.278063"},{"town":"高槻町","lat":"35.365854","lng":"135.308951"},{"town":"高津町","lat":"35.291446","lng":"135.211578"},{"town":"鷹栖町","lat":"35.299058","lng":"135.308143"},{"town":"武吉町","lat":"35.317543","lng":"135.359724"},{"town":"多田町","lat":"35.320705","lng":"135.269161"},{"town":"忠町","lat":"35.332331","lng":"135.384617"},{"town":"舘町","lat":"35.326797","lng":"135.219809"},{"town":"田野町","lat":"35.279429","lng":"135.253297"},{"town":"田町","lat":"35.296210","lng":"135.256652"},{"town":"月見町","lat":"35.296906","lng":"135.255058"},{"town":"佃町","lat":"35.324813","lng":"135.373343"},{"town":"寺町","lat":"35.285943","lng":"135.261185"},{"town":"天神町","lat":"35.301348","lng":"135.254917"},{"town":"十倉志茂町","lat":"35.324068","lng":"135.329203"},{"town":"十倉中町","lat":"35.330927","lng":"135.337934"},{"town":"十倉名畑町","lat":"35.346097","lng":"135.343943"},{"town":"十倉向町","lat":"35.323757","lng":"135.346049"},{"town":"戸奈瀬町","lat":"35.284635","lng":"135.340361"},{"town":"とよさか町","lat":"35.330209","lng":"135.287332"},{"town":"豊里町","lat":"35.319652","lng":"135.214142"},{"town":"中筋町","lat":"35.342881","lng":"135.290286"},{"town":"中ノ町一丁目","lat":"35.298659","lng":"135.255326"},{"town":"中ノ町二丁目","lat":"35.298927","lng":"135.253991"},{"town":"中ノ町三丁目","lat":"35.299256","lng":"135.252812"},{"town":"中山町","lat":"35.327579","lng":"135.304704"},{"town":"並松町","lat":"35.295366","lng":"135.263440"},{"town":"西方町","lat":"35.382345","lng":"135.216178"},{"town":"西坂町","lat":"35.365890","lng":"135.195814"},{"town":"西新町","lat":"35.300380","lng":"135.253187"},{"town":"西原町","lat":"35.294111","lng":"135.287883"},{"town":"西町一丁目","lat":"35.298588","lng":"135.256607"},{"town":"西町二丁目","lat":"35.299891","lng":"135.256728"},{"town":"西町三丁目","lat":"35.302601","lng":"135.255917"},{"town":"仁和町","lat":"35.379328","lng":"135.239304"},{"town":"野田町","lat":"35.280298","lng":"135.269923"},{"town":"延町","lat":"35.305962","lng":"135.236618"},{"town":"橋上町","lat":"35.311734","lng":"135.326108"},{"town":"白道路町","lat":"35.350161","lng":"135.250718"},{"town":"東山町","lat":"35.303699","lng":"135.312758"},{"town":"広小路一丁目","lat":"35.299281","lng":"135.255448"},{"town":"広小路二丁目","lat":"35.299599","lng":"135.254273"},{"town":"広小路三丁目","lat":"35.299755","lng":"135.253109"},{"town":"広小路四丁目","lat":"35.300163","lng":"135.251418"},{"town":"広瀬町","lat":"35.303148","lng":"135.326678"},{"town":"渕垣町","lat":"35.323181","lng":"135.294412"},{"town":"別所町","lat":"35.374465","lng":"135.267420"},{"town":"坊口町","lat":"35.390499","lng":"135.236334"},{"town":"星原町","lat":"35.336949","lng":"135.263961"},{"town":"本宮町","lat":"35.294766","lng":"135.261863"},{"town":"本町一丁目","lat":"35.297512","lng":"135.260471"},{"town":"本町二丁目","lat":"35.297652","lng":"135.258907"},{"town":"本町三丁目","lat":"35.297783","lng":"135.257234"},{"town":"本町四丁目","lat":"35.298012","lng":"135.255311"},{"town":"本町五丁目","lat":"35.298419","lng":"135.253870"},{"town":"本町六丁目","lat":"35.298705","lng":"135.252756"},{"town":"本町七丁目","lat":"35.299803","lng":"135.250989"},{"town":"本町八丁目","lat":"35.301086","lng":"135.249425"},{"town":"味方町","lat":"35.299643","lng":"135.275255"},{"town":"光野町","lat":"35.414517","lng":"135.465610"},{"town":"宮代町","lat":"35.300403","lng":"135.244793"},{"town":"向田町","lat":"35.363653","lng":"135.251234"},{"town":"睦合町","lat":"35.350707","lng":"135.380770"},{"town":"睦寄町","lat":"35.369547","lng":"135.453222"},{"town":"物部町","lat":"35.355659","lng":"135.223632"},{"town":"八代町","lat":"35.387011","lng":"135.294162"},{"town":"安場町","lat":"35.278852","lng":"135.237549"},{"town":"八津合町","lat":"35.363781","lng":"135.406677"},{"town":"若竹町","lat":"35.298697","lng":"135.259383"},{"town":"若松町","lat":"35.299962","lng":"135.258371"},{"town":"和木町","lat":"35.277205","lng":"135.292165"}]