[{"town":"大字小川","koaza":"","lat":34.409031,"lng":135.974877},{"town":"大字小","koaza":"","lat":34.387692,"lng":135.978336},{"town":"大字小栗栖","koaza":"","lat":34.394939,"lng":135.961272},{"town":"大字木津","koaza":"","lat":34.423353,"lng":136.028261},{"town":"大字木津川","koaza":"","lat":34.40205,"lng":135.998907},{"town":"大字杉谷","koaza":"","lat":34.408293,"lng":136.064344},{"town":"大字狹戸","koaza":"","lat":34.371669,"lng":136.003687},{"town":"大字瀧野","koaza":"","lat":34.466741,"lng":136.064135},{"town":"大字谷尻","koaza":"","lat":34.448394,"lng":136.037305},{"town":"大字中黒","koaza":"","lat":34.389407,"lng":135.944754},{"town":"大字萩原","koaza":"","lat":34.414557,"lng":136.001928},{"town":"大字日裏","koaza":"","lat":34.396281,"lng":136.030132},{"town":"大字平野","koaza":"","lat":34.443901,"lng":136.067347},{"town":"大字大豆生","koaza":"","lat":34.373694,"lng":136.016447},{"town":"大字三尾","koaza":"","lat":34.36947,"lng":135.98713},{"town":"大字麥谷","koaza":"","lat":34.369474,"lng":136.055697},{"town":"大字鷲家","koaza":"","lat":34.435128,"lng":136.00094},{"town":"大字伊豆尾","koaza":"","lat":34.410996,"lng":136.024952}]