[{"town":"大字芦原","koaza":"","lat":34.413958,"lng":135.797479},{"town":"大字今木","koaza":"","lat":34.403509,"lng":135.766005},{"town":"大字岩壺","koaza":"","lat":34.406986,"lng":135.780692},{"town":"大字大岩","koaza":"","lat":34.415196,"lng":135.764631},{"town":"大字北野","koaza":"","lat":34.396623,"lng":135.820952},{"town":"大字北六田","koaza":"","lat":34.394109,"lng":135.828512},{"town":"大字薬水","koaza":"","lat":34.397596,"lng":135.754106},{"town":"大字越部","koaza":"","lat":34.400614,"lng":135.807829},{"town":"大字佐名伝","koaza":"","lat":34.385603,"lng":135.765901},{"town":"大字下渕","koaza":"","lat":34.3877,"lng":135.781667},{"town":"大字土田","koaza":"","lat":34.398404,"lng":135.802237},{"town":"大字中増","koaza":"","lat":34.412539,"lng":135.851992},{"town":"大字西増","koaza":"","lat":34.407497,"lng":135.839201},{"town":"大字新野","koaza":"","lat":34.390052,"lng":135.819259},{"town":"大字馬佐","koaza":"","lat":34.403998,"lng":135.81793},{"town":"大字畑屋","koaza":"","lat":34.411895,"lng":135.803989},{"town":"大字桧垣本","koaza":"","lat":34.394848,"lng":135.790089},{"town":"大字比曽","koaza":"","lat":34.405725,"lng":135.830348},{"town":"大字福神","koaza":"","lat":34.394788,"lng":135.747246},{"town":"大字鉾立","koaza":"","lat":34.412677,"lng":135.77436},{"town":"大字増口","koaza":"","lat":34.39664,"lng":135.841754},{"town":"大字持尾","koaza":"","lat":34.41559,"lng":135.786497},{"town":"大字矢走","koaza":"","lat":34.407596,"lng":135.790667}]