[{"town":"大字庵住","koaza":"","lat":34.18744,"lng":135.802425},{"town":"大字沖金","koaza":"","lat":34.243305,"lng":135.852905},{"town":"大字川合","koaza":"","lat":34.263767,"lng":135.855034},{"town":"大字北小原","koaza":"","lat":34.232921,"lng":135.852969},{"town":"大字北角","koaza":"","lat":34.205417,"lng":135.899802},{"town":"大字五色","koaza":"","lat":34.229245,"lng":135.848548},{"town":"大字籠山","koaza":"","lat":34.206068,"lng":135.800136},{"town":"大字沢谷","koaza":"","lat":34.239769,"lng":135.855726},{"town":"大字沢原","koaza":"","lat":34.242754,"lng":135.83121},{"town":"大字塩谷","koaza":"","lat":34.219466,"lng":135.756673},{"town":"大字塩野","koaza":"","lat":34.215944,"lng":135.765121},{"town":"大字滝尾","koaza":"","lat":34.20486,"lng":135.763481},{"town":"大字九尾","koaza":"","lat":34.225412,"lng":135.818585},{"town":"大字坪内","koaza":"","lat":34.202991,"lng":135.872759},{"town":"大字栃尾","koaza":"","lat":34.200619,"lng":135.841983},{"town":"大字洞川","koaza":"","lat":34.248337,"lng":135.917709},{"town":"大字中越","koaza":"","lat":34.245514,"lng":135.864152},{"town":"大字中谷","koaza":"","lat":34.2473,"lng":135.84},{"town":"大字広瀬","koaza":"","lat":34.213482,"lng":135.77821},{"town":"大字南日裏","koaza":"","lat":34.229244,"lng":135.834984},{"town":"大字南角","koaza":"","lat":34.23531,"lng":135.861555},{"town":"大字山西","koaza":"","lat":34.192272,"lng":135.776345},{"town":"大字和田","koaza":"","lat":34.207934,"lng":135.813752}]