[{"town":"大字池峰","koaza":"","lat":34.029912,"lng":135.93971},{"town":"大字浦向","koaza":"","lat":33.998617,"lng":135.934973},{"town":"大字上池原","koaza":"","lat":34.069104,"lng":135.943629},{"town":"大字上桑原","koaza":"","lat":34.000768,"lng":135.98169},{"town":"大字佐田","koaza":"","lat":34.001464,"lng":135.967103},{"town":"大字下池原","koaza":"","lat":34.041465,"lng":135.985107},{"town":"大字下桑原","koaza":"","lat":34.02188,"lng":135.987288},{"town":"大字前鬼","koaza":"","lat":34.08146,"lng":135.908906},{"town":"大字寺垣内","koaza":"","lat":34.013759,"lng":135.943921}]