[{"town":"大字旭","koaza":"","lat":"34.122935","lng":"135.846171"},{"town":"大字池穴","koaza":"","lat":"34.019094","lng":"135.780679"},{"town":"大字今西","koaza":"","lat":"34.002959","lng":"135.741618"},{"town":"大字五百瀬","koaza":"","lat":"34.021151","lng":"135.690698"},{"town":"大字上野地","koaza":"","lat":"34.100356","lng":"135.776010"},{"town":"大字宇宮原","koaza":"","lat":"34.118200","lng":"135.764805"},{"town":"大字内野","koaza":"","lat":"34.044949","lng":"135.720241"},{"town":"大字大谷","koaza":"","lat":"34.000695","lng":"135.704435"},{"town":"大字大野","koaza":"","lat":"34.011987","lng":"135.865032"},{"town":"大字小川","koaza":"","lat":"33.974121","lng":"135.845756"},{"town":"大字小原","koaza":"","lat":"33.981114","lng":"135.794481"},{"town":"大字折立","koaza":"","lat":"33.949819","lng":"135.811580"},{"town":"大字樫原","koaza":"","lat":"33.959443","lng":"135.785742"},{"town":"大字風屋","koaza":"","lat":"34.053531","lng":"135.778522"},{"town":"大字上葛川","koaza":"","lat":"33.978499","lng":"135.876695"},{"town":"大字上湯川","koaza":"","lat":"33.912654","lng":"135.648536"},{"town":"大字川津","koaza":"","lat":"34.050336","lng":"135.747329"},{"town":"大字桑畑","koaza":"","lat":"33.920231","lng":"135.760913"},{"town":"大字小井","koaza":"","lat":"34.025720","lng":"135.820169"},{"town":"大字神下","koaza":"","lat":"33.943680","lng":"135.876778"},{"town":"大字小坪瀬","koaza":"","lat":"33.977020","lng":"135.680064"},{"town":"大字込之上","koaza":"","lat":"33.946174","lng":"135.792019"},{"town":"大字小森","koaza":"","lat":"33.996605","lng":"135.774155"},{"town":"大字小山手","koaza":"","lat":"33.974678","lng":"135.702760"},{"town":"大字猿飼","koaza":"","lat":"33.933820","lng":"135.781461"},{"town":"大字重里","koaza":"","lat":"33.953610","lng":"135.743763"},{"town":"大字杉清","koaza":"","lat":"34.038045","lng":"135.645911"},{"town":"大字迫西川","koaza":"","lat":"33.970741","lng":"135.654192"},{"town":"大字高滝","koaza":"","lat":"33.959291","lng":"135.823551"},{"town":"大字滝川","koaza":"","lat":"34.069107","lng":"135.790184"},{"town":"大字竹筒","koaza":"","lat":"33.878208","lng":"135.867354"},{"town":"大字高津","koaza":"","lat":"34.078789","lng":"135.766193"},{"town":"大字谷垣内","koaza":"","lat":"33.964857","lng":"135.765310"},{"town":"大字谷瀬","koaza":"","lat":"34.106902","lng":"135.741220"},{"town":"大字玉置川","koaza":"","lat":"33.911467","lng":"135.841176"},{"town":"大字玉垣内","koaza":"","lat":"33.979485","lng":"135.741891"},{"town":"大字出谷","koaza":"","lat":"33.932442","lng":"135.716516"},{"town":"大字内原","koaza":"","lat":"34.075492","lng":"135.851429"},{"town":"大字永井","koaza":"","lat":"33.969671","lng":"135.741144"},{"town":"大字長殿","koaza":"","lat":"34.131864","lng":"135.757905"},{"town":"大字那知合","koaza":"","lat":"33.981759","lng":"135.764630"},{"town":"大字七色","koaza":"","lat":"33.898125","lng":"135.757421"},{"town":"大字西中","koaza":"","lat":"33.978256","lng":"135.723048"},{"town":"大字沼田原","koaza":"","lat":"34.143188","lng":"135.769276"},{"town":"大字野尻","koaza":"","lat":"34.038959","lng":"135.798043"},{"town":"大字林","koaza":"","lat":"34.085112","lng":"135.738099"},{"town":"大字東中","koaza":"","lat":"33.951017","lng":"135.852134"},{"town":"大字平谷","koaza":"","lat":"33.940747","lng":"135.761413"},{"town":"大字三浦","koaza":"","lat":"34.026949","lng":"135.709756"},{"town":"大字武蔵","koaza":"","lat":"33.991315","lng":"135.811094"},{"town":"大字山崎","koaza":"","lat":"34.027707","lng":"135.762487"},{"town":"大字山手","koaza":"","lat":"33.949861","lng":"135.764778"},{"town":"大字山手谷","koaza":"","lat":"33.919739","lng":"135.803113"},{"town":"大字山天","koaza":"","lat":"34.062379","lng":"135.701083"},{"town":"大字湯之原","koaza":"","lat":"34.009429","lng":"135.804296"}]