[{"town":"大字石見","koaza":"","lat":34.571394,"lng":135.78734},{"town":"大字小柳","koaza":"","lat":34.577561,"lng":135.756819},{"town":"大字上但馬","koaza":"","lat":34.565415,"lng":135.766421},{"town":"大字但馬","koaza":"","lat":34.569019,"lng":135.768773},{"town":"大字伴堂","koaza":"","lat":34.573684,"lng":135.772535},{"town":"大字屏風","koaza":"","lat":34.578679,"lng":135.77234},{"town":"大字三河","koaza":"","lat":34.576978,"lng":135.786153}]