[{"town":"大字北西方","koaza":"","lat":32.034386,"lng":130.951656},{"town":"大字南西方","koaza":"","lat":31.955589,"lng":130.8965},{"town":"大字堤","koaza":"","lat":31.965429,"lng":131.004295},{"town":"大字堤","koaza":"三本松","lat":31.976405,"lng":130.998065},{"town":"大字堤","koaza":"並松添","lat":31.984419,"lng":130.994257},{"town":"大字堤","koaza":"丸岡","lat":31.981388,"lng":130.994244},{"town":"大字堤","koaza":"西ノ原","lat":31.983281,"lng":130.991583},{"town":"大字堤","koaza":"金鳥居","lat":31.982234,"lng":130.996845},{"town":"大字東方","koaza":"","lat":32.068876,"lng":130.975989},{"town":"大字水流迫","koaza":"","lat":31.989073,"lng":130.994892},{"town":"大字真方","koaza":"","lat":32.010577,"lng":130.983379},{"town":"大字細野","koaza":"","lat":31.961666,"lng":130.948774},{"town":"大字細野","koaza":"池の原","lat":31.989493,"lng":130.979595},{"town":"大字細野","koaza":"鳥居東","lat":31.980913,"lng":130.973195},{"town":"駅南","koaza":"","lat":31.990233,"lng":130.974406},{"town":"須木内山","koaza":"","lat":32.007029,"lng":131.115218},{"town":"須木下田","koaza":"","lat":32.064943,"lng":131.114793},{"town":"須木鳥田町","koaza":"","lat":32.109744,"lng":131.035439},{"town":"須木中原","koaza":"","lat":32.119692,"lng":131.113632},{"town":"須木奈佐木","koaza":"","lat":32.035823,"lng":131.060864},{"town":"野尻町紙屋","koaza":"","lat":31.966412,"lng":131.174869},{"town":"野尻町東麓","koaza":"","lat":31.961796,"lng":131.110097},{"town":"野尻町三ケ野山","koaza":"","lat":31.979945,"lng":131.056073},{"town":"本町","koaza":"","lat":31.991878,"lng":130.976201}]