[{"town":"大字中川","koaza":"","lat":37.488017,"lng":139.522787},{"town":"大字八町","koaza":"","lat":37.428096,"lng":139.557842},{"town":"大字大塩","koaza":"","lat":37.426867,"lng":139.437058},{"town":"大字大志","koaza":"","lat":37.462841,"lng":139.533116},{"town":"大字大栗山","koaza":"","lat":37.464845,"lng":139.567392},{"town":"大字太郎布","koaza":"","lat":37.442642,"lng":139.561121},{"town":"大字小栗山","koaza":"","lat":37.435321,"lng":139.532715},{"town":"大字山入","koaza":"","lat":37.361434,"lng":139.445975},{"town":"大字川口","koaza":"","lat":37.452953,"lng":139.530724},{"town":"大字本名","koaza":"","lat":37.467251,"lng":139.451534},{"town":"大字横田","koaza":"","lat":37.384615,"lng":139.455424},{"town":"大字水沼","koaza":"","lat":37.492971,"lng":139.574976},{"town":"大字沼沢","koaza":"","lat":37.441847,"lng":139.595215},{"town":"大字滝沢","koaza":"","lat":37.422471,"lng":139.406032},{"town":"大字玉梨","koaza":"","lat":37.407254,"lng":139.54749},{"town":"大字田沢","koaza":"","lat":37.374971,"lng":139.384667},{"town":"大字西谷","koaza":"","lat":37.431588,"lng":139.508753},{"town":"大字越川","koaza":"","lat":37.403324,"lng":139.492681}]