[{"town":"大字下松本","koaza":"","lat":37.25342,"lng":140.238526},{"town":"大字大里","koaza":"","lat":37.237675,"lng":140.246095},{"town":"大字飯豊","koaza":"","lat":37.245895,"lng":140.286363},{"town":"大字白子","koaza":"","lat":37.24788,"lng":140.262736},{"town":"大字牧之内","koaza":"","lat":37.267525,"lng":140.171357},{"town":"大字上松本","koaza":"","lat":37.261403,"lng":140.221524},{"town":"大字柿之内","koaza":"","lat":37.23639,"lng":140.3119},{"town":"大字沖内","koaza":"","lat":37.242316,"lng":140.311075},{"town":"大字高林","koaza":"","lat":37.235229,"lng":140.298204},{"town":"大字小川","koaza":"","lat":37.229497,"lng":140.27987},{"town":"大字羽鳥","koaza":"","lat":37.217065,"lng":140.025188},{"town":"大字田良尾","koaza":"","lat":37.292127,"lng":140.063164},{"town":"大字湯本","koaza":"","lat":37.264075,"lng":139.995105}]