[{"town":"荘苑一丁目","lat":"34.916675","lng":"135.375762"},{"town":"荘苑二丁目","lat":"34.917649","lng":"135.375909"},{"town":"荘苑三丁目","lat":"34.918724","lng":"135.376427"},{"town":"紫合","lat":"34.912005","lng":"135.378743"},{"town":"若葉一丁目","lat":"34.900246","lng":"135.368772"},{"town":"若葉二丁目","lat":"34.894999","lng":"135.371935"},{"town":"柏梨田","lat":"34.898507","lng":"135.375536"},{"town":"北野","lat":"34.908159","lng":"135.371007"},{"town":"肝川","lat":"34.874741","lng":"135.354693"},{"town":"広根","lat":"34.898252","lng":"135.33687"},{"town":"つつじが丘一丁目","lat":"34.88662","lng":"135.371458"},{"town":"差組","lat":"34.878964","lng":"135.376077"},{"town":"北田原","lat":"34.917851","lng":"135.366003"},{"town":"原","lat":"34.908113","lng":"135.38612"},{"town":"内馬場","lat":"34.920073","lng":"135.402644"},{"town":"伏見台五丁目","lat":"34.91898","lng":"135.395193"},{"town":"伏見台四丁目","lat":"34.918528","lng":"135.398331"},{"town":"木津","lat":"34.929941","lng":"135.340189"},{"town":"万善","lat":"34.920493","lng":"135.348264"},{"town":"槻並","lat":"34.942201","lng":"135.359846"},{"town":"下阿古谷","lat":"34.931804","lng":"135.374355"},{"town":"上阿古谷","lat":"34.943094","lng":"135.381872"},{"town":"柏原","lat":"35.003224","lng":"135.304293"},{"town":"杉生","lat":"35.003897","lng":"135.3357"},{"town":"猪名川台二丁目","lat":"34.883897","lng":"135.374943"},{"town":"猪名川台一丁目","lat":"34.882873","lng":"135.375406"},{"town":"松尾台四丁目","lat":"34.899325","lng":"135.386363"},{"town":"上野","lat":"34.89231","lng":"135.378514"},{"town":"伏見台三丁目","lat":"34.915952","lng":"135.402734"},{"town":"松尾台三丁目","lat":"34.902977","lng":"135.391873"},{"town":"松尾台一丁目","lat":"34.906286","lng":"135.392613"},{"town":"松尾台二丁目","lat":"34.904701","lng":"135.388651"},{"town":"伏見台二丁目","lat":"34.913127","lng":"135.399566"},{"town":"伏見台一丁目","lat":"34.908975","lng":"135.390371"},{"town":"つつじが丘五丁目","lat":"34.884637","lng":"135.360561"},{"town":"つつじが丘四丁目","lat":"34.88457","lng":"135.362499"},{"town":"つつじが丘三丁目","lat":"34.882769","lng":"135.366166"},{"town":"つつじが丘二丁目","lat":"34.885517","lng":"135.366167"},{"town":"白金三丁目","lat":"34.896756","lng":"135.361108"},{"town":"猪渕","lat":"34.884149","lng":"135.348434"},{"town":"白金一丁目","lat":"34.90316","lng":"135.360841"},{"town":"白金二丁目","lat":"34.898607","lng":"135.356898"},{"town":"銀山","lat":"34.902278","lng":"135.347869"},{"town":"南田原","lat":"34.906986","lng":"135.359643"},{"town":"民田","lat":"34.935385","lng":"135.404513"},{"town":"木間生","lat":"34.94551","lng":"135.343867"},{"town":"林田","lat":"34.942053","lng":"135.331765"},{"town":"杤原","lat":"34.955646","lng":"135.341856"},{"town":"笹尾","lat":"34.953227","lng":"135.323899"},{"town":"旭ケ丘","lat":"34.969218","lng":"135.334938"},{"town":"清水東","lat":"34.969282","lng":"135.324434"},{"town":"仁頂寺","lat":"34.970453","lng":"135.342087"},{"town":"島","lat":"34.980394","lng":"135.320815"},{"town":"清水","lat":"34.971395","lng":"135.311333"},{"town":"鎌倉","lat":"34.98686","lng":"135.346048"},{"town":"西畑","lat":"34.992664","lng":"135.320834"}]