[{"town":"阿久和南四丁目","koaza":"","lat":35.440488,"lng":139.498535},{"town":"阿久和西四丁目","koaza":"","lat":35.446317,"lng":139.496496},{"town":"阿久和西三丁目","koaza":"","lat":35.451723,"lng":139.495844},{"town":"阿久和西一丁目","koaza":"","lat":35.457571,"lng":139.497814},{"town":"東野","koaza":"","lat":35.47523,"lng":139.493644},{"town":"東野台","koaza":"","lat":35.476676,"lng":139.498366},{"town":"三ツ境","koaza":"","lat":35.463146,"lng":139.501589},{"town":"二ツ橋町","koaza":"","lat":35.469978,"lng":139.497325},{"town":"瀬谷町","koaza":"","lat":35.487866,"lng":139.482948},{"town":"北町","koaza":"","lat":35.500599,"lng":139.480659},{"town":"阿久和南二丁目","koaza":"","lat":35.444613,"lng":139.502917},{"town":"阿久和東四丁目","koaza":"","lat":35.448263,"lng":139.501531},{"town":"阿久和南一丁目","koaza":"","lat":35.443059,"lng":139.509167},{"town":"阿久和西二丁目","koaza":"","lat":35.453275,"lng":139.499502},{"town":"阿久和東二丁目","koaza":"","lat":35.453477,"lng":139.503958},{"town":"阿久和南三丁目","koaza":"","lat":35.438783,"lng":139.504812},{"town":"阿久和東三丁目","koaza":"","lat":35.45005,"lng":139.50609},{"town":"阿久和東一丁目","koaza":"","lat":35.456581,"lng":139.503401},{"town":"宮沢三丁目","koaza":"","lat":35.451465,"lng":139.490812},{"town":"宮沢四丁目","koaza":"","lat":35.445881,"lng":139.490314},{"town":"南瀬谷二丁目","koaza":"","lat":35.446509,"lng":139.485668},{"town":"下瀬谷三丁目","koaza":"","lat":35.453616,"lng":139.478527},{"town":"宮沢二丁目","koaza":"","lat":35.456951,"lng":139.492273},{"town":"下瀬谷二丁目","koaza":"","lat":35.457158,"lng":139.482167},{"town":"下瀬谷一丁目","koaza":"","lat":35.45256,"lng":139.484011},{"town":"南台二丁目","koaza":"","lat":35.459553,"lng":139.487064},{"town":"南瀬谷一丁目","koaza":"","lat":35.452578,"lng":139.486639},{"town":"宮沢一丁目","koaza":"","lat":35.462473,"lng":139.492729},{"town":"瀬谷三丁目","koaza":"","lat":35.468326,"lng":139.486356},{"town":"南台一丁目","koaza":"","lat":35.463994,"lng":139.489471},{"town":"橋戸一丁目","koaza":"","lat":35.463235,"lng":139.484355},{"town":"相沢七丁目","koaza":"","lat":35.477962,"lng":139.489426},{"town":"相沢三丁目","koaza":"","lat":35.475192,"lng":139.486734},{"town":"相沢六丁目","koaza":"","lat":35.479442,"lng":139.486629},{"town":"相沢五丁目","koaza":"","lat":35.479551,"lng":139.48353},{"town":"橋戸二丁目","koaza":"","lat":35.462212,"lng":139.480572},{"town":"瀬谷四丁目","koaza":"","lat":35.468028,"lng":139.482836},{"town":"瀬谷六丁目","koaza":"","lat":35.467165,"lng":139.47497},{"town":"本郷三丁目","koaza":"","lat":35.472186,"lng":139.476597},{"town":"中央","koaza":"","lat":35.473466,"lng":139.481886},{"town":"瀬谷二丁目","koaza":"","lat":35.468449,"lng":139.489271},{"town":"相沢一丁目","koaza":"","lat":35.471715,"lng":139.486819},{"town":"相沢四丁目","koaza":"","lat":35.47478,"lng":139.483924},{"town":"瀬谷一丁目","koaza":"","lat":35.468505,"lng":139.492432},{"town":"相沢二丁目","koaza":"","lat":35.473262,"lng":139.489973},{"town":"北新","koaza":"","lat":35.458291,"lng":139.476989},{"town":"橋戸三丁目","koaza":"","lat":35.46286,"lng":139.475499},{"town":"瀬谷五丁目","koaza":"","lat":35.467764,"lng":139.478166},{"town":"本郷四丁目","koaza":"","lat":35.479079,"lng":139.48132},{"town":"中屋敷三丁目","koaza":"","lat":35.482598,"lng":139.482437},{"town":"本郷二丁目","koaza":"","lat":35.477449,"lng":139.478125},{"town":"本郷一丁目","koaza":"","lat":35.475996,"lng":139.473319},{"town":"卸本町","koaza":"","lat":35.500429,"lng":139.485855},{"town":"中屋敷二丁目","koaza":"","lat":35.48293,"lng":139.477748},{"town":"中屋敷一丁目","koaza":"","lat":35.482617,"lng":139.472768},{"town":"上瀬谷町","koaza":"","lat":35.493052,"lng":139.47385},{"town":"竹村町","koaza":"","lat":35.486757,"lng":139.473},{"town":"五貫目町","koaza":"","lat":35.500248,"lng":139.472265},{"town":"目黒町","koaza":"","lat":35.495752,"lng":139.469707}]