[{"town":"日枝町一丁目","koaza":"","lat":35.43808,"lng":139.621009},{"town":"西中町一丁目","koaza":"","lat":35.441211,"lng":139.621757},{"town":"南吉田町一丁目","koaza":"","lat":35.437317,"lng":139.621399},{"town":"中村町五丁目","koaza":"","lat":35.428506,"lng":139.623144},{"town":"中里三丁目","koaza":"","lat":35.421768,"lng":139.594215},{"town":"新川町一丁目","koaza":"","lat":35.435877,"lng":139.62232},{"town":"吉野町一丁目","koaza":"","lat":35.436367,"lng":139.621783},{"town":"白金町一丁目","koaza":"","lat":35.439346,"lng":139.622296},{"town":"前里町一丁目","koaza":"","lat":35.440447,"lng":139.6224},{"town":"別所七丁目","koaza":"","lat":35.417567,"lng":139.579733},{"town":"中里四丁目","koaza":"","lat":35.419391,"lng":139.589633},{"town":"堀ノ内町一丁目","koaza":"","lat":35.42773,"lng":139.618095},{"town":"大岡二丁目","koaza":"","lat":35.421095,"lng":139.602014},{"town":"大岡一丁目","koaza":"","lat":35.422736,"lng":139.608033},{"town":"中里一丁目","koaza":"","lat":35.418932,"lng":139.598061},{"town":"中里二丁目","koaza":"","lat":35.4189,"lng":139.593599},{"town":"六ツ川二丁目","koaza":"","lat":35.422689,"lng":139.582654},{"town":"別所六丁目","koaza":"","lat":35.41865,"lng":139.58108},{"town":"中村町四丁目","koaza":"","lat":35.431605,"lng":139.624496},{"town":"睦町一丁目","koaza":"","lat":35.431364,"lng":139.61925},{"town":"山王町一丁目","koaza":"","lat":35.436874,"lng":139.621567},{"town":"前里町二丁目","koaza":"","lat":35.439804,"lng":139.621471},{"town":"睦町二丁目","koaza":"","lat":35.429051,"lng":139.619474},{"town":"高砂町一丁目","koaza":"","lat":35.433619,"lng":139.621406},{"town":"二葉町一丁目","koaza":"","lat":35.435051,"lng":139.622086},{"town":"大岡四丁目","koaza":"","lat":35.41133,"lng":139.603847},{"town":"別所二丁目","koaza":"","lat":35.41593,"lng":139.590345},{"town":"別所一丁目","koaza":"","lat":35.416623,"lng":139.596141},{"town":"大岡五丁目","koaza":"","lat":35.413817,"lng":139.600346},{"town":"大岡三丁目","koaza":"","lat":35.41614,"lng":139.604022},{"town":"別所三丁目","koaza":"","lat":35.4127,"lng":139.58909},{"town":"別所中里台","koaza":"","lat":35.417118,"lng":139.585481},{"town":"別所四丁目","koaza":"","lat":35.41213,"lng":139.585042},{"town":"別所五丁目","koaza":"","lat":35.414909,"lng":139.584235},{"town":"中村町一丁目","koaza":"","lat":35.435207,"lng":139.634777},{"town":"唐沢","koaza":"","lat":35.431956,"lng":139.635858},{"town":"万世町二丁目","koaza":"","lat":35.435278,"lng":139.630557},{"town":"八幡町","koaza":"","lat":35.431216,"lng":139.630089},{"town":"平楽","koaza":"","lat":35.430029,"lng":139.633087},{"town":"中村町三丁目","koaza":"","lat":35.43282,"lng":139.628557},{"town":"中村町二丁目","koaza":"","lat":35.434089,"lng":139.631996},{"town":"山谷","koaza":"","lat":35.429458,"lng":139.625704},{"town":"浦舟町二丁目","koaza":"","lat":35.4346,"lng":139.627622},{"town":"浦舟町一丁目","koaza":"","lat":35.435094,"lng":139.628865},{"town":"真金町一丁目","koaza":"","lat":35.436442,"lng":139.629894},{"town":"浦舟町四丁目","koaza":"","lat":35.433722,"lng":139.624573},{"town":"浦舟町三丁目","koaza":"","lat":35.434196,"lng":139.626359},{"town":"万世町一丁目","koaza":"","lat":35.436211,"lng":139.632269},{"town":"真金町二丁目","koaza":"","lat":35.438089,"lng":139.628764},{"town":"白妙町一丁目","koaza":"","lat":35.436312,"lng":139.62809},{"town":"高根町一丁目","koaza":"","lat":35.437493,"lng":139.627215},{"town":"白妙町三丁目","koaza":"","lat":35.435319,"lng":139.625613},{"town":"白妙町二丁目","koaza":"","lat":35.435672,"lng":139.626818},{"town":"永楽町二丁目","koaza":"","lat":35.438821,"lng":139.630493},{"town":"永楽町一丁目","koaza":"","lat":35.437427,"lng":139.631399},{"town":"浦舟町五丁目","koaza":"","lat":35.433499,"lng":139.622834},{"town":"高根町三丁目","koaza":"","lat":35.43668,"lng":139.624912},{"town":"高根町二丁目","koaza":"","lat":35.437018,"lng":139.626108},{"town":"高根町四丁目","koaza":"","lat":35.435992,"lng":139.62374},{"town":"白妙町五丁目","koaza":"","lat":35.434643,"lng":139.623145},{"town":"白妙町四丁目","koaza":"","lat":35.434926,"lng":139.62431},{"town":"榎町一丁目","koaza":"","lat":35.431049,"lng":139.614047},{"town":"大橋町一丁目","koaza":"","lat":35.428212,"lng":139.604261},{"town":"通町四丁目","koaza":"","lat":35.42429,"lng":139.602709},{"town":"通町三丁目","koaza":"","lat":35.425983,"lng":139.603702},{"town":"若宮町三丁目","koaza":"","lat":35.425489,"lng":139.604565},{"town":"中里町","koaza":"","lat":35.42148,"lng":139.598038},{"town":"榎町二丁目","koaza":"","lat":35.429648,"lng":139.613265},{"town":"堀ノ内町二丁目","koaza":"","lat":35.426379,"lng":139.615434},{"town":"高砂町三丁目","koaza":"","lat":35.433232,"lng":139.618615},{"town":"二葉町四丁目","koaza":"","lat":35.433956,"lng":139.61838},{"town":"宮元町一丁目","koaza":"","lat":35.433088,"lng":139.614072},{"town":"高砂町二丁目","koaza":"","lat":35.433497,"lng":139.61992},{"town":"吉野町三丁目","koaza":"","lat":35.435544,"lng":139.619026},{"town":"新川町二丁目","koaza":"","lat":35.43534,"lng":139.620544},{"town":"吉野町二丁目","koaza":"","lat":35.435904,"lng":139.620307},{"town":"二葉町三丁目","koaza":"","lat":35.434386,"lng":139.619513},{"town":"新川町三丁目","koaza":"","lat":35.435003,"lng":139.619257},{"town":"山王町三丁目","koaza":"","lat":35.436086,"lng":139.618785},{"town":"山王町二丁目","koaza":"","lat":35.436444,"lng":139.620073},{"town":"南吉田町二丁目","koaza":"","lat":35.436894,"lng":139.619879},{"town":"新川町五丁目","koaza":"","lat":35.43404,"lng":139.61694},{"town":"新川町四丁目","koaza":"","lat":35.434694,"lng":139.61806},{"town":"吉野町四丁目","koaza":"","lat":35.435219,"lng":139.617842},{"town":"山王町四丁目","koaza":"","lat":35.435775,"lng":139.61761},{"town":"南吉田町四丁目","koaza":"","lat":35.436229,"lng":139.61742},{"town":"南吉田町三丁目","koaza":"","lat":35.436538,"lng":139.618588},{"town":"日枝町二丁目","koaza":"","lat":35.437719,"lng":139.619535},{"town":"前里町三丁目","koaza":"","lat":35.439102,"lng":139.619534},{"town":"西中町三丁目","koaza":"","lat":35.439695,"lng":139.619384},{"town":"吉野町五丁目","koaza":"","lat":35.434707,"lng":139.616096},{"town":"日枝町四丁目","koaza":"","lat":35.43697,"lng":139.617128},{"town":"日枝町三丁目","koaza":"","lat":35.437267,"lng":139.618282},{"town":"白金町二丁目","koaza":"","lat":35.438182,"lng":139.61858},{"town":"日枝町五丁目","koaza":"","lat":35.436686,"lng":139.616048},{"town":"前里町四丁目","koaza":"","lat":35.438424,"lng":139.617572},{"town":"西中町二丁目","koaza":"","lat":35.440476,"lng":139.620651},{"town":"東蒔田町","koaza":"","lat":35.431774,"lng":139.615926},{"town":"井土ケ谷上町","koaza":"","lat":35.430505,"lng":139.598494},{"town":"花之木町一丁目","koaza":"","lat":35.434096,"lng":139.612427},{"town":"共進町二丁目","koaza":"","lat":35.430504,"lng":139.612106},{"town":"共進町一丁目","koaza":"","lat":35.432661,"lng":139.61519},{"town":"中島町一丁目","koaza":"","lat":35.428986,"lng":139.606641},{"town":"宮元町三丁目","koaza":"","lat":35.429924,"lng":139.609886},{"town":"宮元町二丁目","koaza":"","lat":35.431176,"lng":139.611645},{"town":"宿町二丁目","koaza":"","lat":35.431809,"lng":139.611024},{"town":"蒔田町","koaza":"","lat":35.425948,"lng":139.611602},{"town":"共進町三丁目","koaza":"","lat":35.42947,"lng":139.610856},{"town":"花之木町二丁目","koaza":"","lat":35.432653,"lng":139.609833},{"town":"宿町三丁目","koaza":"","lat":35.430463,"lng":139.609146},{"town":"花之木町三丁目","koaza":"","lat":35.430958,"lng":139.608469},{"town":"通町一丁目","koaza":"","lat":35.428268,"lng":139.606941},{"town":"宮元町四丁目","koaza":"","lat":35.428613,"lng":139.608533},{"town":"宿町四丁目","koaza":"","lat":35.429722,"lng":139.608046},{"town":"大橋町二丁目","koaza":"","lat":35.426855,"lng":139.601743},{"town":"大橋町三丁目","koaza":"","lat":35.424841,"lng":139.600813},{"town":"若宮町二丁目","koaza":"","lat":35.42658,"lng":139.605991},{"town":"若宮町一丁目","koaza":"","lat":35.427278,"lng":139.607148},{"town":"西中町四丁目","koaza":"","lat":35.438973,"lng":139.617206},{"town":"南太田三丁目","koaza":"","lat":35.434857,"lng":139.604919},{"town":"井土ケ谷下町","koaza":"","lat":35.431751,"lng":139.605684},{"town":"南太田二丁目","koaza":"","lat":35.434928,"lng":139.608776},{"town":"三春台","koaza":"","lat":35.441559,"lng":139.617248},{"town":"伏見町","koaza":"","lat":35.443305,"lng":139.613429},{"town":"通町二丁目","koaza":"","lat":35.427083,"lng":139.605313},{"town":"中島町二丁目","koaza":"","lat":35.427645,"lng":139.604691},{"town":"中島町四丁目","koaza":"","lat":35.424532,"lng":139.601743},{"town":"中島町三丁目","koaza":"","lat":35.426432,"lng":139.602956},{"town":"若宮町四丁目","koaza":"","lat":35.424282,"lng":139.603892},{"town":"永田山王台","koaza":"","lat":35.428345,"lng":139.588842},{"town":"六ツ川一丁目","koaza":"","lat":35.425166,"lng":139.59029},{"town":"宿町一丁目","koaza":"","lat":35.433728,"lng":139.613588},{"town":"井土ケ谷中町","koaza":"","lat":35.430925,"lng":139.602162},{"town":"南吉田町五丁目","koaza":"","lat":35.435864,"lng":139.616087},{"town":"二葉町二丁目","koaza":"","lat":35.43469,"lng":139.62081},{"town":"永田南二丁目","koaza":"","lat":35.430124,"lng":139.591491},{"town":"永田南一丁目","koaza":"","lat":35.429072,"lng":139.595902},{"town":"弘明寺町","koaza":"","lat":35.424469,"lng":139.597648},{"town":"南太田一丁目","koaza":"","lat":35.436835,"lng":139.612496},{"town":"山王町五丁目","koaza":"","lat":35.435338,"lng":139.616036},{"town":"清水ケ丘","koaza":"","lat":35.439793,"lng":139.60784},{"town":"永田東一丁目","koaza":"","lat":35.433525,"lng":139.597387},{"town":"庚台","koaza":"","lat":35.440965,"lng":139.612707},{"town":"永田東三丁目","koaza":"","lat":35.438162,"lng":139.598089},{"town":"永田台","koaza":"","lat":35.433493,"lng":139.584075},{"town":"南太田四丁目","koaza":"","lat":35.436592,"lng":139.601474},{"town":"永田みなみ台","koaza":"","lat":35.431906,"lng":139.588763},{"town":"永田東二丁目","koaza":"","lat":35.435131,"lng":139.594599},{"town":"永田北一丁目","koaza":"","lat":35.439781,"lng":139.593232},{"town":"永田北二丁目","koaza":"","lat":35.436318,"lng":139.589879},{"town":"永田北三丁目","koaza":"","lat":35.438277,"lng":139.586412},{"town":"六ツ川三丁目","koaza":"","lat":35.428994,"lng":139.580389},{"town":"六ツ川四丁目","koaza":"","lat":35.423775,"lng":139.573721},{"town":"弘明寺町","koaza":"山下","lat":35.424293,"lng":139.597419},{"town":"弘明寺町","koaza":"北ノ前","lat":35.426602,"lng":139.599991},{"town":"蒔田町","koaza":"原","lat":35.427913,"lng":139.609643},{"town":"蒔田町","koaza":"会下","lat":35.425727,"lng":139.610413},{"town":"蒔田町","koaza":"東谷","lat":35.428504,"lng":139.612865},{"town":"蒔田町","koaza":"谷戸田上","lat":35.425281,"lng":139.61289},{"town":"蒔田町","koaza":"三度台","lat":35.424295,"lng":139.614146},{"town":"蒔田町","koaza":"西","lat":35.427471,"lng":139.6081},{"town":"蒔田町","koaza":"山ノ根","lat":35.428435,"lng":139.61039},{"town":"蒔田町","koaza":"伊勢山","lat":35.428499,"lng":139.61427}]