[{"town":"相生町一丁目","koaza":"","lat":35.445792,"lng":139.639661},{"town":"相生町二丁目","koaza":"","lat":35.446395,"lng":139.638558},{"town":"相生町三丁目","koaza":"","lat":35.446943,"lng":139.637552},{"town":"相生町四丁目","koaza":"","lat":35.447472,"lng":139.636533},{"town":"相生町五丁目","koaza":"","lat":35.448034,"lng":139.63548},{"town":"相生町六丁目","koaza":"","lat":35.448915,"lng":139.633912},{"town":"赤門町一丁目","koaza":"","lat":35.442198,"lng":139.622441},{"town":"曙町一丁目","koaza":"","lat":35.441403,"lng":139.630287},{"town":"曙町二丁目","koaza":"","lat":35.440669,"lng":139.629129},{"town":"曙町三丁目","koaza":"","lat":35.439694,"lng":139.627638},{"town":"曙町四丁目","koaza":"","lat":35.438668,"lng":139.625938},{"town":"曙町五丁目","koaza":"","lat":35.437405,"lng":139.623167},{"town":"池袋","koaza":"","lat":35.420589,"lng":139.648926},{"town":"石川町一丁目","koaza":"","lat":35.437669,"lng":139.644944},{"town":"石川町二丁目","koaza":"","lat":35.437498,"lng":139.643066},{"town":"石川町三丁目","koaza":"","lat":35.436182,"lng":139.641872},{"town":"石川町四丁目","koaza":"","lat":35.43674,"lng":139.639449},{"town":"石川町五丁目","koaza":"","lat":35.436131,"lng":139.637706},{"town":"伊勢佐木町一丁目","koaza":"","lat":35.444763,"lng":139.633314},{"town":"伊勢佐木町二丁目","koaza":"","lat":35.443468,"lng":139.631099},{"town":"伊勢佐木町三丁目","koaza":"","lat":35.442173,"lng":139.629846},{"town":"伊勢佐木町四丁目","koaza":"","lat":35.441284,"lng":139.628593},{"town":"伊勢佐木町五丁目","koaza":"","lat":35.440252,"lng":139.627348},{"town":"伊勢佐木町六丁目","koaza":"","lat":35.4391,"lng":139.625366},{"town":"伊勢佐木町七丁目","koaza":"","lat":35.438089,"lng":139.623352},{"town":"上野町一丁目","koaza":"","lat":35.432107,"lng":139.650952},{"town":"上野町二丁目","koaza":"","lat":35.432464,"lng":139.652804},{"town":"上野町三丁目","koaza":"","lat":35.43403,"lng":139.651354},{"town":"上野町四丁目","koaza":"","lat":35.435741,"lng":139.649861},{"town":"打越","koaza":"","lat":35.434276,"lng":139.638054},{"town":"内田町","koaza":"","lat":35.453608,"lng":139.631162},{"town":"扇町一丁目","koaza":"","lat":35.441459,"lng":139.639454},{"town":"扇町二丁目","koaza":"","lat":35.440558,"lng":139.638837},{"town":"扇町三丁目","koaza":"","lat":35.43982,"lng":139.637737},{"town":"扇町四丁目","koaza":"","lat":35.438699,"lng":139.636799},{"town":"大芝台","koaza":"","lat":35.427202,"lng":139.633059},{"town":"太田町一丁目","koaza":"","lat":35.446251,"lng":139.63998},{"town":"太田町二丁目","koaza":"","lat":35.44683,"lng":139.63889},{"town":"太田町三丁目","koaza":"","lat":35.447376,"lng":139.637877},{"town":"太田町四丁目","koaza":"","lat":35.447913,"lng":139.63684},{"town":"太田町五丁目","koaza":"","lat":35.448465,"lng":139.635783},{"town":"太田町六丁目","koaza":"","lat":35.44915,"lng":139.634524},{"town":"大平町","koaza":"","lat":35.428972,"lng":139.634997},{"town":"翁町一丁目","koaza":"","lat":35.441547,"lng":139.638084},{"town":"翁町二丁目","koaza":"","lat":35.439906,"lng":139.636331},{"town":"尾上町一丁目","koaza":"","lat":35.444339,"lng":139.63843},{"town":"尾上町二丁目","koaza":"","lat":35.444941,"lng":139.637349},{"town":"尾上町三丁目","koaza":"","lat":35.445495,"lng":139.636374},{"town":"尾上町四丁目","koaza":"","lat":35.44603,"lng":139.635396},{"town":"尾上町五丁目","koaza":"","lat":35.446785,"lng":139.634204},{"town":"尾上町六丁目","koaza":"","lat":35.447894,"lng":139.633232},{"town":"海岸通一丁目","koaza":"","lat":35.450535,"lng":139.646834},{"town":"海岸通二丁目","koaza":"","lat":35.449546,"lng":139.641132},{"town":"海岸通三丁目","koaza":"","lat":35.450177,"lng":139.639943},{"town":"海岸通四丁目","koaza":"","lat":35.450922,"lng":139.638934},{"town":"海岸通五丁目","koaza":"","lat":35.451842,"lng":139.637483},{"town":"柏葉","koaza":"","lat":35.432118,"lng":139.64301},{"town":"かもめ町","koaza":"","lat":35.41373,"lng":139.673454},{"town":"北方町一丁目","koaza":"","lat":35.433727,"lng":139.658586},{"town":"北方町二丁目","koaza":"","lat":35.431604,"lng":139.661613},{"town":"北仲通一丁目","koaza":"","lat":35.448044,"lng":139.641408},{"town":"北仲通二丁目","koaza":"","lat":35.448632,"lng":139.640321},{"town":"北仲通三丁目","koaza":"","lat":35.44918,"lng":139.639239},{"town":"北仲通四丁目","koaza":"","lat":35.449733,"lng":139.638136},{"town":"北仲通五丁目","koaza":"","lat":35.45086,"lng":139.636626},{"town":"北仲通六丁目","koaza":"","lat":35.451553,"lng":139.63467},{"town":"黄金町一丁目","koaza":"","lat":35.441578,"lng":139.625754},{"town":"黄金町二丁目","koaza":"","lat":35.440551,"lng":139.624493},{"town":"寿町一丁目","koaza":"","lat":35.440684,"lng":139.640644},{"town":"寿町二丁目","koaza":"","lat":35.439662,"lng":139.639652},{"town":"寿町三丁目","koaza":"","lat":35.438983,"lng":139.638677},{"town":"寿町四丁目","koaza":"","lat":35.437997,"lng":139.637783},{"town":"小港町一丁目","koaza":"","lat":35.433471,"lng":139.663533},{"town":"小港町二丁目","koaza":"","lat":35.430333,"lng":139.665073},{"town":"小港町三丁目","koaza":"","lat":35.430468,"lng":139.663617},{"town":"鷺山","koaza":"","lat":35.431929,"lng":139.646571},{"town":"桜木町一丁目","koaza":"","lat":35.452155,"lng":139.631304},{"town":"桜木町二丁目","koaza":"","lat":35.450534,"lng":139.630324},{"town":"桜木町三丁目","koaza":"","lat":35.451673,"lng":139.629405},{"town":"新港一丁目","koaza":"","lat":35.453595,"lng":139.642285},{"town":"新港二丁目","koaza":"","lat":35.45505,"lng":139.638554},{"town":"新山下一丁目","koaza":"","lat":35.44137,"lng":139.658001},{"town":"新山下二丁目","koaza":"","lat":35.438791,"lng":139.659638},{"town":"新山下三丁目","koaza":"","lat":35.438364,"lng":139.663412},{"town":"末広町一丁目","koaza":"","lat":35.444793,"lng":139.634174},{"town":"末広町二丁目","koaza":"","lat":35.444016,"lng":139.633093},{"town":"末広町三丁目","koaza":"","lat":35.443301,"lng":139.632102},{"town":"末吉町一丁目","koaza":"","lat":35.442771,"lng":139.627669},{"town":"末吉町二丁目","koaza":"","lat":35.441098,"lng":139.626335},{"town":"末吉町三丁目","koaza":"","lat":35.43995,"lng":139.625149},{"town":"末吉町四丁目","koaza":"","lat":35.438708,"lng":139.622845},{"town":"住吉町一丁目","koaza":"","lat":35.445338,"lng":139.639258},{"town":"住吉町二丁目","koaza":"","lat":35.445936,"lng":139.63819},{"town":"住吉町三丁目","koaza":"","lat":35.446482,"lng":139.637193},{"town":"住吉町四丁目","koaza":"","lat":35.447007,"lng":139.636208},{"town":"住吉町五丁目","koaza":"","lat":35.447605,"lng":139.635162},{"town":"住吉町六丁目","koaza":"","lat":35.448416,"lng":139.633948},{"town":"諏訪町","koaza":"","lat":35.436795,"lng":139.653511},{"town":"滝之上","koaza":"","lat":35.42218,"lng":139.641804},{"town":"竹之丸","koaza":"","lat":35.429275,"lng":139.643718},{"town":"立野","koaza":"","lat":35.428879,"lng":139.648318},{"town":"千歳町","koaza":"","lat":35.437345,"lng":139.634118},{"town":"千鳥町","koaza":"","lat":35.412696,"lng":139.645848},{"town":"長者町一丁目","koaza":"","lat":35.4379,"lng":139.636333},{"town":"長者町二丁目","koaza":"","lat":35.438838,"lng":139.635234},{"town":"長者町三丁目","koaza":"","lat":35.439606,"lng":139.634184},{"town":"長者町四丁目","koaza":"","lat":35.440529,"lng":139.63336},{"town":"長者町五丁目","koaza":"","lat":35.441482,"lng":139.632139},{"town":"長者町六丁目","koaza":"","lat":35.442422,"lng":139.631346},{"town":"長者町七丁目","koaza":"","lat":35.442905,"lng":139.630333},{"town":"長者町八丁目","koaza":"","lat":35.443628,"lng":139.629561},{"town":"長者町九丁目","koaza":"","lat":35.444404,"lng":139.628569},{"town":"千代崎町一丁目","koaza":"","lat":35.434147,"lng":139.652788},{"town":"千代崎町二丁目","koaza":"","lat":35.43415,"lng":139.653965},{"town":"千代崎町三丁目","koaza":"","lat":35.434063,"lng":139.655223},{"town":"千代崎町四丁目","koaza":"","lat":35.433596,"lng":139.656534},{"town":"塚越","koaza":"","lat":35.424045,"lng":139.630706},{"town":"寺久保","koaza":"","lat":35.421513,"lng":139.632578},{"town":"常盤町一丁目","koaza":"","lat":35.444897,"lng":139.638893},{"town":"常盤町二丁目","koaza":"","lat":35.445474,"lng":139.637808},{"town":"常盤町三丁目","koaza":"","lat":35.446013,"lng":139.636818},{"town":"常盤町四丁目","koaza":"","lat":35.446524,"lng":139.635852},{"town":"常盤町五丁目","koaza":"","lat":35.447201,"lng":139.634802},{"town":"常盤町六丁目","koaza":"","lat":35.448205,"lng":139.633642},{"town":"豊浦町","koaza":"","lat":35.408973,"lng":139.671255},{"town":"仲尾台","koaza":"","lat":35.424992,"lng":139.644391},{"town":"錦町","koaza":"","lat":35.422175,"lng":139.673702},{"town":"西竹之丸","koaza":"","lat":35.42884,"lng":139.640322},{"town":"西之谷町","koaza":"","lat":35.428946,"lng":139.650699},{"town":"日本大通","koaza":"","lat":35.446371,"lng":139.642363},{"town":"根岸旭台","koaza":"","lat":35.419848,"lng":139.636508},{"town":"根岸加曽台","koaza":"","lat":35.42019,"lng":139.644923},{"town":"根岸台","koaza":"","lat":35.422934,"lng":139.63831},{"town":"根岸町一丁目","koaza":"","lat":35.419295,"lng":139.647029},{"town":"根岸町二丁目","koaza":"","lat":35.418545,"lng":139.643513},{"town":"根岸町三丁目","koaza":"","lat":35.418231,"lng":139.64041},{"town":"野毛町一丁目","koaza":"","lat":35.447599,"lng":139.630535},{"town":"野毛町二丁目","koaza":"","lat":35.448017,"lng":139.629493},{"town":"野毛町三丁目","koaza":"","lat":35.448489,"lng":139.628434},{"town":"野毛町四丁目","koaza":"","lat":35.448606,"lng":139.626997},{"town":"羽衣町一丁目","koaza":"","lat":35.444356,"lng":139.634819},{"town":"羽衣町二丁目","koaza":"","lat":35.443489,"lng":139.633665},{"town":"羽衣町三丁目","koaza":"","lat":35.442743,"lng":139.63256},{"town":"初音町一丁目","koaza":"","lat":35.442141,"lng":139.624933},{"town":"初音町二丁目","koaza":"","lat":35.441555,"lng":139.624411},{"town":"初音町三丁目","koaza":"","lat":35.440799,"lng":139.623588},{"town":"花咲町一丁目","koaza":"","lat":35.448401,"lng":139.631375},{"town":"花咲町二丁目","koaza":"","lat":35.449965,"lng":139.629332},{"town":"花咲町三丁目","koaza":"","lat":35.451104,"lng":139.628817},{"town":"英町","koaza":"","lat":35.441864,"lng":139.623553},{"town":"万代町一丁目","koaza":"","lat":35.442845,"lng":139.636465},{"town":"万代町二丁目","koaza":"","lat":35.442024,"lng":139.63529},{"town":"万代町三丁目","koaza":"","lat":35.441145,"lng":139.634183},{"town":"日ノ出町一丁目","koaza":"","lat":35.444881,"lng":139.626962},{"town":"日ノ出町二丁目","koaza":"","lat":35.443018,"lng":139.62576},{"town":"福富町仲通","koaza":"","lat":35.445055,"lng":139.63125},{"town":"福富町西通","koaza":"","lat":35.445811,"lng":139.630352},{"town":"福富町東通","koaza":"","lat":35.444656,"lng":139.632017},{"town":"富士見町","koaza":"","lat":35.439176,"lng":139.631914},{"town":"不老町一丁目","koaza":"","lat":35.442274,"lng":139.637314},{"town":"不老町二丁目","koaza":"","lat":35.441226,"lng":139.636367},{"town":"不老町三丁目","koaza":"","lat":35.440492,"lng":139.635337},{"town":"弁天通一丁目","koaza":"","lat":35.446697,"lng":139.640327},{"town":"弁天通二丁目","koaza":"","lat":35.447272,"lng":139.639233},{"town":"弁天通三丁目","koaza":"","lat":35.447807,"lng":139.638208},{"town":"弁天通四丁目","koaza":"","lat":35.448344,"lng":139.637133},{"town":"弁天通五丁目","koaza":"","lat":35.448865,"lng":139.636055},{"town":"弁天通六丁目","koaza":"","lat":35.449353,"lng":139.635124},{"town":"蓬莱町一丁目","koaza":"","lat":35.443458,"lng":139.635668},{"town":"蓬莱町二丁目","koaza":"","lat":35.442714,"lng":139.63454},{"town":"蓬莱町三丁目","koaza":"","lat":35.441964,"lng":139.633422},{"town":"本郷町一丁目","koaza":"","lat":35.432415,"lng":139.654537},{"town":"本郷町二丁目","koaza":"","lat":35.432287,"lng":139.656121},{"town":"本郷町三丁目","koaza":"","lat":35.429083,"lng":139.654824},{"town":"本町一丁目","koaza":"","lat":35.447607,"lng":139.641055},{"town":"本町二丁目","koaza":"","lat":35.448192,"lng":139.639983},{"town":"本町三丁目","koaza":"","lat":35.448751,"lng":139.638933},{"town":"本町四丁目","koaza":"","lat":35.449323,"lng":139.637833},{"town":"本町五丁目","koaza":"","lat":35.450025,"lng":139.636455},{"town":"本町六丁目","koaza":"","lat":35.450416,"lng":139.634557},{"town":"本牧荒井","koaza":"","lat":35.422081,"lng":139.653879},{"town":"本牧大里町","koaza":"","lat":35.416257,"lng":139.662678},{"town":"本牧三之谷","koaza":"","lat":35.417985,"lng":139.659797},{"town":"本牧十二天","koaza":"","lat":35.430745,"lng":139.666926},{"town":"本牧町一丁目","koaza":"","lat":35.429496,"lng":139.658658},{"town":"本牧町二丁目","koaza":"","lat":35.428216,"lng":139.660457},{"town":"本牧原","koaza":"","lat":35.425177,"lng":139.66725},{"town":"本牧ふ頭","koaza":"","lat":35.435525,"lng":139.672692},{"town":"本牧間門","koaza":"","lat":35.419016,"lng":139.653948},{"town":"本牧満坂","koaza":"","lat":35.425176,"lng":139.654697},{"town":"本牧緑ケ丘","koaza":"","lat":35.424289,"lng":139.651495},{"town":"本牧宮原","koaza":"","lat":35.428464,"lng":139.664014},{"town":"本牧元町","koaza":"","lat":35.417613,"lng":139.667647},{"town":"本牧和田","koaza":"","lat":35.422774,"lng":139.661154},{"town":"真砂町一丁目","koaza":"","lat":35.443762,"lng":139.637927},{"town":"真砂町二丁目","koaza":"","lat":35.44442,"lng":139.636846},{"town":"真砂町三丁目","koaza":"","lat":35.445026,"lng":139.635934},{"town":"真砂町四丁目","koaza":"","lat":35.445653,"lng":139.634993},{"town":"松影町一丁目","koaza":"","lat":35.439949,"lng":139.641464},{"town":"松影町二丁目","koaza":"","lat":35.438666,"lng":139.640664},{"town":"松影町三丁目","koaza":"","lat":35.438196,"lng":139.639557},{"town":"松影町四丁目","koaza":"","lat":35.437619,"lng":139.638778},{"town":"豆口台","koaza":"","lat":35.423059,"lng":139.645309},{"town":"港町一丁目","koaza":"","lat":35.443302,"lng":139.637573},{"town":"港町二丁目","koaza":"","lat":35.444026,"lng":139.636412},{"town":"港町三丁目","koaza":"","lat":35.444672,"lng":139.635577},{"town":"港町四丁目","koaza":"","lat":35.445376,"lng":139.634778},{"town":"港町五丁目","koaza":"","lat":35.446419,"lng":139.633855},{"town":"港町六丁目","koaza":"","lat":35.447623,"lng":139.632771},{"town":"南仲通一丁目","koaza":"","lat":35.447134,"lng":139.640677},{"town":"南仲通二丁目","koaza":"","lat":35.447711,"lng":139.639596},{"town":"南仲通三丁目","koaza":"","lat":35.448263,"lng":139.638565},{"town":"南仲通四丁目","koaza":"","lat":35.448819,"lng":139.637465},{"town":"南仲通五丁目","koaza":"","lat":35.449248,"lng":139.636323},{"town":"南本牧","koaza":"","lat":35.405665,"lng":139.685397},{"town":"簑沢","koaza":"","lat":35.424858,"lng":139.635036},{"town":"宮川町一丁目","koaza":"","lat":35.446302,"lng":139.629553},{"town":"宮川町二丁目","koaza":"","lat":35.446546,"lng":139.628742},{"town":"宮川町三丁目","koaza":"","lat":35.446781,"lng":139.627285},{"town":"妙香寺台","koaza":"","lat":35.433836,"lng":139.649575},{"town":"三吉町","koaza":"","lat":35.436852,"lng":139.634538},{"town":"麦田町一丁目","koaza":"","lat":35.434227,"lng":139.646231},{"town":"麦田町二丁目","koaza":"","lat":35.43352,"lng":139.647583},{"town":"麦田町三丁目","koaza":"","lat":35.432737,"lng":139.647986},{"town":"麦田町四丁目","koaza":"","lat":35.432553,"lng":139.649425},{"town":"元浜町一丁目","koaza":"","lat":35.44842,"lng":139.641714},{"town":"元浜町二丁目","koaza":"","lat":35.448994,"lng":139.640592},{"town":"元浜町三丁目","koaza":"","lat":35.449544,"lng":139.639489},{"town":"元浜町四丁目","koaza":"","lat":35.450084,"lng":139.638396},{"town":"元町一丁目","koaza":"","lat":35.439668,"lng":139.650644},{"town":"元町二丁目","koaza":"","lat":35.439771,"lng":139.649563},{"town":"元町三丁目","koaza":"","lat":35.439355,"lng":139.648134},{"town":"元町四丁目","koaza":"","lat":35.439616,"lng":139.647243},{"town":"元町五丁目","koaza":"","lat":35.438499,"lng":139.646083},{"town":"矢口台","koaza":"","lat":35.423778,"lng":139.648202},{"town":"山下町","koaza":"","lat":35.446005,"lng":139.656952},{"town":"山田町","koaza":"","lat":35.438282,"lng":139.633335},{"town":"山手町","koaza":"","lat":35.437172,"lng":139.648825},{"town":"大和町一丁目","koaza":"","lat":35.430885,"lng":139.648403},{"town":"大和町二丁目","koaza":"","lat":35.428862,"lng":139.646949},{"town":"山吹町","koaza":"","lat":35.440075,"lng":139.631641},{"town":"山元町一丁目","koaza":"","lat":35.431826,"lng":139.639514},{"town":"山元町二丁目","koaza":"","lat":35.430445,"lng":139.638131},{"town":"山元町三丁目","koaza":"","lat":35.428314,"lng":139.638163},{"town":"山元町四丁目","koaza":"","lat":35.426658,"lng":139.639522},{"town":"山元町五丁目","koaza":"","lat":35.425014,"lng":139.641647},{"town":"弥生町一丁目","koaza":"","lat":35.440508,"lng":139.630853},{"town":"弥生町二丁目","koaza":"","lat":35.440084,"lng":139.629806},{"town":"弥生町三丁目","koaza":"","lat":35.4391,"lng":139.627787},{"town":"弥生町四丁目","koaza":"","lat":35.43814,"lng":139.626028},{"town":"弥生町五丁目","koaza":"","lat":35.437433,"lng":139.624382},{"town":"横浜公園","koaza":"","lat":35.443569,"lng":139.640159},{"town":"吉田町","koaza":"","lat":35.446497,"lng":139.632478},{"town":"吉浜町","koaza":"","lat":35.439301,"lng":139.6431},{"town":"若葉町一丁目","koaza":"","lat":35.44276,"lng":139.629202},{"town":"若葉町二丁目","koaza":"","lat":35.44186,"lng":139.628322},{"town":"若葉町三丁目","koaza":"","lat":35.440652,"lng":139.626918},{"town":"和田山","koaza":"","lat":35.425331,"lng":139.662915}]