[{"town":"長井三丁目","koaza":"","lat":"35.206801","lng":"139.617916"},{"town":"湘南国際村三丁目","koaza":"","lat":"35.254110","lng":"139.622454"},{"town":"長坂二丁目","koaza":"","lat":"35.224554","lng":"139.623397"},{"town":"芦名三丁目","koaza":"","lat":"35.246615","lng":"139.627156"},{"town":"長坂四丁目","koaza":"","lat":"35.232679","lng":"139.624022"},{"town":"長井二丁目","koaza":"","lat":"35.196802","lng":"139.619518"},{"town":"鴨居四丁目","koaza":"","lat":"35.255571","lng":"139.742369"},{"town":"浦賀二丁目","koaza":"","lat":"35.252981","lng":"139.706779"},{"town":"桜が丘二丁目","koaza":"","lat":"35.255851","lng":"139.706358"},{"town":"池田町三丁目","koaza":"","lat":"35.249366","lng":"139.695806"},{"town":"浦賀一丁目","koaza":"","lat":"35.254075","lng":"139.710279"},{"town":"根岸町三丁目","koaza":"","lat":"35.250251","lng":"139.683935"},{"town":"二葉一丁目","koaza":"","lat":"35.253131","lng":"139.720430"},{"town":"浦上台三丁目","koaza":"","lat":"35.254492","lng":"139.715319"},{"town":"阿部倉","koaza":"","lat":"35.256444","lng":"139.634565"},{"town":"小原台","koaza":"","lat":"35.254521","lng":"139.726619"},{"town":"鴨居三丁目","koaza":"","lat":"35.253352","lng":"139.735467"},{"town":"浦上台二丁目","koaza":"","lat":"35.253777","lng":"139.712385"},{"town":"浦賀三丁目","koaza":"","lat":"35.250981","lng":"139.711159"},{"town":"吉井四丁目","koaza":"","lat":"35.250370","lng":"139.705344"},{"town":"桜が丘一丁目","koaza":"","lat":"35.255719","lng":"139.700613"},{"town":"公郷町四丁目","koaza":"","lat":"35.256010","lng":"139.675563"},{"town":"公郷町一丁目","koaza":"","lat":"35.253192","lng":"139.674584"},{"town":"平作二丁目","koaza":"","lat":"35.253261","lng":"139.655076"},{"town":"小矢部二丁目","koaza":"","lat":"35.253368","lng":"139.661736"},{"town":"平作六丁目","koaza":"","lat":"35.255092","lng":"139.648890"},{"town":"平作三丁目","koaza":"","lat":"35.251234","lng":"139.647770"},{"town":"池田町一丁目","koaza":"","lat":"35.254470","lng":"139.694602"},{"town":"根岸町四丁目","koaza":"","lat":"35.253977","lng":"139.679880"},{"town":"小矢部一丁目","koaza":"","lat":"35.252783","lng":"139.669131"},{"town":"平作四丁目","koaza":"","lat":"35.251694","lng":"139.639746"},{"town":"秋谷","koaza":"","lat":"35.250050","lng":"139.595947"},{"town":"鷹取一丁目","koaza":"","lat":"35.315138","lng":"139.621717"},{"town":"子安","koaza":"","lat":"35.248263","lng":"139.607491"},{"town":"湘南国際村二丁目","koaza":"","lat":"35.253794","lng":"139.615010"},{"town":"湘南国際村一丁目","koaza":"","lat":"35.254549","lng":"139.607001"},{"town":"追浜南町二丁目","koaza":"","lat":"35.310675","lng":"139.621919"},{"town":"田浦大作町","koaza":"","lat":"35.284929","lng":"139.626135"},{"town":"船越町四丁目","koaza":"","lat":"35.302615","lng":"139.621504"},{"town":"船越町三丁目","koaza":"","lat":"35.298617","lng":"139.621102"},{"town":"鷹取二丁目","koaza":"","lat":"35.315336","lng":"139.617229"},{"town":"田浦町四丁目","koaza":"","lat":"35.291419","lng":"139.626009"},{"town":"湘南鷹取二丁目","koaza":"","lat":"35.306549","lng":"139.620985"},{"town":"湘南鷹取一丁目","koaza":"","lat":"35.311179","lng":"139.618635"},{"town":"船越町二丁目","koaza":"","lat":"35.296904","lng":"139.622972"},{"town":"光風台","koaza":"","lat":"35.238710","lng":"139.710966"},{"town":"長沢六丁目","koaza":"","lat":"35.218564","lng":"139.676858"},{"town":"津久井二丁目","koaza":"","lat":"35.199453","lng":"139.669538"},{"town":"長沢二丁目","koaza":"","lat":"35.206947","lng":"139.680942"},{"town":"長沢四丁目","koaza":"","lat":"35.210031","lng":"139.678942"},{"town":"グリーンハイツ","koaza":"","lat":"35.205615","lng":"139.670824"},{"town":"津久井一丁目","koaza":"","lat":"35.195982","lng":"139.664972"},{"town":"津久井三丁目","koaza":"","lat":"35.203285","lng":"139.665729"},{"town":"山科台","koaza":"","lat":"35.236210","lng":"139.656051"},{"town":"長沢三丁目","koaza":"","lat":"35.211733","lng":"139.682385"},{"town":"野比二丁目","koaza":"","lat":"35.210330","lng":"139.688024"},{"town":"野比三丁目","koaza":"","lat":"35.213579","lng":"139.691681"},{"town":"野比五丁目","koaza":"","lat":"35.214105","lng":"139.706455"},{"town":"野比四丁目","koaza":"","lat":"35.216801","lng":"139.696178"},{"town":"池田町六丁目","koaza":"","lat":"35.248892","lng":"139.690455"},{"town":"津久井四丁目","koaza":"","lat":"35.201579","lng":"139.661372"},{"town":"若宮台","koaza":"","lat":"35.237235","lng":"139.705134"},{"town":"舟倉二丁目","koaza":"","lat":"35.241046","lng":"139.698981"},{"town":"森崎六丁目","koaza":"","lat":"35.248518","lng":"139.671789"},{"town":"西浦賀四丁目","koaza":"","lat":"35.235670","lng":"139.722760"},{"town":"西浦賀六丁目","koaza":"","lat":"35.230040","lng":"139.726069"},{"town":"長瀬三丁目","koaza":"","lat":"35.227960","lng":"139.722078"},{"town":"久里浜九丁目","koaza":"","lat":"35.214513","lng":"139.718144"},{"town":"久里浜八丁目","koaza":"","lat":"35.220374","lng":"139.711982"},{"town":"長瀬一丁目","koaza":"","lat":"35.228292","lng":"139.714709"},{"town":"久里浜台二丁目","koaza":"","lat":"35.234206","lng":"139.714959"},{"town":"神明町","koaza":"","lat":"35.221592","lng":"139.703400"},{"town":"野比一丁目","koaza":"","lat":"35.217116","lng":"139.685428"},{"town":"ハイランド一丁目","koaza":"","lat":"35.220884","lng":"139.691466"},{"town":"ハイランド二丁目","koaza":"","lat":"35.221811","lng":"139.686355"},{"town":"久里浜五丁目","koaza":"","lat":"35.229269","lng":"139.704949"},{"town":"久里浜七丁目","koaza":"","lat":"35.225483","lng":"139.712035"},{"town":"久里浜六丁目","koaza":"","lat":"35.227390","lng":"139.707858"},{"town":"久村","koaza":"","lat":"35.229849","lng":"139.690779"},{"town":"久里浜二丁目","koaza":"","lat":"35.229172","lng":"139.698913"},{"town":"久里浜四丁目","koaza":"","lat":"35.230056","lng":"139.702971"},{"town":"久比里一丁目","koaza":"","lat":"35.234838","lng":"139.706938"},{"town":"佐原四丁目","koaza":"","lat":"35.236069","lng":"139.685561"},{"town":"久里浜三丁目","koaza":"","lat":"35.224823","lng":"139.697551"},{"town":"ハイランド四丁目","koaza":"","lat":"35.225323","lng":"139.691569"},{"town":"ハイランド五丁目","koaza":"","lat":"35.222915","lng":"139.694701"},{"town":"光の丘","koaza":"","lat":"35.224619","lng":"139.670909"},{"town":"内川新田","koaza":"","lat":"35.231913","lng":"139.696016"},{"town":"粟田一丁目","koaza":"","lat":"35.228718","lng":"139.678854"},{"town":"岩戸三丁目","koaza":"","lat":"35.230521","lng":"139.672767"},{"town":"岩戸二丁目","koaza":"","lat":"35.230828","lng":"139.677029"},{"town":"長沢五丁目","koaza":"","lat":"35.217781","lng":"139.668601"},{"town":"大矢部五丁目","koaza":"","lat":"35.238957","lng":"139.666570"},{"town":"長沢一丁目","koaza":"","lat":"35.206544","lng":"139.676031"},{"town":"津久井五丁目","koaza":"","lat":"35.212222","lng":"139.663172"},{"town":"岩戸五丁目","koaza":"","lat":"35.229998","lng":"139.666234"},{"town":"長井一丁目","koaza":"","lat":"35.203727","lng":"139.627061"},{"town":"須軽谷","koaza":"","lat":"35.211445","lng":"139.649197"},{"town":"林一丁目","koaza":"","lat":"35.221923","lng":"139.640405"},{"town":"武五丁目","koaza":"","lat":"35.228886","lng":"139.649597"},{"town":"武二丁目","koaza":"","lat":"35.229255","lng":"139.651525"},{"town":"御幸浜","koaza":"","lat":"35.214639","lng":"139.630254"},{"town":"太田和二丁目","koaza":"","lat":"35.223744","lng":"139.632178"},{"town":"荻野","koaza":"","lat":"35.228679","lng":"139.631387"},{"town":"林五丁目","koaza":"","lat":"35.212237","lng":"139.636015"},{"town":"林二丁目","koaza":"","lat":"35.217905","lng":"139.635641"},{"town":"林四丁目","koaza":"","lat":"35.214173","lng":"139.638655"},{"town":"林三丁目","koaza":"","lat":"35.215572","lng":"139.644538"},{"town":"武三丁目","koaza":"","lat":"35.221103","lng":"139.647092"},{"town":"鴨居二丁目","koaza":"","lat":"35.244799","lng":"139.729413"},{"town":"南浦賀","koaza":"","lat":"35.237850","lng":"139.714880"},{"town":"久比里二丁目","koaza":"","lat":"35.232547","lng":"139.710785"},{"town":"浦賀丘三丁目","koaza":"","lat":"35.242707","lng":"139.715867"},{"town":"久里浜台一丁目","koaza":"","lat":"35.235586","lng":"139.713223"},{"town":"東浦賀二丁目","koaza":"","lat":"35.242631","lng":"139.723461"},{"town":"武一丁目","koaza":"","lat":"35.226995","lng":"139.654623"},{"town":"大矢部六丁目","koaza":"","lat":"35.233932","lng":"139.663057"},{"town":"二葉二丁目","koaza":"","lat":"35.248129","lng":"139.721725"},{"town":"長瀬二丁目","koaza":"","lat":"35.230901","lng":"139.719729"},{"town":"西浦賀五丁目","koaza":"","lat":"35.235708","lng":"139.718525"},{"town":"西浦賀二丁目","koaza":"","lat":"35.239885","lng":"139.717244"},{"town":"浦賀丘一丁目","koaza":"","lat":"35.243463","lng":"139.708988"},{"town":"浦賀丘二丁目","koaza":"","lat":"35.243553","lng":"139.712093"},{"town":"鴨居一丁目","koaza":"","lat":"35.249795","lng":"139.727257"},{"town":"東浦賀一丁目","koaza":"","lat":"35.247994","lng":"139.718206"},{"town":"吉井一丁目","koaza":"","lat":"35.243053","lng":"139.703168"},{"town":"西浦賀三丁目","koaza":"","lat":"35.240931","lng":"139.711996"},{"town":"浦賀六丁目","koaza":"","lat":"35.244868","lng":"139.707827"},{"town":"長坂一丁目","koaza":"","lat":"35.222414","lng":"139.627761"},{"town":"長坂三丁目","koaza":"","lat":"35.229218","lng":"139.626919"},{"town":"太田和一丁目","koaza":"","lat":"35.223302","lng":"139.636726"},{"town":"太田和四丁目","koaza":"","lat":"35.229813","lng":"139.638257"},{"town":"浦賀五丁目","koaza":"","lat":"35.248041","lng":"139.709086"},{"town":"吉井二丁目","koaza":"","lat":"35.246536","lng":"139.699623"},{"town":"吉井三丁目","koaza":"","lat":"35.249977","lng":"139.700423"},{"town":"池田町二丁目","koaza":"","lat":"35.247822","lng":"139.693452"},{"town":"舟倉一丁目","koaza":"","lat":"35.237758","lng":"139.699807"},{"town":"池田町四丁目","koaza":"","lat":"35.242957","lng":"139.692723"},{"town":"粟田二丁目","koaza":"","lat":"35.225820","lng":"139.680789"},{"town":"ハイランド三丁目","koaza":"","lat":"35.226584","lng":"139.686425"},{"town":"池田町五丁目","koaza":"","lat":"35.246021","lng":"139.688674"},{"town":"佐原五丁目","koaza":"","lat":"35.234777","lng":"139.690683"},{"town":"佐原二丁目","koaza":"","lat":"35.243430","lng":"139.685315"},{"town":"久里浜一丁目","koaza":"","lat":"35.234419","lng":"139.699349"},{"town":"岩戸一丁目","koaza":"","lat":"35.232250","lng":"139.679098"},{"town":"岩戸四丁目","koaza":"","lat":"35.231361","lng":"139.669377"},{"town":"大矢部四丁目","koaza":"","lat":"35.235815","lng":"139.671022"},{"town":"内川二丁目","koaza":"","lat":"35.235656","lng":"139.695478"},{"town":"内川一丁目","koaza":"","lat":"35.240799","lng":"139.689865"},{"town":"佐原三丁目","koaza":"","lat":"35.236001","lng":"139.680752"},{"town":"佐原一丁目","koaza":"","lat":"35.239230","lng":"139.679175"},{"town":"森崎一丁目","koaza":"","lat":"35.247951","lng":"139.682900"},{"town":"森崎三丁目","koaza":"","lat":"35.245790","lng":"139.677922"},{"town":"大矢部一丁目","koaza":"","lat":"35.241958","lng":"139.668195"},{"town":"森崎二丁目","koaza":"","lat":"35.248309","lng":"139.679503"},{"town":"森崎四丁目","koaza":"","lat":"35.247652","lng":"139.673745"},{"town":"大矢部三丁目","koaza":"","lat":"35.238072","lng":"139.674543"},{"town":"大矢部二丁目","koaza":"","lat":"35.242770","lng":"139.673293"},{"town":"森崎五丁目","koaza":"","lat":"35.245013","lng":"139.667492"},{"town":"小矢部四丁目","koaza":"","lat":"35.248258","lng":"139.663311"},{"town":"衣笠町","koaza":"","lat":"35.241928","lng":"139.656283"},{"town":"小矢部三丁目","koaza":"","lat":"35.248554","lng":"139.667934"},{"town":"太田和五丁目","koaza":"","lat":"35.236356","lng":"139.648660"},{"town":"長坂五丁目","koaza":"","lat":"35.242481","lng":"139.636767"},{"town":"太田和三丁目","koaza":"","lat":"35.226219","lng":"139.639673"},{"town":"武四丁目","koaza":"","lat":"35.224629","lng":"139.642858"},{"town":"佐島一丁目","koaza":"","lat":"35.224052","lng":"139.616765"},{"town":"佐島の丘二丁目","koaza":"","lat":"35.227034","lng":"139.610968"},{"town":"秋谷三丁目","koaza":"","lat":"35.240707","lng":"139.600513"},{"town":"秋谷二丁目","koaza":"","lat":"35.239667","lng":"139.606395"},{"town":"佐島二丁目","koaza":"","lat":"35.225687","lng":"139.608440"},{"town":"佐島三丁目","koaza":"","lat":"35.226329","lng":"139.605676"},{"town":"佐島の丘一丁目","koaza":"","lat":"35.227838","lng":"139.616154"},{"town":"秋谷四丁目","koaza":"","lat":"35.245285","lng":"139.614292"},{"town":"芦名一丁目","koaza":"","lat":"35.232058","lng":"139.609972"},{"town":"長井六丁目","koaza":"","lat":"35.197917","lng":"139.607661"},{"town":"長井五丁目","koaza":"","lat":"35.204058","lng":"139.611118"},{"town":"長井四丁目","koaza":"","lat":"35.196493","lng":"139.614569"},{"town":"芦名二丁目","koaza":"","lat":"35.235019","lng":"139.613987"},{"town":"秋谷一丁目","koaza":"","lat":"35.236589","lng":"139.605594"},{"town":"猿島","koaza":"","lat":"35.286062","lng":"139.694058"},{"town":"箱崎町","koaza":"","lat":"35.300857","lng":"139.650442"},{"town":"泊町","koaza":"","lat":"35.294987","lng":"139.671953"},{"town":"港が丘二丁目","koaza":"","lat":"35.297697","lng":"139.625645"},{"town":"逸見が丘","koaza":"","lat":"35.271893","lng":"139.649048"},{"town":"安針台","koaza":"","lat":"35.286130","lng":"139.644394"},{"town":"平成町二丁目","koaza":"","lat":"35.272891","lng":"139.683064"},{"town":"馬堀海岸三丁目","koaza":"","lat":"35.261856","lng":"139.709988"},{"town":"馬堀海岸一丁目","koaza":"","lat":"35.262928","lng":"139.700258"},{"town":"佐野町五丁目","koaza":"","lat":"35.259931","lng":"139.670391"},{"town":"池上一丁目","koaza":"","lat":"35.267689","lng":"139.647241"},{"town":"走水二丁目","koaza":"","lat":"35.261759","lng":"139.731113"},{"town":"走水一丁目","koaza":"","lat":"35.260164","lng":"139.723689"},{"town":"浦上台一丁目","koaza":"","lat":"35.256581","lng":"139.711240"},{"town":"浦上台四丁目","koaza":"","lat":"35.256669","lng":"139.714871"},{"town":"馬堀町四丁目","koaza":"","lat":"35.258978","lng":"139.716230"},{"town":"馬堀町二丁目","koaza":"","lat":"35.258222","lng":"139.705476"},{"town":"馬堀海岸二丁目","koaza":"","lat":"35.261988","lng":"139.705419"},{"town":"馬堀海岸四丁目","koaza":"","lat":"35.261765","lng":"139.713631"},{"town":"馬堀町三丁目","koaza":"","lat":"35.258386","lng":"139.710572"},{"town":"大津町二丁目","koaza":"","lat":"35.260496","lng":"139.698149"},{"town":"馬堀町一丁目","koaza":"","lat":"35.258013","lng":"139.698764"},{"town":"大津町三丁目","koaza":"","lat":"35.259226","lng":"139.695045"},{"town":"大津町一丁目","koaza":"","lat":"35.263009","lng":"139.694632"},{"town":"大津町五丁目","koaza":"","lat":"35.258904","lng":"139.687857"},{"town":"平成町三丁目","koaza":"","lat":"35.272769","lng":"139.684722"},{"town":"三春町四丁目","koaza":"","lat":"35.264056","lng":"139.690739"},{"town":"三春町三丁目","koaza":"","lat":"35.265375","lng":"139.688300"},{"town":"富士見町一丁目","koaza":"","lat":"35.267119","lng":"139.678749"},{"town":"公郷町五丁目","koaza":"","lat":"35.259263","lng":"139.678829"},{"town":"三春町六丁目","koaza":"","lat":"35.264250","lng":"139.682002"},{"town":"公郷町六丁目","koaza":"","lat":"35.260697","lng":"139.675422"},{"town":"富士見町二丁目","koaza":"","lat":"35.264755","lng":"139.676937"},{"town":"佐野町二丁目","koaza":"","lat":"35.265711","lng":"139.665893"},{"town":"佐野町一丁目","koaza":"","lat":"35.266557","lng":"139.670156"},{"town":"富士見町三丁目","koaza":"","lat":"35.264261","lng":"139.673926"},{"town":"三春町二丁目","koaza":"","lat":"35.266793","lng":"139.685141"},{"town":"三春町五丁目","koaza":"","lat":"35.260693","lng":"139.685619"},{"town":"根岸町五丁目","koaza":"","lat":"35.255751","lng":"139.683032"},{"town":"安浦町三丁目","koaza":"","lat":"35.270038","lng":"139.679168"},{"town":"三春町一丁目","koaza":"","lat":"35.268752","lng":"139.682439"},{"town":"平成町一丁目","koaza":"","lat":"35.272095","lng":"139.681728"},{"town":"安浦町二丁目","koaza":"","lat":"35.271956","lng":"139.677055"},{"town":"安浦町一丁目","koaza":"","lat":"35.273969","lng":"139.676892"},{"town":"日の出町三丁目","koaza":"","lat":"35.275960","lng":"139.678962"},{"town":"米が浜通二丁目","koaza":"","lat":"35.275851","lng":"139.675890"},{"town":"佐野町三丁目","koaza":"","lat":"35.263139","lng":"139.670801"},{"town":"上町二丁目","koaza":"","lat":"35.272773","lng":"139.669098"},{"town":"上町三丁目","koaza":"","lat":"35.269438","lng":"139.670297"},{"town":"田戸台","koaza":"","lat":"35.269779","lng":"139.674290"},{"town":"衣笠栄町二丁目","koaza":"","lat":"35.258389","lng":"139.661252"},{"town":"公郷町二丁目","koaza":"","lat":"35.255457","lng":"139.668859"},{"town":"衣笠栄町一丁目","koaza":"","lat":"35.257960","lng":"139.664445"},{"town":"佐野町六丁目","koaza":"","lat":"35.259839","lng":"139.667207"},{"town":"鶴が丘一丁目","koaza":"","lat":"35.266460","lng":"139.660276"},{"town":"公郷町三丁目","koaza":"","lat":"35.257649","lng":"139.669925"},{"town":"佐野町四丁目","koaza":"","lat":"35.262996","lng":"139.666553"},{"town":"不入斗町二丁目","koaza":"","lat":"35.265178","lng":"139.662451"},{"town":"望洋台","koaza":"","lat":"35.261106","lng":"139.663527"},{"town":"汐見台一丁目","koaza":"","lat":"35.262704","lng":"139.659341"},{"town":"汐見台二丁目","koaza":"","lat":"35.263410","lng":"139.660008"},{"town":"汐見台三丁目","koaza":"","lat":"35.263152","lng":"139.662260"},{"town":"平和台","koaza":"","lat":"35.265388","lng":"139.660624"},{"town":"不入斗町一丁目","koaza":"","lat":"35.268029","lng":"139.665149"},{"town":"深田台","koaza":"","lat":"35.274745","lng":"139.672357"},{"town":"米が浜通一丁目","koaza":"","lat":"35.277364","lng":"139.674349"},{"town":"不入斗町四丁目","koaza":"","lat":"35.272356","lng":"139.663085"},{"town":"上町四丁目","koaza":"","lat":"35.271551","lng":"139.665261"},{"town":"平作一丁目","koaza":"","lat":"35.257000","lng":"139.654686"},{"town":"衣笠栄町三丁目","koaza":"","lat":"35.260585","lng":"139.658618"},{"town":"衣笠栄町四丁目","koaza":"","lat":"35.263706","lng":"139.656195"},{"town":"平作五丁目","koaza":"","lat":"35.257700","lng":"139.645931"},{"town":"平作七丁目","koaza":"","lat":"35.258892","lng":"139.651744"},{"town":"金谷一丁目","koaza":"","lat":"35.264945","lng":"139.650201"},{"town":"平作八丁目","koaza":"","lat":"35.261127","lng":"139.650191"},{"town":"池上三丁目","koaza":"","lat":"35.261601","lng":"139.647307"},{"town":"池上四丁目","koaza":"","lat":"35.262353","lng":"139.643097"},{"town":"池上二丁目","koaza":"","lat":"35.265145","lng":"139.647409"},{"town":"鶴が丘二丁目","koaza":"","lat":"35.266048","lng":"139.657177"},{"town":"不入斗町三丁目","koaza":"","lat":"35.269504","lng":"139.659702"},{"town":"金谷三丁目","koaza":"","lat":"35.261437","lng":"139.653319"},{"town":"金谷二丁目","koaza":"","lat":"35.263289","lng":"139.653001"},{"town":"坂本町一丁目","koaza":"","lat":"35.272028","lng":"139.658479"},{"town":"汐入町三丁目","koaza":"","lat":"35.276633","lng":"139.664071"},{"town":"上町一丁目","koaza":"","lat":"35.276483","lng":"139.668040"},{"town":"坂本町三丁目","koaza":"","lat":"35.268696","lng":"139.654189"},{"town":"坂本町二丁目","koaza":"","lat":"35.274645","lng":"139.655231"},{"town":"汐入町四丁目","koaza":"","lat":"35.276725","lng":"139.657959"},{"town":"坂本町四丁目","koaza":"","lat":"35.273156","lng":"139.653175"},{"town":"東逸見町四丁目","koaza":"","lat":"35.273046","lng":"139.646744"},{"town":"池上五丁目","koaza":"","lat":"35.264548","lng":"139.642255"},{"town":"坂本町六丁目","koaza":"","lat":"35.269723","lng":"139.649075"},{"town":"坂本町五丁目","koaza":"","lat":"35.268239","lng":"139.650864"},{"town":"池上七丁目","koaza":"","lat":"35.269196","lng":"139.643452"},{"town":"東逸見町三丁目","koaza":"","lat":"35.275641","lng":"139.649099"},{"town":"新港町","koaza":"","lat":"35.281840","lng":"139.676490"},{"town":"日の出町二丁目","koaza":"","lat":"35.278231","lng":"139.677647"},{"town":"若松町一丁目","koaza":"","lat":"35.279876","lng":"139.671761"},{"town":"若松町二丁目","koaza":"","lat":"35.278595","lng":"139.669572"},{"town":"若松町三丁目","koaza":"","lat":"35.278358","lng":"139.672195"},{"town":"日の出町一丁目","koaza":"","lat":"35.279912","lng":"139.675289"},{"town":"大滝町二丁目","koaza":"","lat":"35.280995","lng":"139.669661"},{"town":"本町二丁目","koaza":"","lat":"35.282581","lng":"139.664564"},{"town":"本町三丁目","koaza":"","lat":"35.281930","lng":"139.662227"},{"town":"緑が丘","koaza":"","lat":"35.280073","lng":"139.667025"},{"town":"楠ケ浦町","koaza":"","lat":"35.287913","lng":"139.665865"},{"town":"本町一丁目","koaza":"","lat":"35.282326","lng":"139.666977"},{"town":"稲岡町","koaza":"","lat":"35.285054","lng":"139.669649"},{"town":"大滝町一丁目","koaza":"","lat":"35.282241","lng":"139.668842"},{"town":"小川町","koaza":"","lat":"35.282367","lng":"139.672159"},{"town":"汐入町五丁目","koaza":"","lat":"35.279897","lng":"139.657476"},{"town":"東逸見町二丁目","koaza":"","lat":"35.278786","lng":"139.651905"},{"town":"西逸見町一丁目","koaza":"","lat":"35.285012","lng":"139.650637"},{"town":"西逸見町二丁目","koaza":"","lat":"35.280329","lng":"139.648806"},{"town":"汐入町二丁目","koaza":"","lat":"35.280742","lng":"139.660585"},{"town":"長浦町一丁目","koaza":"","lat":"35.293165","lng":"139.646270"},{"town":"吉倉町二丁目","koaza":"","lat":"35.283434","lng":"139.645095"},{"town":"吉倉町一丁目","koaza":"","lat":"35.286958","lng":"139.648059"},{"town":"汐入町一丁目","koaza":"","lat":"35.283181","lng":"139.658299"},{"town":"東逸見町一丁目","koaza":"","lat":"35.283303","lng":"139.654395"},{"town":"山中町","koaza":"","lat":"35.276118","lng":"139.637645"},{"town":"西逸見町三丁目","koaza":"","lat":"35.280331","lng":"139.643797"},{"town":"池上六丁目","koaza":"","lat":"35.266913","lng":"139.639896"},{"town":"長浦町三丁目","koaza":"","lat":"35.283209","lng":"139.639419"},{"town":"長浦町五丁目","koaza":"","lat":"35.289530","lng":"139.640040"},{"town":"長浦町二丁目","koaza":"","lat":"35.289273","lng":"139.643751"},{"town":"田浦町二丁目","koaza":"","lat":"35.290110","lng":"139.634162"},{"town":"田浦町一丁目","koaza":"","lat":"35.290699","lng":"139.636604"},{"town":"田浦港町","koaza":"","lat":"35.295448","lng":"139.642887"},{"town":"港が丘一丁目","koaza":"","lat":"35.294851","lng":"139.624487"},{"town":"田浦町六丁目","koaza":"","lat":"35.295920","lng":"139.627164"},{"town":"田浦町五丁目","koaza":"","lat":"35.293937","lng":"139.630236"},{"town":"船越町一丁目","koaza":"","lat":"35.299461","lng":"139.629156"},{"town":"浦郷町一丁目","koaza":"","lat":"35.305058","lng":"139.638050"},{"town":"田浦町三丁目","koaza":"","lat":"35.290818","lng":"139.630706"},{"town":"船越町七丁目","koaza":"","lat":"35.303031","lng":"139.633719"},{"town":"船越町五丁目","koaza":"","lat":"35.302520","lng":"139.625291"},{"town":"船越町八丁目","koaza":"","lat":"35.306371","lng":"139.632154"},{"town":"浜見台一丁目","koaza":"","lat":"35.309410","lng":"139.627322"},{"town":"浦郷町三丁目","koaza":"","lat":"35.312608","lng":"139.635156"},{"town":"追浜東町二丁目","koaza":"","lat":"35.312092","lng":"139.630261"},{"town":"浦郷町五丁目","koaza":"","lat":"35.312132","lng":"139.640830"},{"town":"浦郷町四丁目","koaza":"","lat":"35.315719","lng":"139.635427"},{"town":"夏島町","koaza":"","lat":"35.321507","lng":"139.643625"},{"town":"浜見台二丁目","koaza":"","lat":"35.307103","lng":"139.629130"},{"town":"浦郷町二丁目","koaza":"","lat":"35.308939","lng":"139.635114"},{"town":"追浜東町一丁目","koaza":"","lat":"35.309819","lng":"139.630650"},{"town":"追浜町一丁目","koaza":"","lat":"35.307757","lng":"139.625629"},{"town":"船越町六丁目","koaza":"","lat":"35.304333","lng":"139.627472"},{"town":"追浜南町一丁目","koaza":"","lat":"35.313625","lng":"139.623517"},{"town":"追浜町二丁目","koaza":"","lat":"35.312291","lng":"139.626497"},{"town":"長浦町四丁目","koaza":"","lat":"35.285693","lng":"139.639280"},{"town":"追浜東町三丁目","koaza":"","lat":"35.315049","lng":"139.630495"},{"town":"追浜本町二丁目","koaza":"","lat":"35.321277","lng":"139.629709"},{"town":"田浦泉町","koaza":"","lat":"35.282401","lng":"139.631143"},{"town":"追浜町三丁目","koaza":"","lat":"35.315326","lng":"139.626668"},{"town":"追浜本町一丁目","koaza":"","lat":"35.318692","lng":"139.626887"},{"town":"湘南鷹取六丁目","koaza":"","lat":"35.315244","lng":"139.614410"},{"town":"追浜南町三丁目","koaza":"","lat":"35.309159","lng":"139.619909"},{"town":"湘南鷹取四丁目","koaza":"","lat":"35.308849","lng":"139.614307"},{"town":"湘南鷹取三丁目","koaza":"","lat":"35.305082","lng":"139.616169"},{"town":"湘南鷹取五丁目","koaza":"","lat":"35.312827","lng":"139.613343"},{"town":"大津町四丁目","koaza":"","lat":"35.257611","lng":"139.691738"},{"town":"根岸町二丁目","koaza":"","lat":"35.251368","lng":"139.688816"},{"town":"根岸町一丁目","koaza":"","lat":"35.253491","lng":"139.686513"},{"town":"浦賀四丁目","koaza":"","lat":"35.247460","lng":"139.716093"},{"town":"浦賀七丁目","koaza":"","lat":"35.243845","lng":"139.716851"},{"town":"西浦賀一丁目","koaza":"","lat":"35.240600","lng":"139.719163"}]