[{"town":"大野台三丁目","koaza":"","lat":"35.555880","lng":"139.397116"},{"town":"小山","koaza":"","lat":"35.584058","lng":"139.374856"},{"town":"上溝","koaza":"","lat":"35.552598","lng":"139.366399"},{"town":"陽光台四丁目","koaza":"","lat":"35.551478","lng":"139.374325"},{"town":"陽光台三丁目","koaza":"","lat":"35.554161","lng":"139.373199"},{"town":"陽光台二丁目","koaza":"","lat":"35.556662","lng":"139.372018"},{"town":"星が丘三丁目","koaza":"","lat":"35.559305","lng":"139.371914"},{"town":"星が丘二丁目","koaza":"","lat":"35.562266","lng":"139.372253"},{"town":"千代田二丁目","koaza":"","lat":"35.564997","lng":"139.371893"},{"town":"千代田一丁目","koaza":"","lat":"35.566672","lng":"139.373378"},{"town":"中央六丁目","koaza":"","lat":"35.568705","lng":"139.369541"},{"town":"中央三丁目","koaza":"","lat":"35.570419","lng":"139.371105"},{"town":"相模原六丁目","koaza":"","lat":"35.574572","lng":"139.373983"},{"town":"中央二丁目","koaza":"","lat":"35.572364","lng":"139.372375"},{"town":"相模原七丁目","koaza":"","lat":"35.575895","lng":"139.370022"},{"town":"相模原三丁目","koaza":"","lat":"35.578658","lng":"139.370960"},{"town":"相模原四丁目","koaza":"","lat":"35.578792","lng":"139.374380"},{"town":"上矢部","koaza":"","lat":"35.582710","lng":"139.385985"},{"town":"上矢部一丁目","koaza":"","lat":"35.586826","lng":"139.387650"},{"town":"小山四丁目","koaza":"","lat":"35.586959","lng":"139.354091"},{"town":"向陽町","koaza":"","lat":"35.585595","lng":"139.365980"},{"town":"宮下一丁目","koaza":"","lat":"35.588323","lng":"139.361666"},{"town":"すすきの町","koaza":"","lat":"35.588963","lng":"139.368458"},{"town":"小山一丁目","koaza":"","lat":"35.585798","lng":"139.360497"},{"town":"小山三丁目","koaza":"","lat":"35.584548","lng":"139.356406"},{"town":"下九沢","koaza":"","lat":"35.576253","lng":"139.344620"},{"town":"矢部新町","koaza":"","lat":"35.574947","lng":"139.386259"},{"town":"陽光台七丁目","koaza":"","lat":"35.544427","lng":"139.379361"},{"town":"東淵野辺三丁目","koaza":"","lat":"35.560150","lng":"139.414446"},{"town":"東淵野辺二丁目","koaza":"","lat":"35.563981","lng":"139.413986"},{"town":"東淵野辺一丁目","koaza":"","lat":"35.562715","lng":"139.409596"},{"town":"東淵野辺四丁目","koaza":"","lat":"35.557492","lng":"139.412103"},{"town":"由野台二丁目","koaza":"","lat":"35.558439","lng":"139.399944"},{"town":"東淵野辺五丁目","koaza":"","lat":"35.559529","lng":"139.406455"},{"town":"共和三丁目","koaza":"","lat":"35.561534","lng":"139.400339"},{"town":"淵野辺五丁目","koaza":"","lat":"35.566565","lng":"139.402432"},{"town":"青葉三丁目","koaza":"","lat":"35.549034","lng":"139.390788"},{"town":"松が丘二丁目","koaza":"","lat":"35.552372","lng":"139.394786"},{"town":"由野台三丁目","koaza":"","lat":"35.557752","lng":"139.395618"},{"town":"青葉一丁目","koaza":"","lat":"35.552539","lng":"139.386678"},{"town":"陽光台五丁目","koaza":"","lat":"35.549309","lng":"139.375822"},{"town":"由野台一丁目","koaza":"","lat":"35.559948","lng":"139.397752"},{"town":"共和二丁目","koaza":"","lat":"35.562605","lng":"139.404059"},{"town":"高根一丁目","koaza":"","lat":"35.562177","lng":"139.394498"},{"town":"高根三丁目","koaza":"","lat":"35.560183","lng":"139.392653"},{"town":"緑が丘一丁目","koaza":"","lat":"35.547469","lng":"139.382254"},{"town":"高根二丁目","koaza":"","lat":"35.561956","lng":"139.390304"},{"town":"弥栄一丁目","koaza":"","lat":"35.560366","lng":"139.387469"},{"town":"青葉二丁目","koaza":"","lat":"35.550690","lng":"139.389072"},{"town":"並木三丁目","koaza":"","lat":"35.555594","lng":"139.384717"},{"town":"弥栄三丁目","koaza":"","lat":"35.556020","lng":"139.390280"},{"town":"陽光台六丁目","koaza":"","lat":"35.547455","lng":"139.377411"},{"town":"光が丘三丁目","koaza":"","lat":"35.552171","lng":"139.379898"},{"town":"緑が丘二丁目","koaza":"","lat":"35.549678","lng":"139.385201"},{"town":"並木四丁目","koaza":"","lat":"35.554165","lng":"139.382525"},{"town":"松が丘一丁目","koaza":"","lat":"35.553279","lng":"139.393209"},{"town":"並木一丁目","koaza":"","lat":"35.559053","lng":"139.381526"},{"town":"相生一丁目","koaza":"","lat":"35.565200","lng":"139.386963"},{"town":"並木二丁目","koaza":"","lat":"35.557274","lng":"139.381782"},{"town":"弥栄二丁目","koaza":"","lat":"35.559215","lng":"139.385674"},{"town":"相生四丁目","koaza":"","lat":"35.564022","lng":"139.383528"},{"town":"相生三丁目","koaza":"","lat":"35.561999","lng":"139.384998"},{"town":"相生二丁目","koaza":"","lat":"35.563706","lng":"139.388882"},{"town":"千代田七丁目","koaza":"","lat":"35.561003","lng":"139.380482"},{"town":"千代田六丁目","koaza":"","lat":"35.559963","lng":"139.376516"},{"town":"千代田五丁目","koaza":"","lat":"35.562157","lng":"139.375858"},{"town":"千代田四丁目","koaza":"","lat":"35.563023","lng":"139.379269"},{"town":"光が丘一丁目","koaza":"","lat":"35.557928","lng":"139.377179"},{"town":"光が丘二丁目","koaza":"","lat":"35.555214","lng":"139.378123"},{"town":"淵野辺本町五丁目","koaza":"","lat":"35.569293","lng":"139.410378"},{"town":"共和四丁目","koaza":"","lat":"35.563886","lng":"139.395307"},{"town":"共和一丁目","koaza":"","lat":"35.564814","lng":"139.399304"},{"town":"鹿沼台二丁目","koaza":"","lat":"35.566573","lng":"139.391300"},{"town":"鹿沼台一丁目","koaza":"","lat":"35.568476","lng":"139.393205"},{"town":"淵野辺本町二丁目","koaza":"","lat":"35.573268","lng":"139.402387"},{"town":"淵野辺三丁目","koaza":"","lat":"35.570728","lng":"139.393387"},{"town":"淵野辺本町四丁目","koaza":"","lat":"35.567184","lng":"139.407447"},{"town":"淵野辺本町三丁目","koaza":"","lat":"35.572001","lng":"139.406199"},{"town":"上矢部五丁目","koaza":"","lat":"35.583007","lng":"139.396334"},{"town":"上矢部三丁目","koaza":"","lat":"35.582314","lng":"139.391514"},{"town":"上矢部二丁目","koaza":"","lat":"35.584777","lng":"139.391636"},{"town":"矢部三丁目","koaza":"","lat":"35.571009","lng":"139.385643"},{"town":"矢部二丁目","koaza":"","lat":"35.572225","lng":"139.382004"},{"town":"富士見四丁目","koaza":"","lat":"35.565398","lng":"139.381025"},{"town":"富士見三丁目","koaza":"","lat":"35.567012","lng":"139.384018"},{"town":"矢部四丁目","koaza":"","lat":"35.569346","lng":"139.387699"},{"town":"淵野辺本町一丁目","koaza":"","lat":"35.577879","lng":"139.400113"},{"town":"富士見二丁目","koaza":"","lat":"35.568820","lng":"139.379672"},{"town":"淵野辺四丁目","koaza":"","lat":"35.570645","lng":"139.398807"},{"town":"淵野辺二丁目","koaza":"","lat":"35.576834","lng":"139.395457"},{"town":"富士見六丁目","koaza":"","lat":"35.568505","lng":"139.374673"},{"town":"富士見五丁目","koaza":"","lat":"35.566723","lng":"139.378275"},{"town":"富士見一丁目","koaza":"","lat":"35.570513","lng":"139.376104"},{"town":"千代田三丁目","koaza":"","lat":"35.564087","lng":"139.375986"},{"town":"淵野辺一丁目","koaza":"","lat":"35.575590","lng":"139.389859"},{"town":"上矢部四丁目","koaza":"","lat":"35.581695","lng":"139.394557"},{"town":"矢部一丁目","koaza":"","lat":"35.574057","lng":"139.378542"},{"town":"矢部新田","koaza":"","lat":"35.576644","lng":"139.382940"},{"town":"相模原五丁目","koaza":"","lat":"35.577553","lng":"139.373993"},{"town":"水郷田名二丁目","koaza":"","lat":"35.544680","lng":"139.329422"},{"town":"水郷田名一丁目","koaza":"","lat":"35.548271","lng":"139.327925"},{"town":"水郷田名四丁目","koaza":"","lat":"35.543007","lng":"139.333574"},{"town":"水郷田名三丁目","koaza":"","lat":"35.545800","lng":"139.332412"},{"town":"田名塩田三丁目","koaza":"","lat":"35.531903","lng":"139.353823"},{"town":"田名塩田二丁目","koaza":"","lat":"35.534707","lng":"139.355809"},{"town":"田名塩田四丁目","koaza":"","lat":"35.536497","lng":"139.353241"},{"town":"田名塩田一丁目","koaza":"","lat":"35.537711","lng":"139.359221"},{"town":"陽光台一丁目","koaza":"","lat":"35.555541","lng":"139.367990"},{"town":"星が丘四丁目","koaza":"","lat":"35.559854","lng":"139.367607"},{"town":"横山六丁目","koaza":"","lat":"35.560882","lng":"139.365604"},{"town":"上溝六丁目","koaza":"","lat":"35.554849","lng":"139.356870"},{"town":"上溝四丁目","koaza":"","lat":"35.560851","lng":"139.355883"},{"town":"上溝三丁目","koaza":"","lat":"35.558710","lng":"139.353332"},{"town":"横山五丁目","koaza":"","lat":"35.561260","lng":"139.362052"},{"town":"星が丘一丁目","koaza":"","lat":"35.562512","lng":"139.369679"},{"town":"中央四丁目","koaza":"","lat":"35.572447","lng":"139.367098"},{"town":"横山三丁目","koaza":"","lat":"35.564504","lng":"139.365822"},{"town":"横山二丁目","koaza":"","lat":"35.567118","lng":"139.368374"},{"town":"中央一丁目","koaza":"","lat":"35.574247","lng":"139.368488"},{"town":"相模原一丁目","koaza":"","lat":"35.582013","lng":"139.367811"},{"town":"中央五丁目","koaza":"","lat":"35.570691","lng":"139.365736"},{"town":"横山一丁目","koaza":"","lat":"35.568898","lng":"139.364336"},{"town":"清新七丁目","koaza":"","lat":"35.574701","lng":"139.363092"},{"town":"清新三丁目","koaza":"","lat":"35.576691","lng":"139.363513"},{"town":"横山台二丁目","koaza":"","lat":"35.564921","lng":"139.357597"},{"town":"相模原八丁目","koaza":"","lat":"35.577934","lng":"139.365523"},{"town":"相模原二丁目","koaza":"","lat":"35.579386","lng":"139.367703"},{"town":"清新二丁目","koaza":"","lat":"35.580202","lng":"139.362942"},{"town":"清新一丁目","koaza":"","lat":"35.580929","lng":"139.365416"},{"town":"氷川町","koaza":"","lat":"35.583375","lng":"139.364523"},{"town":"南橋本四丁目","koaza":"","lat":"35.573592","lng":"139.351918"},{"town":"南橋本一丁目","koaza":"","lat":"35.579915","lng":"139.353640"},{"town":"小山二丁目","koaza":"","lat":"35.584022","lng":"139.358945"},{"town":"小町通二丁目","koaza":"","lat":"35.571692","lng":"139.356705"},{"town":"小町通一丁目","koaza":"","lat":"35.571053","lng":"139.360244"},{"town":"横山台一丁目","koaza":"","lat":"35.568566","lng":"139.356682"},{"town":"横山四丁目","koaza":"","lat":"35.566435","lng":"139.362657"},{"town":"清新八丁目","koaza":"","lat":"35.573604","lng":"139.358439"},{"town":"清新六丁目","koaza":"","lat":"35.577002","lng":"139.357500"},{"town":"南橋本三丁目","koaza":"","lat":"35.581060","lng":"139.348500"},{"town":"南橋本二丁目","koaza":"","lat":"35.582146","lng":"139.351016"},{"town":"清新五丁目","koaza":"","lat":"35.579761","lng":"139.357441"},{"town":"清新四丁目","koaza":"","lat":"35.580873","lng":"139.359768"},{"town":"上溝二丁目","koaza":"","lat":"35.562608","lng":"139.350852"},{"town":"上溝一丁目","koaza":"","lat":"35.563957","lng":"139.352836"},{"town":"田名","koaza":"","lat":"35.550772","lng":"139.341756"},{"town":"上溝五丁目","koaza":"","lat":"35.559210","lng":"139.359604"},{"town":"上溝七丁目","koaza":"","lat":"35.554181","lng":"139.361035"},{"town":"宮下本町一丁目","koaza":"","lat":"35.591081","lng":"139.375535"},{"town":"宮下二丁目","koaza":"","lat":"35.591077","lng":"139.365483"},{"town":"宮下三丁目","koaza":"","lat":"35.592384","lng":"139.360499"},{"town":"宮下本町二丁目","koaza":"","lat":"35.593204","lng":"139.369670"},{"town":"宮下本町三丁目","koaza":"","lat":"35.596127","lng":"139.364052"}]