[{"town":"落合南八丁目","koaza":"","lat":"35.420321","lng":"139.442378"},{"town":"落合南九丁目","koaza":"","lat":"35.419430","lng":"139.443749"},{"town":"落合南七丁目","koaza":"","lat":"35.419903","lng":"139.439695"},{"town":"落合北四丁目","koaza":"","lat":"35.421331","lng":"139.439257"},{"town":"上土棚北五丁目","koaza":"","lat":"35.420918","lng":"139.451663"},{"town":"上土棚北四丁目","koaza":"","lat":"35.421802","lng":"139.449136"},{"town":"吉岡東四丁目","koaza":"","lat":"35.422340","lng":"139.427822"},{"town":"落合北三丁目","koaza":"","lat":"35.420170","lng":"139.435062"},{"town":"吉岡","koaza":"","lat":"35.420997","lng":"139.417391"},{"town":"上土棚中一丁目","koaza":"","lat":"35.418343","lng":"139.447581"},{"town":"落合南三丁目","koaza":"","lat":"35.415391","lng":"139.440006"},{"town":"落合南五丁目","koaza":"","lat":"35.416444","lng":"139.443602"},{"town":"落合南六丁目","koaza":"","lat":"35.417337","lng":"139.440988"},{"town":"落合南一丁目","koaza":"","lat":"35.418746","lng":"139.437167"},{"town":"落合南二丁目","koaza":"","lat":"35.417044","lng":"139.437685"},{"town":"上土棚中三丁目","koaza":"","lat":"35.417108","lng":"139.452139"},{"town":"上土棚中二丁目","koaza":"","lat":"35.416229","lng":"139.450135"},{"town":"上土棚中五丁目","koaza":"","lat":"35.412558","lng":"139.454172"},{"town":"上土棚中四丁目","koaza":"","lat":"35.416084","lng":"139.454781"},{"town":"上土棚南一丁目","koaza":"","lat":"35.414577","lng":"139.445954"},{"town":"上土棚中六丁目","koaza":"","lat":"35.412745","lng":"139.451696"},{"town":"落合南四丁目","koaza":"","lat":"35.414903","lng":"139.443087"},{"town":"上土棚南四丁目","koaza":"","lat":"35.410649","lng":"139.448140"},{"town":"上土棚南三丁目","koaza":"","lat":"35.411611","lng":"139.450217"},{"town":"上土棚南二丁目","koaza":"","lat":"35.412965","lng":"139.447009"},{"town":"上土棚中七丁目","koaza":"","lat":"35.414069","lng":"139.448943"},{"town":"上土棚南五丁目","koaza":"","lat":"35.409424","lng":"139.446016"},{"town":"上土棚南六丁目","koaza":"","lat":"35.410228","lng":"139.442637"},{"town":"深谷上三丁目","koaza":"","lat":"35.444512","lng":"139.429385"},{"town":"深谷上五丁目","koaza":"","lat":"35.444703","lng":"139.433331"},{"town":"大上八丁目","koaza":"","lat":"35.463634","lng":"139.432497"},{"town":"深谷南六丁目","koaza":"","lat":"35.430405","lng":"139.441373"},{"town":"深谷南五丁目","koaza":"","lat":"35.431334","lng":"139.444233"},{"town":"深谷南三丁目","koaza":"","lat":"35.432785","lng":"139.441613"},{"town":"深谷中九丁目","koaza":"","lat":"35.438457","lng":"139.441719"},{"town":"深谷上七丁目","koaza":"","lat":"35.441440","lng":"139.435037"},{"town":"深谷中八丁目","koaza":"","lat":"35.439877","lng":"139.440345"},{"town":"深谷上六丁目","koaza":"","lat":"35.441280","lng":"139.430743"},{"town":"深谷中四丁目","koaza":"","lat":"35.437104","lng":"139.432616"},{"town":"深谷中五丁目","koaza":"","lat":"35.438242","lng":"139.435345"},{"town":"深谷中七丁目","koaza":"","lat":"35.436665","lng":"139.438726"},{"town":"深谷南四丁目","koaza":"","lat":"35.434964","lng":"139.443574"},{"town":"深谷中六丁目","koaza":"","lat":"35.432894","lng":"139.438060"},{"town":"深谷南二丁目","koaza":"","lat":"35.430121","lng":"139.438215"},{"town":"深谷中三丁目","koaza":"","lat":"35.433248","lng":"139.436061"},{"town":"深谷南一丁目","koaza":"","lat":"35.428277","lng":"139.436178"},{"town":"落合北五丁目","koaza":"","lat":"35.423284","lng":"139.437219"},{"town":"落合北六丁目","koaza":"","lat":"35.425784","lng":"139.436769"},{"town":"早川城山一丁目","koaza":"","lat":"35.440577","lng":"139.424090"},{"town":"早川城山四丁目","koaza":"","lat":"35.441445","lng":"139.421157"},{"town":"早川城山二丁目","koaza":"","lat":"35.437897","lng":"139.421777"},{"town":"早川城山三丁目","koaza":"","lat":"35.437822","lng":"139.418454"},{"town":"落合北七丁目","koaza":"","lat":"35.423988","lng":"139.439989"},{"town":"上土棚北三丁目","koaza":"","lat":"35.422266","lng":"139.445637"},{"town":"上土棚北二丁目","koaza":"","lat":"35.424915","lng":"139.445969"},{"town":"深谷上八丁目","koaza":"","lat":"35.444017","lng":"139.439553"},{"town":"吉岡東一丁目","koaza":"","lat":"35.427227","lng":"139.421022"},{"town":"吉岡東二丁目","koaza":"","lat":"35.425997","lng":"139.424720"},{"town":"吉岡東三丁目","koaza":"","lat":"35.423705","lng":"139.424323"},{"town":"落合北二丁目","koaza":"","lat":"35.423245","lng":"139.433749"},{"town":"大上七丁目","koaza":"","lat":"35.462029","lng":"139.433513"},{"town":"蓼川一丁目","koaza":"","lat":"35.461684","lng":"139.437142"},{"town":"寺尾中二丁目","koaza":"","lat":"35.458063","lng":"139.421710"},{"town":"深谷南七丁目","koaza":"","lat":"35.426696","lng":"139.440536"},{"town":"吉岡東五丁目","koaza":"","lat":"35.425077","lng":"139.429953"},{"town":"落合北一丁目","koaza":"","lat":"35.426866","lng":"139.433286"},{"town":"寺尾西三丁目","koaza":"","lat":"35.454165","lng":"139.419151"},{"town":"上土棚北一丁目","koaza":"","lat":"35.425259","lng":"139.443818"},{"town":"厚木基地内","koaza":"","lat":"35.452162","lng":"139.435339"},{"town":"綾西一丁目","koaza":"","lat":"35.432944","lng":"139.415634"},{"town":"綾西四丁目","koaza":"","lat":"35.432944","lng":"139.411475"},{"town":"綾西二丁目","koaza":"","lat":"35.431088","lng":"139.416489"},{"town":"綾西三丁目","koaza":"","lat":"35.430271","lng":"139.411643"},{"town":"綾西五丁目","koaza":"","lat":"35.435148","lng":"139.409705"},{"town":"寺尾南一丁目","koaza":"","lat":"35.447802","lng":"139.428883"},{"town":"深谷上四丁目","koaza":"","lat":"35.448189","lng":"139.431926"},{"town":"本蓼川","koaza":"","lat":"35.438089","lng":"139.447550"},{"town":"寺尾南二丁目","koaza":"","lat":"35.450246","lng":"139.425596"},{"town":"寺尾南三丁目","koaza":"","lat":"35.452684","lng":"139.427809"},{"town":"寺尾釜田三丁目","koaza":"","lat":"35.449013","lng":"139.423865"},{"town":"寺尾西一丁目","koaza":"","lat":"35.450442","lng":"139.421410"},{"town":"寺尾釜田二丁目","koaza":"","lat":"35.447864","lng":"139.422718"},{"town":"早川城山五丁目","koaza":"","lat":"35.443572","lng":"139.422757"},{"town":"寺尾本町二丁目","koaza":"","lat":"35.455249","lng":"139.423510"},{"town":"大上四丁目","koaza":"","lat":"35.461683","lng":"139.429603"},{"town":"寺尾釜田一丁目","koaza":"","lat":"35.445775","lng":"139.424410"},{"town":"寺尾台三丁目","koaza":"","lat":"35.459574","lng":"139.418824"},{"town":"寺尾中一丁目","koaza":"","lat":"35.457797","lng":"139.424265"},{"town":"大上二丁目","koaza":"","lat":"35.459745","lng":"139.427573"},{"town":"寺尾本町三丁目","koaza":"","lat":"35.455030","lng":"139.426060"},{"town":"大上一丁目","koaza":"","lat":"35.455648","lng":"139.429172"},{"town":"寺尾西二丁目","koaza":"","lat":"35.451775","lng":"139.420002"},{"town":"寺尾中四丁目","koaza":"","lat":"35.461473","lng":"139.423042"},{"town":"寺尾中三丁目","koaza":"","lat":"35.459346","lng":"139.423182"},{"town":"寺尾台四丁目","koaza":"","lat":"35.462444","lng":"139.418693"},{"town":"大上五丁目","koaza":"","lat":"35.464519","lng":"139.427717"},{"town":"大上九丁目","koaza":"","lat":"35.465863","lng":"139.432976"},{"town":"寺尾本町一丁目","koaza":"","lat":"35.453540","lng":"139.423445"},{"town":"早川","koaza":"","lat":"35.437616","lng":"139.412270"},{"town":"寺尾台一丁目","koaza":"","lat":"35.456908","lng":"139.419207"},{"town":"小園","koaza":"","lat":"35.451191","lng":"139.412763"},{"town":"小園南一丁目","koaza":"","lat":"35.446743","lng":"139.411743"},{"town":"小園南二丁目","koaza":"","lat":"35.448693","lng":"139.411853"},{"town":"寺尾北一丁目","koaza":"","lat":"35.464290","lng":"139.418075"},{"town":"寺尾台二丁目","koaza":"","lat":"35.459675","lng":"139.416264"},{"town":"蓼川","koaza":"","lat":"35.457395","lng":"139.446511"},{"town":"蓼川二丁目","koaza":"","lat":"35.465026","lng":"139.437893"},{"town":"蓼川三丁目","koaza":"","lat":"35.464051","lng":"139.440047"},{"town":"寺尾北三丁目","koaza":"","lat":"35.462974","lng":"139.422013"},{"town":"大上六丁目","koaza":"","lat":"35.465703","lng":"139.426395"},{"town":"寺尾北四丁目","koaza":"","lat":"35.462591","lng":"139.420018"},{"town":"寺尾北二丁目","koaza":"","lat":"35.465914","lng":"139.420695"},{"town":"大上三丁目","koaza":"","lat":"35.464704","lng":"139.423324"},{"town":"深谷上二丁目","koaza":"","lat":"35.443097","lng":"139.426032"},{"town":"深谷上一丁目","koaza":"","lat":"35.439354","lng":"139.427707"},{"town":"深谷中一丁目","koaza":"","lat":"35.434825","lng":"139.430734"},{"town":"深谷中二丁目","koaza":"","lat":"35.431268","lng":"139.433062"},{"town":"深谷","koaza":"","lat":"35.451361","lng":"139.43389"}]