[{"town":"大字上底井野","koaza":"","lat":33.818511,"lng":130.687324},{"town":"大字下大隈","koaza":"","lat":33.808391,"lng":130.698983},{"town":"大字中底井野","koaza":"","lat":33.823941,"lng":130.677307},{"town":"大字垣生","koaza":"","lat":33.823414,"lng":130.696685},{"town":"朝霧一丁目","koaza":"","lat":33.818416,"lng":130.727969},{"town":"朝霧二丁目","koaza":"","lat":33.819118,"lng":130.730437},{"town":"朝霧三丁目","koaza":"","lat":33.81656,"lng":130.732611},{"town":"朝霧四丁目","koaza":"","lat":33.815709,"lng":130.729305},{"town":"朝霧五丁目","koaza":"","lat":33.81421,"lng":130.733177},{"town":"池田一丁目","koaza":"","lat":33.813137,"lng":130.725635},{"town":"池田二丁目","koaza":"","lat":33.814686,"lng":130.727652},{"town":"岩瀬一丁目","koaza":"","lat":33.828614,"lng":130.712654},{"town":"岩瀬二丁目","koaza":"","lat":33.832656,"lng":130.709541},{"town":"岩瀬三丁目","koaza":"","lat":33.834602,"lng":130.713933},{"town":"岩瀬四丁目","koaza":"","lat":33.835888,"lng":130.709412},{"town":"岩瀬西町","koaza":"","lat":33.837445,"lng":130.704979},{"town":"扇ヶ浦一丁目","koaza":"","lat":33.817068,"lng":130.720602},{"town":"扇ヶ浦二丁目","koaza":"","lat":33.817149,"lng":130.723319},{"town":"扇ヶ浦三丁目","koaza":"","lat":33.816786,"lng":130.725594},{"town":"扇ヶ浦四丁目","koaza":"","lat":33.819942,"lng":130.72305},{"town":"大辻町","koaza":"","lat":33.8085,"lng":130.725338},{"town":"大根土","koaza":"","lat":33.822766,"lng":130.717337},{"town":"小田ヶ浦一丁目","koaza":"","lat":33.81119,"lng":130.719092},{"town":"小田ヶ浦二丁目","koaza":"","lat":33.81254,"lng":130.721369},{"town":"上蓮花寺一丁目","koaza":"","lat":33.823564,"lng":130.723483},{"town":"上蓮花寺二丁目","koaza":"","lat":33.821897,"lng":130.722994},{"town":"上蓮花寺三丁目","koaza":"","lat":33.823027,"lng":130.722139},{"town":"上蓮花寺四丁目","koaza":"","lat":33.823496,"lng":130.721418},{"town":"桜台一丁目","koaza":"","lat":33.821002,"lng":130.737037},{"town":"桜台二丁目","koaza":"","lat":33.819414,"lng":130.740787},{"town":"浄花町","koaza":"","lat":33.829141,"lng":130.69919},{"town":"太賀一丁目","koaza":"","lat":33.824712,"lng":130.725835},{"town":"太賀二丁目","koaza":"","lat":33.825986,"lng":130.727397},{"town":"太賀三丁目","koaza":"","lat":33.827537,"lng":130.727747},{"town":"太賀四丁目","koaza":"","lat":33.829683,"lng":130.727037},{"town":"中央一丁目","koaza":"","lat":33.82016,"lng":130.714069},{"town":"中央二丁目","koaza":"","lat":33.825993,"lng":130.711156},{"town":"中央三丁目","koaza":"","lat":33.824824,"lng":130.713552},{"town":"中央四丁目","koaza":"","lat":33.824055,"lng":130.716583},{"town":"中央五丁目","koaza":"","lat":33.82369,"lng":130.719618},{"town":"通谷一丁目","koaza":"","lat":33.823417,"lng":130.730699},{"town":"通谷二丁目","koaza":"","lat":33.820341,"lng":130.732822},{"town":"通谷三丁目","koaza":"","lat":33.81821,"lng":130.734336},{"town":"通谷四丁目","koaza":"","lat":33.817535,"lng":130.737229},{"town":"通谷五丁目","koaza":"","lat":33.81528,"lng":130.73832},{"town":"通谷六丁目","koaza":"","lat":33.817767,"lng":130.740245},{"town":"土手ノ内一丁目","koaza":"","lat":33.80827,"lng":130.707054},{"town":"土手ノ内二丁目","koaza":"","lat":33.809204,"lng":130.710357},{"town":"土手ノ内三丁目","koaza":"","lat":33.808577,"lng":130.713681},{"town":"中尾一丁目","koaza":"","lat":33.816273,"lng":130.71434},{"town":"中尾二丁目","koaza":"","lat":33.810967,"lng":130.715475},{"town":"中尾三丁目","koaza":"","lat":33.814099,"lng":130.717049},{"town":"中尾四丁目","koaza":"","lat":33.815807,"lng":130.717619},{"town":"中鶴一丁目","koaza":"","lat":33.826725,"lng":130.702524},{"town":"中鶴二丁目","koaza":"","lat":33.830477,"lng":130.702739},{"town":"中鶴三丁目","koaza":"","lat":33.831285,"lng":130.700556},{"town":"中鶴四丁目","koaza":"","lat":33.83272,"lng":130.701756},{"town":"中間一丁目","koaza":"","lat":33.818822,"lng":130.708474},{"town":"中間二丁目","koaza":"","lat":33.814467,"lng":130.708725},{"town":"中間三丁目","koaza":"","lat":33.814842,"lng":130.712242},{"town":"中間四丁目","koaza":"","lat":33.820779,"lng":130.709766},{"town":"長津一丁目","koaza":"","lat":33.823556,"lng":130.706715},{"town":"長津二丁目","koaza":"","lat":33.827814,"lng":130.707279},{"town":"長津三丁目","koaza":"","lat":33.831833,"lng":130.70597},{"town":"七重町","koaza":"","lat":33.804955,"lng":130.723465},{"town":"鍋山町","koaza":"","lat":33.820857,"lng":130.726098},{"town":"東中間一丁目","koaza":"","lat":33.817566,"lng":130.716131},{"town":"東中間二丁目","koaza":"","lat":33.819345,"lng":130.718136},{"town":"東中間三丁目","koaza":"","lat":33.821563,"lng":130.720552},{"town":"深坂一丁目","koaza":"","lat":33.810494,"lng":130.727387},{"town":"深坂二丁目","koaza":"","lat":33.812426,"lng":130.729024},{"town":"星ヶ丘","koaza":"","lat":33.821183,"lng":130.734916},{"town":"松ヶ岡","koaza":"","lat":33.81623,"lng":130.720537},{"town":"弥生一丁目","koaza":"","lat":33.809204,"lng":130.720855},{"town":"弥生二丁目","koaza":"","lat":33.810741,"lng":130.7237},{"town":"蓮花寺一丁目","koaza":"","lat":33.828077,"lng":130.725113},{"town":"蓮花寺二丁目","koaza":"","lat":33.829225,"lng":130.722469},{"town":"蓮花寺三丁目","koaza":"","lat":33.830051,"lng":130.7186}]