[{"town":"相筋一丁目","koaza":"","lat":33.732571,"lng":135.982393},{"town":"相筋二丁目","koaza":"","lat":33.734335,"lng":135.979348},{"town":"あけぼの","koaza":"","lat":33.724514,"lng":136.006452},{"town":"阿須賀一丁目","koaza":"","lat":33.729275,"lng":135.997968},{"town":"阿須賀二丁目","koaza":"","lat":33.727356,"lng":135.997074},{"town":"池田一丁目","koaza":"","lat":33.730156,"lng":135.994846},{"town":"池田二丁目","koaza":"","lat":33.727959,"lng":135.99545},{"town":"池田三丁目","koaza":"","lat":33.727333,"lng":135.995288},{"town":"伊佐田町一丁目","koaza":"","lat":33.728543,"lng":135.993796},{"town":"伊佐田町二丁目","koaza":"","lat":33.727409,"lng":135.993757},{"town":"井の沢","koaza":"","lat":33.72333,"lng":135.990443},{"town":"磐盾","koaza":"","lat":33.720452,"lng":135.981839},{"town":"浮島","koaza":"","lat":33.725755,"lng":135.990566},{"town":"馬町一丁目","koaza":"","lat":33.728063,"lng":135.985831},{"town":"馬町二丁目","koaza":"","lat":33.727945,"lng":135.987423},{"town":"相賀","koaza":"","lat":33.733821,"lng":135.93243},{"town":"王子町一丁目","koaza":"","lat":33.717486,"lng":136.000942},{"town":"王子町二丁目","koaza":"","lat":33.718883,"lng":136.002603},{"town":"王子町三丁目","koaza":"","lat":33.718698,"lng":136.005549},{"town":"大橋通一丁目","koaza":"","lat":33.732753,"lng":135.987712},{"town":"大橋通二丁目","koaza":"","lat":33.730132,"lng":135.986893},{"town":"大橋通三丁目","koaza":"","lat":33.729057,"lng":135.986789},{"town":"大橋通四丁目","koaza":"","lat":33.727931,"lng":135.98657},{"town":"春日","koaza":"","lat":33.725609,"lng":135.992604},{"town":"神倉一丁目","koaza":"","lat":33.723041,"lng":135.985127},{"town":"神倉二丁目","koaza":"","lat":33.723072,"lng":135.987765},{"town":"神倉三丁目","koaza":"","lat":33.72043,"lng":135.98548},{"town":"神倉四丁目","koaza":"","lat":33.720478,"lng":135.987649},{"town":"上本町一丁目","koaza":"","lat":33.731251,"lng":135.984901},{"town":"上本町二丁目","koaza":"","lat":33.730961,"lng":135.986148},{"town":"木ノ川","koaza":"","lat":33.686593,"lng":135.946234},{"town":"熊野川町相須","koaza":"","lat":33.844725,"lng":135.835775},{"town":"熊野川町赤木","koaza":"","lat":33.773704,"lng":135.853564},{"town":"熊野川町畝畑","koaza":"","lat":33.735375,"lng":135.769802},{"town":"熊野川町大山","koaza":"","lat":33.742782,"lng":135.848522},{"town":"熊野川町鎌塚","koaza":"","lat":33.7364,"lng":135.822243},{"town":"熊野川町上長井","koaza":"","lat":33.765683,"lng":135.848378},{"town":"熊野川町九重","koaza":"","lat":33.873165,"lng":135.846675},{"town":"熊野川町篠尾","koaza":"","lat":33.88406,"lng":135.821663},{"town":"熊野川町四瀧","koaza":"","lat":33.858873,"lng":135.83914},{"town":"熊野川町嶋津","koaza":"","lat":33.877992,"lng":135.890328},{"town":"熊野川町瀧本","koaza":"","lat":33.712914,"lng":135.820867},{"town":"熊野川町田長","koaza":"","lat":33.772225,"lng":135.877456},{"town":"熊野川町玉置口","koaza":"","lat":33.900675,"lng":135.870987},{"town":"熊野川町西","koaza":"","lat":33.76178,"lng":135.818398},{"town":"熊野川町西敷屋","koaza":"","lat":33.853159,"lng":135.806733},{"town":"熊野川町能城山本","koaza":"","lat":33.791797,"lng":135.8747},{"town":"熊野川町東","koaza":"","lat":33.740576,"lng":135.864099},{"town":"熊野川町東敷屋","koaza":"","lat":33.829254,"lng":135.822587},{"town":"熊野川町日足","koaza":"","lat":33.808156,"lng":135.85161},{"town":"熊野川町宮井","koaza":"","lat":33.832125,"lng":135.84962},{"town":"熊野川町椋井","koaza":"","lat":33.788602,"lng":135.841899},{"town":"熊野地一丁目","koaza":"","lat":33.724335,"lng":136.000487},{"town":"熊野地二丁目","koaza":"","lat":33.72186,"lng":136.002659},{"town":"五新","koaza":"","lat":33.718435,"lng":135.983899},{"town":"佐野","koaza":"","lat":33.697068,"lng":135.956791},{"town":"佐野一丁目","koaza":"","lat":33.683155,"lng":135.976337},{"town":"佐野二丁目","koaza":"","lat":33.680508,"lng":135.97278},{"town":"佐野三丁目","koaza":"","lat":33.675969,"lng":135.96988},{"town":"清水元一丁目","koaza":"","lat":33.719155,"lng":135.997401},{"town":"清水元二丁目","koaza":"","lat":33.716644,"lng":135.99915},{"town":"下田一丁目","koaza":"","lat":33.719854,"lng":135.994855},{"town":"下田二丁目","koaza":"","lat":33.716729,"lng":135.991648},{"town":"下田三丁目","koaza":"","lat":33.716122,"lng":135.993732},{"town":"下本町一丁目","koaza":"","lat":33.730428,"lng":135.987999},{"town":"下本町二丁目","koaza":"","lat":33.731402,"lng":135.989727},{"town":"徐福一丁目","koaza":"","lat":33.726133,"lng":135.994631},{"town":"徐福二丁目","koaza":"","lat":33.723615,"lng":135.995047},{"town":"新宮","koaza":"","lat":33.716234,"lng":135.981869},{"town":"新町一丁目","koaza":"","lat":33.729922,"lng":135.987832},{"town":"新町二丁目","koaza":"","lat":33.729493,"lng":135.98892},{"town":"新町三丁目","koaza":"","lat":33.729078,"lng":135.990092},{"town":"高田","koaza":"","lat":33.730055,"lng":135.894667},{"town":"田鶴原町一丁目","koaza":"","lat":33.721731,"lng":135.998553},{"town":"田鶴原町二丁目","koaza":"","lat":33.720202,"lng":135.999624},{"town":"谷王子町","koaza":"","lat":33.727641,"lng":135.989395},{"town":"千穂一丁目","koaza":"","lat":33.725667,"lng":135.985314},{"town":"千穂二丁目","koaza":"","lat":33.726335,"lng":135.988145},{"town":"千穂三丁目","koaza":"","lat":33.724782,"lng":135.988713},{"town":"仲之町一丁目","koaza":"","lat":33.72943,"lng":135.987575},{"town":"仲之町二丁目","koaza":"","lat":33.729131,"lng":135.988516},{"town":"仲之町三丁目","koaza":"","lat":33.728672,"lng":135.989521},{"town":"野田","koaza":"","lat":33.723008,"lng":135.993147},{"town":"橋本一丁目","koaza":"","lat":33.716055,"lng":135.986497},{"town":"橋本二丁目","koaza":"","lat":33.715796,"lng":135.989302},{"town":"蜂伏","koaza":"","lat":33.684158,"lng":135.962667},{"town":"船町一丁目","koaza":"","lat":33.733635,"lng":135.985466},{"town":"船町二丁目","koaza":"","lat":33.733074,"lng":135.986716},{"town":"船町三丁目","koaza":"","lat":33.732356,"lng":135.988586},{"town":"別当屋敷町","koaza":"","lat":33.728704,"lng":135.985505},{"town":"蓬莱一丁目","koaza":"","lat":33.727193,"lng":135.999965},{"town":"蓬莱二丁目","koaza":"","lat":33.725742,"lng":135.997491},{"town":"蓬莱三丁目","koaza":"","lat":33.723838,"lng":135.998265},{"town":"丸山","koaza":"","lat":33.722801,"lng":135.9966},{"town":"緑ケ丘一丁目","koaza":"","lat":33.720024,"lng":135.992348},{"town":"緑ケ丘二丁目","koaza":"","lat":33.72032,"lng":135.989667},{"town":"緑ケ丘三丁目","koaza":"","lat":33.718223,"lng":135.98983},{"town":"南檜杖","koaza":"","lat":33.718326,"lng":135.962074},{"town":"三輪崎","koaza":"","lat":33.697835,"lng":135.984472},{"town":"三輪崎一丁目","koaza":"","lat":33.687315,"lng":135.985619},{"town":"三輪崎二丁目","koaza":"","lat":33.686236,"lng":135.983685},{"town":"三輪崎三丁目","koaza":"","lat":33.685051,"lng":135.979662},{"town":"元鍛治町一丁目","koaza":"","lat":33.730671,"lng":135.98455},{"town":"元鍛治町二丁目","koaza":"","lat":33.730352,"lng":135.985912},{"town":"薬師町","koaza":"","lat":33.72953,"lng":135.985413},{"town":"横町一丁目","koaza":"","lat":33.728886,"lng":135.987473},{"town":"横町二丁目","koaza":"","lat":33.728648,"lng":135.988455},{"town":"三輪崎","koaza":"永田","lat":33.687214,"lng":135.973233}]