[{"town":"秋津川","koaza":"","lat":33.809853,"lng":135.42827},{"town":"鮎川","koaza":"","lat":33.730634,"lng":135.516613},{"town":"磯間","koaza":"","lat":33.720815,"lng":135.38172},{"town":"今福町","koaza":"","lat":33.732674,"lng":135.378656},{"town":"熊野","koaza":"","lat":33.713021,"lng":135.618983},{"town":"上野","koaza":"","lat":33.762338,"lng":135.461861},{"town":"上の山二丁目","koaza":"","lat":33.734286,"lng":135.365308},{"town":"江川","koaza":"","lat":33.731154,"lng":135.369927},{"town":"扇ヶ浜","koaza":"","lat":33.723955,"lng":135.379107},{"town":"学園","koaza":"","lat":33.72582,"lng":135.391112},{"town":"片町","koaza":"","lat":33.732824,"lng":135.372423},{"town":"上秋津","koaza":"","lat":33.76941,"lng":135.410914},{"town":"上芳養","koaza":"","lat":33.811392,"lng":135.383455},{"town":"上万呂","koaza":"","lat":33.739614,"lng":135.416535},{"town":"上三栖","koaza":"","lat":33.755153,"lng":135.442889},{"town":"上屋敷一丁目","koaza":"","lat":33.731927,"lng":135.374666},{"town":"上屋敷二丁目","koaza":"","lat":33.729495,"lng":135.375744},{"town":"上屋敷三丁目","koaza":"","lat":33.728963,"lng":135.373701},{"town":"北新町","koaza":"","lat":33.733996,"lng":135.379693},{"town":"九川","koaza":"","lat":33.660687,"lng":135.597731},{"town":"串","koaza":"","lat":33.665939,"lng":135.587499},{"town":"合川","koaza":"","lat":33.689079,"lng":135.574112},{"town":"小谷","koaza":"","lat":33.695289,"lng":135.538537},{"town":"五味","koaza":"","lat":33.67356,"lng":135.634486},{"town":"木守","koaza":"","lat":33.70857,"lng":135.66049},{"town":"紺屋町","koaza":"","lat":33.734799,"lng":135.374564},{"town":"栄町","koaza":"","lat":33.734001,"lng":135.37729},{"town":"佐田","koaza":"","lat":33.666663,"lng":135.563327},{"town":"下川上","koaza":"","lat":33.754491,"lng":135.64291},{"town":"下川下","koaza":"","lat":33.746956,"lng":135.571869},{"town":"下露","koaza":"","lat":33.675417,"lng":135.565749},{"town":"下万呂","koaza":"","lat":33.742415,"lng":135.393611},{"town":"下三栖","koaza":"","lat":33.735954,"lng":135.41985},{"town":"下屋敷町","koaza":"","lat":33.729847,"lng":135.380623},{"town":"城山台","koaza":"","lat":33.72695,"lng":135.427118},{"town":"新万","koaza":"","lat":33.733945,"lng":135.397525},{"town":"新屋敷町","koaza":"","lat":33.727531,"lng":135.379573},{"town":"末広町","koaza":"","lat":33.725195,"lng":135.380691},{"town":"竹ノ平","koaza":"","lat":33.693873,"lng":135.559434},{"town":"谷野口","koaza":"","lat":33.670368,"lng":135.579622},{"town":"天神崎","koaza":"","lat":33.731008,"lng":135.359465},{"town":"東陽","koaza":"","lat":33.727478,"lng":135.383983},{"town":"長瀬","koaza":"","lat":33.656356,"lng":135.608321},{"town":"長野","koaza":"","lat":33.769733,"lng":135.444923},{"town":"中ノ俣","koaza":"","lat":33.662512,"lng":135.567906},{"town":"中芳養","koaza":"","lat":33.786037,"lng":135.356819},{"town":"中辺路町石船","koaza":"","lat":33.769464,"lng":135.527773},{"town":"中辺路町内井川","koaza":"","lat":33.841802,"lng":135.505099},{"town":"中辺路町大内川","koaza":"","lat":33.785465,"lng":135.565005},{"town":"中辺路町大川","koaza":"","lat":33.819148,"lng":135.544047},{"town":"中辺路町川合","koaza":"","lat":33.805987,"lng":135.521648},{"town":"中辺路町熊野川","koaza":"","lat":33.807825,"lng":135.4903},{"town":"中辺路町栗栖川","koaza":"","lat":33.788191,"lng":135.5138},{"town":"中辺路町小皆","koaza":"","lat":33.794447,"lng":135.49916},{"town":"中辺路町小松原","koaza":"","lat":33.85221,"lng":135.542086},{"town":"中辺路町澤","koaza":"","lat":33.820865,"lng":135.492225},{"town":"中辺路町高原","koaza":"","lat":33.788453,"lng":135.534774},{"town":"中辺路町近露","koaza":"","lat":33.827765,"lng":135.60343},{"town":"中辺路町道湯川","koaza":"","lat":33.839107,"lng":135.676583},{"town":"中辺路町西谷","koaza":"","lat":33.77302,"lng":135.477908},{"town":"中辺路町温川","koaza":"","lat":33.835074,"lng":135.52002},{"town":"中辺路町野中","koaza":"","lat":33.835511,"lng":135.637282},{"town":"中辺路町兵生","koaza":"","lat":33.863762,"lng":135.587914},{"town":"中辺路町福定","koaza":"","lat":33.833518,"lng":135.568478},{"town":"中辺路町北郡","koaza":"","lat":33.758115,"lng":135.508145},{"town":"中辺路町真砂","koaza":"","lat":33.762169,"lng":135.496933},{"town":"中辺路町水上","koaza":"","lat":33.841612,"lng":135.477975},{"town":"中万呂","koaza":"","lat":33.741315,"lng":135.407297},{"town":"中三栖","koaza":"","lat":33.744279,"lng":135.435283},{"town":"中屋敷町","koaza":"","lat":33.730643,"lng":135.378046},{"town":"西大谷","koaza":"","lat":33.717458,"lng":135.578258},{"town":"芳養町","koaza":"","lat":33.755709,"lng":135.351218},{"town":"芳養松原一丁目","koaza":"","lat":33.744083,"lng":135.354695},{"town":"芳養松原二丁目","koaza":"","lat":33.746626,"lng":135.35746},{"town":"原","koaza":"","lat":33.668199,"lng":135.615975},{"town":"東伏菟野","koaza":"","lat":33.660157,"lng":135.619403},{"town":"東山一丁目","koaza":"","lat":33.728411,"lng":135.391127},{"town":"東山二丁目","koaza":"","lat":33.724212,"lng":135.394316},{"town":"平瀬","koaza":"","lat":33.773767,"lng":135.591845},{"town":"深谷","koaza":"","lat":33.712354,"lng":135.543401},{"town":"福路町","koaza":"","lat":33.733239,"lng":135.377828},{"town":"伏菟野","koaza":"","lat":33.800633,"lng":135.459873},{"town":"古尾","koaza":"","lat":33.736467,"lng":135.372493},{"town":"古屋","koaza":"","lat":33.672225,"lng":135.564737},{"town":"本宮町一本松","koaza":"","lat":33.851903,"lng":135.752241},{"town":"本宮町請川","koaza":"","lat":33.812319,"lng":135.800216},{"town":"本宮町大居","koaza":"","lat":33.85642,"lng":135.774002},{"town":"本宮町大瀬","koaza":"","lat":33.814677,"lng":135.672033},{"town":"本宮町大津荷","koaza":"","lat":33.821553,"lng":135.804341},{"town":"本宮町上大野","koaza":"","lat":33.802865,"lng":135.760019},{"town":"本宮町上切原","koaza":"","lat":33.874921,"lng":135.787365},{"town":"本宮町川湯","koaza":"","lat":33.811613,"lng":135.775784},{"town":"本宮町切畑","koaza":"","lat":33.885165,"lng":135.74697},{"town":"本宮町久保野","koaza":"","lat":33.838043,"lng":135.733722},{"town":"本宮町小々森","koaza":"","lat":33.809471,"lng":135.738946},{"town":"本宮町小津荷","koaza":"","lat":33.835984,"lng":135.798902},{"town":"本宮町静川","koaza":"","lat":33.765416,"lng":135.723845},{"town":"本宮町下湯川","koaza":"","lat":33.824537,"lng":135.753452},{"town":"本宮町高山","koaza":"","lat":33.839355,"lng":135.788053},{"town":"本宮町田代","koaza":"","lat":33.805788,"lng":135.769032},{"town":"本宮町津荷谷","koaza":"","lat":33.814201,"lng":135.819183},{"town":"本宮町土河屋","koaza":"","lat":33.882333,"lng":135.767715},{"town":"本宮町野竹","koaza":"","lat":33.792369,"lng":135.694406},{"town":"本宮町東和田","koaza":"","lat":33.805162,"lng":135.747201},{"town":"本宮町檜葉","koaza":"","lat":33.81471,"lng":135.75024},{"town":"本宮町伏拝","koaza":"","lat":33.866236,"lng":135.754684},{"town":"本宮町武住","koaza":"","lat":33.819809,"lng":135.70653},{"town":"本宮町平治川","koaza":"","lat":33.838025,"lng":135.710821},{"town":"本宮町本宮","koaza":"","lat":33.836955,"lng":135.77055},{"town":"本宮町曲川","koaza":"","lat":33.820863,"lng":135.736577},{"town":"本宮町三越","koaza":"","lat":33.871976,"lng":135.698687},{"town":"本宮町皆瀬川","koaza":"","lat":33.796395,"lng":135.797721},{"town":"本宮町皆地","koaza":"","lat":33.814167,"lng":135.725642},{"town":"本宮町蓑尾谷","koaza":"","lat":33.779479,"lng":135.786802},{"town":"本宮町耳打","koaza":"","lat":33.819008,"lng":135.777258},{"town":"本宮町湯峯","koaza":"","lat":33.834039,"lng":135.754361},{"town":"本宮町渡瀬","koaza":"","lat":33.819362,"lng":135.764343},{"town":"本町","koaza":"","lat":33.733604,"lng":135.375202},{"town":"神子浜一丁目","koaza":"","lat":33.726001,"lng":135.387351},{"town":"神子浜二丁目","koaza":"","lat":33.72233,"lng":135.386198},{"town":"南新町","koaza":"","lat":33.732013,"lng":135.379987},{"town":"南新万","koaza":"","lat":33.730733,"lng":135.396798},{"town":"向山","koaza":"","lat":33.703967,"lng":135.572936},{"town":"明洋一丁目","koaza":"","lat":33.738381,"lng":135.360493},{"town":"明洋二丁目","koaza":"","lat":33.741671,"lng":135.359949},{"town":"明洋三丁目","koaza":"","lat":33.744686,"lng":135.361431},{"town":"目良","koaza":"","lat":33.734177,"lng":135.354984},{"town":"面川","koaza":"","lat":33.690232,"lng":135.596727},{"town":"元町","koaza":"","lat":33.748028,"lng":135.363309},{"town":"文里一丁目","koaza":"","lat":33.719216,"lng":135.391559},{"town":"文里二丁目","koaza":"","lat":33.719369,"lng":135.387138},{"town":"龍神村小家","koaza":"","lat":33.925433,"lng":135.412372},{"town":"龍神村甲斐ノ川","koaza":"","lat":33.912891,"lng":135.440881},{"town":"龍神村小又川","koaza":"","lat":33.96978,"lng":135.607133},{"town":"龍神村殿原","koaza":"","lat":33.893853,"lng":135.536003},{"town":"龍神村西","koaza":"","lat":33.898339,"lng":135.484793},{"town":"龍神村丹生ノ川","koaza":"","lat":33.919067,"lng":135.596597},{"town":"龍神村東","koaza":"","lat":33.886593,"lng":135.505714},{"town":"龍神村廣井原","koaza":"","lat":33.936551,"lng":135.534718},{"town":"龍神村福井","koaza":"","lat":33.891631,"lng":135.442187},{"town":"龍神村三ツ又","koaza":"","lat":33.916029,"lng":135.566495},{"town":"龍神村宮代","koaza":"","lat":33.926168,"lng":135.488598},{"town":"龍神村安井","koaza":"","lat":33.888439,"lng":135.480322},{"town":"龍神村柳瀬","koaza":"","lat":33.873055,"lng":135.456024},{"town":"龍神村湯ノ又","koaza":"","lat":33.951007,"lng":135.551356},{"town":"龍神村龍神","koaza":"","lat":34.010523,"lng":135.56683},{"town":"和田","koaza":"","lat":33.78238,"lng":135.632779},{"town":"上の山一丁目","koaza":"","lat":33.740452,"lng":135.365611},{"town":"朝日ヶ丘","koaza":"","lat":33.734812,"lng":135.392037},{"town":"あけぼの","koaza":"","lat":33.728896,"lng":135.394492},{"town":"宝来町","koaza":"","lat":33.734724,"lng":135.387731},{"town":"高雄一丁目","koaza":"","lat":33.736125,"lng":135.377794},{"town":"湊","koaza":"","lat":33.732031,"lng":135.384037},{"town":"高雄二丁目","koaza":"","lat":33.736657,"lng":135.382772},{"town":"むつみ","koaza":"","lat":33.742606,"lng":135.379214},{"town":"高雄三丁目","koaza":"","lat":33.738779,"lng":135.385221},{"town":"稲成町","koaza":"","lat":33.763445,"lng":135.380709},{"town":"秋津町","koaza":"","lat":33.751341,"lng":135.393956},{"town":"神島台","koaza":"","lat":33.705961,"lng":135.403703},{"town":"新庄町","koaza":"","lat":33.709777,"lng":135.401535},{"town":"たきない町","koaza":"","lat":33.699686,"lng":135.39989},{"town":"稲成町","koaza":"新江原","lat":33.744096,"lng":135.375847},{"town":"新庄町","koaza":"田鶴","lat":33.710369,"lng":135.408488}]