[{"town":"春風台","koaza":"","lat":null,"lng":null},{"town":"さくらの森","koaza":"","lat":null,"lng":null},{"town":"流星台","koaza":"","lat":null,"lng":null},{"town":"赤塚","koaza":"","lat":36.042677,"lng":140.12315},{"town":"明石","koaza":"","lat":36.182065,"lng":140.053737},{"town":"旭","koaza":"","lat":36.11289,"lng":140.072495},{"town":"安食","koaza":"","lat":36.167751,"lng":140.016345},{"town":"あしび野","koaza":"","lat":35.960604,"lng":140.112185},{"town":"吾妻一丁目","koaza":"","lat":36.081534,"lng":140.112938},{"town":"吾妻二丁目","koaza":"","lat":36.084425,"lng":140.111144},{"town":"吾妻三丁目","koaza":"","lat":36.088898,"lng":140.11092},{"town":"吾妻四丁目","koaza":"","lat":36.087219,"lng":140.118261},{"town":"天久保一丁目","koaza":"","lat":36.091901,"lng":140.108708},{"town":"天久保二丁目","koaza":"","lat":36.094745,"lng":140.104175},{"town":"天久保三丁目","koaza":"","lat":36.103717,"lng":140.10429},{"town":"天久保四丁目","koaza":"","lat":36.103624,"lng":140.111301},{"town":"天宝喜","koaza":"","lat":35.985052,"lng":140.124714},{"town":"新井","koaza":"","lat":36.059403,"lng":140.086622},{"town":"新牧田","koaza":"","lat":36.031645,"lng":140.129776},{"town":"飯田","koaza":"","lat":36.016965,"lng":140.069078},{"town":"池田","koaza":"","lat":36.191986,"lng":140.064902},{"town":"池の台","koaza":"","lat":36.017253,"lng":140.122185},{"town":"池向","koaza":"","lat":36.017946,"lng":140.133099},{"town":"泉","koaza":"","lat":36.172852,"lng":140.082083},{"town":"磯部","koaza":"","lat":36.189798,"lng":140.05473},{"town":"市之台","koaza":"","lat":36.023004,"lng":140.130986},{"town":"稲岡","koaza":"","lat":36.032921,"lng":140.13788},{"town":"稲荷原","koaza":"","lat":36.00894,"lng":140.110738},{"town":"稲荷前","koaza":"","lat":36.049818,"lng":140.127509},{"town":"今泉","koaza":"","lat":36.035036,"lng":140.091431},{"town":"今鹿島","koaza":"","lat":36.122246,"lng":140.039561},{"town":"上野","koaza":"","lat":36.119687,"lng":140.12431},{"town":"上ノ室","koaza":"","lat":36.081127,"lng":140.138138},{"town":"臼井","koaza":"","lat":36.204457,"lng":140.107},{"town":"梅ケ丘","koaza":"","lat":35.986514,"lng":140.091882},{"town":"梅園一丁目","koaza":"","lat":36.061641,"lng":140.137532},{"town":"梅園二丁目","koaza":"","lat":36.056318,"lng":140.13875},{"town":"漆所","koaza":"","lat":36.187384,"lng":140.085483},{"town":"榎戸","koaza":"","lat":36.041999,"lng":140.105385},{"town":"大","koaza":"","lat":36.099635,"lng":140.150504},{"town":"大井","koaza":"","lat":36.011587,"lng":140.138101},{"town":"大形","koaza":"","lat":36.146776,"lng":140.133633},{"town":"大久保","koaza":"","lat":36.149805,"lng":140.043234},{"town":"大白硲","koaza":"","lat":36.051452,"lng":140.069942},{"town":"大砂","koaza":"","lat":36.146874,"lng":140.034689},{"town":"大曽根","koaza":"","lat":36.136347,"lng":140.092067},{"town":"大貫","koaza":"","lat":36.194231,"lng":140.075738},{"town":"大舟戸","koaza":"","lat":35.966278,"lng":140.098},{"town":"大穂","koaza":"","lat":36.146503,"lng":140.074179},{"town":"大わし","koaza":"","lat":36.05396,"lng":140.091852},{"town":"岡村新田","koaza":"","lat":36.09074,"lng":140.123329},{"town":"小茎","koaza":"","lat":35.991916,"lng":140.114793},{"town":"長高野","koaza":"","lat":36.138378,"lng":140.05067},{"town":"小沢","koaza":"","lat":36.183714,"lng":140.080686},{"town":"小田","koaza":"","lat":36.15457,"lng":140.114996},{"town":"鬼ケ窪","koaza":"","lat":36.083191,"lng":140.050172},{"town":"小野川","koaza":"","lat":36.050919,"lng":140.117842},{"town":"小野崎","koaza":"","lat":36.071301,"lng":140.109359},{"town":"面野井","koaza":"","lat":36.076354,"lng":140.068039},{"town":"学園の森一丁目","koaza":"","lat":36.095213,"lng":140.07411},{"town":"学園の森二丁目","koaza":"","lat":36.094974,"lng":140.078856},{"town":"学園の森三丁目","koaza":"","lat":36.096774,"lng":140.083526},{"town":"学園南一丁目","koaza":"","lat":36.078641,"lng":140.076187},{"town":"学園南二丁目","koaza":"","lat":36.07891,"lng":140.082202},{"town":"学園南三丁目","koaza":"","lat":36.077563,"lng":140.08913},{"town":"梶内","koaza":"","lat":36.034303,"lng":140.125946},{"town":"鹿島台","koaza":"","lat":36.133493,"lng":140.09792},{"town":"春日一丁目","koaza":"","lat":36.087788,"lng":140.10512},{"town":"春日二丁目","koaza":"","lat":36.086006,"lng":140.100914},{"town":"春日三丁目","koaza":"","lat":36.092129,"lng":140.097651},{"town":"春日四丁目","koaza":"","lat":36.098839,"lng":140.099993},{"town":"葛城根崎","koaza":"","lat":36.079841,"lng":140.088517},{"town":"上岩崎","koaza":"","lat":35.979019,"lng":140.096382},{"town":"上大島","koaza":"","lat":36.224624,"lng":140.074515},{"town":"上郷","koaza":"","lat":36.096748,"lng":140.015488},{"town":"上境","koaza":"","lat":36.112812,"lng":140.129125},{"town":"上里","koaza":"","lat":36.123588,"lng":140.027195},{"town":"上沢","koaza":"","lat":36.157831,"lng":140.070878},{"town":"上菅間","koaza":"","lat":36.207715,"lng":140.059372},{"town":"上原","koaza":"","lat":36.054729,"lng":140.113435},{"town":"上広岡","koaza":"","lat":36.070529,"lng":140.15386},{"town":"上横場","koaza":"","lat":36.0446,"lng":140.091001},{"town":"苅間","koaza":"","lat":36.080414,"lng":140.099452},{"town":"神郡","koaza":"","lat":36.197097,"lng":140.117992},{"town":"観音台一丁目","koaza":"","lat":36.026274,"lng":140.095897},{"town":"観音台二丁目","koaza":"","lat":36.031208,"lng":140.097459},{"town":"観音台三丁目","koaza":"","lat":36.027168,"lng":140.105692},{"town":"吉瀬","koaza":"","lat":36.082827,"lng":140.151729},{"town":"北太田","koaza":"","lat":36.148322,"lng":140.098137},{"town":"北郷","koaza":"","lat":36.104929,"lng":140.086031},{"town":"北中島","koaza":"","lat":36.024556,"lng":140.139229},{"town":"北中妻","koaza":"","lat":36.037241,"lng":140.107853},{"town":"北原","koaza":"","lat":36.153213,"lng":140.049491},{"town":"君島","koaza":"","lat":36.160567,"lng":140.088279},{"town":"九万坪","koaza":"","lat":36.004484,"lng":140.103011},{"town":"茎崎","koaza":"","lat":35.990973,"lng":140.099337},{"town":"国松","koaza":"","lat":36.214706,"lng":140.078906},{"town":"倉掛","koaza":"","lat":36.076707,"lng":140.129723},{"town":"栗原","koaza":"","lat":36.124765,"lng":140.113606},{"town":"研究学園一丁目","koaza":"","lat":36.083502,"lng":140.07712},{"town":"研究学園二丁目","koaza":"","lat":36.082795,"lng":140.072266},{"town":"研究学園三丁目","koaza":"","lat":36.087543,"lng":140.073013},{"town":"研究学園四丁目","koaza":"","lat":36.086993,"lng":140.07735},{"town":"研究学園五丁目","koaza":"","lat":36.08458,"lng":140.083053},{"town":"研究学園六丁目","koaza":"","lat":36.083603,"lng":140.089358},{"town":"研究学園七丁目","koaza":"","lat":36.084142,"lng":140.093673},{"town":"小泉","koaza":"","lat":36.175623,"lng":140.082705},{"town":"高野","koaza":"","lat":36.106221,"lng":140.041022},{"town":"高野台一丁目","koaza":"","lat":36.024267,"lng":140.113768},{"town":"高野台二丁目","koaza":"","lat":36.025917,"lng":140.119044},{"town":"高野台三丁目","koaza":"","lat":36.021805,"lng":140.124064},{"town":"高野原新田","koaza":"","lat":36.189125,"lng":140.050546},{"town":"小白硲","koaza":"","lat":36.047215,"lng":140.07494},{"town":"木俣","koaza":"","lat":36.0944,"lng":140.024826},{"town":"駒込","koaza":"","lat":35.996172,"lng":140.09099},{"town":"小山","koaza":"","lat":35.990409,"lng":140.091509},{"town":"小和田","koaza":"","lat":36.165059,"lng":140.112771},{"town":"金田","koaza":"","lat":36.100148,"lng":140.136386},{"town":"佐","koaza":"","lat":36.155268,"lng":140.083919},{"town":"妻木","koaza":"","lat":36.099986,"lng":140.114986},{"town":"西郷","koaza":"","lat":36.070294,"lng":140.092441},{"town":"境田","koaza":"","lat":36.013926,"lng":140.080434},{"town":"境松","koaza":"","lat":36.003692,"lng":140.080908},{"town":"栄","koaza":"","lat":36.108554,"lng":140.1433},{"town":"桜一丁目","koaza":"","lat":36.110453,"lng":140.113761},{"town":"桜二丁目","koaza":"","lat":36.112525,"lng":140.111151},{"town":"桜三丁目","koaza":"","lat":36.114058,"lng":140.117068},{"town":"桜が丘","koaza":"","lat":36.009503,"lng":140.10127},{"town":"大角豆","koaza":"","lat":36.066902,"lng":140.151099},{"town":"篠崎","koaza":"","lat":36.131513,"lng":140.062923},{"town":"柴崎","koaza":"","lat":36.106425,"lng":140.118536},{"town":"島","koaza":"","lat":36.064098,"lng":140.091212},{"town":"島名","koaza":"","lat":36.060355,"lng":140.051689},{"town":"下岩崎","koaza":"","lat":35.973808,"lng":140.105698},{"town":"下大島","koaza":"","lat":36.134969,"lng":140.137506},{"town":"下原","koaza":"","lat":36.041213,"lng":140.132355},{"town":"下平塚","koaza":"","lat":36.08945,"lng":140.090236},{"town":"下広岡","koaza":"","lat":36.062219,"lng":140.167602},{"town":"下別府","koaza":"","lat":36.071188,"lng":140.031167},{"town":"下横場","koaza":"","lat":36.028883,"lng":140.124524},{"town":"自由ケ丘","koaza":"","lat":35.960019,"lng":140.108168},{"town":"松栄","koaza":"","lat":36.107496,"lng":140.146316},{"town":"城山","koaza":"","lat":35.991802,"lng":140.123568},{"town":"菅間","koaza":"","lat":36.009972,"lng":140.121829},{"town":"杉木","koaza":"","lat":36.188222,"lng":140.075839},{"town":"千現一丁目","koaza":"","lat":36.073942,"lng":140.122418},{"town":"千現二丁目","koaza":"","lat":36.067792,"lng":140.126406},{"town":"台町一丁目","koaza":"","lat":36.03727,"lng":140.079426},{"town":"台町二丁目","koaza":"","lat":36.03779,"lng":140.082983},{"town":"台町三丁目","koaza":"","lat":36.034968,"lng":140.084766},{"town":"平","koaza":"","lat":36.05515,"lng":140.068111},{"town":"高崎","koaza":"","lat":35.998876,"lng":140.122041},{"town":"高須賀","koaza":"","lat":36.068399,"lng":140.022365},{"town":"高田","koaza":"","lat":36.082205,"lng":140.060823},{"town":"鷹野原","koaza":"","lat":36.019471,"lng":140.116748},{"town":"高見原一丁目","koaza":"","lat":35.990258,"lng":140.137252},{"town":"高見原二丁目","koaza":"","lat":35.995472,"lng":140.133005},{"town":"高見原三丁目","koaza":"","lat":36.00194,"lng":140.131089},{"town":"高見原四丁目","koaza":"","lat":35.989939,"lng":140.131661},{"town":"高見原五丁目","koaza":"","lat":35.992997,"lng":140.129498},{"town":"高良田","koaza":"","lat":36.062419,"lng":140.01231},{"town":"田倉","koaza":"","lat":36.121795,"lng":140.015882},{"town":"竹園一丁目","koaza":"","lat":36.080116,"lng":140.115594},{"town":"竹園二丁目","koaza":"","lat":36.077397,"lng":140.119562},{"town":"竹園三丁目","koaza":"","lat":36.081011,"lng":140.12421},{"town":"立原","koaza":"","lat":36.131746,"lng":140.074963},{"town":"館野","koaza":"","lat":36.043937,"lng":140.112293},{"town":"田中","koaza":"","lat":36.177547,"lng":140.070073},{"town":"玉取","koaza":"","lat":36.133394,"lng":140.107909},{"town":"田水山","koaza":"","lat":36.175897,"lng":140.060154},{"town":"筑波","koaza":"","lat":36.21786,"lng":140.100344},{"town":"筑穂一丁目","koaza":"","lat":36.136132,"lng":140.082148},{"town":"筑穂二丁目","koaza":"","lat":36.132167,"lng":140.080173},{"town":"作谷","koaza":"","lat":36.173868,"lng":140.037016},{"town":"土田","koaza":"","lat":36.090476,"lng":140.061679},{"town":"手子生","koaza":"","lat":36.106771,"lng":140.027755},{"town":"手代木","koaza":"","lat":36.060259,"lng":140.096922},{"town":"寺具","koaza":"","lat":36.187156,"lng":140.028744},{"town":"天王台一丁目","koaza":"","lat":36.110412,"lng":140.101253},{"town":"天王台二丁目","koaza":"","lat":36.118936,"lng":140.096055},{"town":"天王台三丁目","koaza":"","lat":36.123848,"lng":140.092445},{"town":"東光台一丁目","koaza":"","lat":36.099572,"lng":140.063722},{"town":"東光台三丁目","koaza":"","lat":36.095241,"lng":140.067844},{"town":"東光台四丁目","koaza":"","lat":36.094925,"lng":140.066195},{"town":"東光台五丁目","koaza":"","lat":36.087572,"lng":140.06596},{"town":"豊里の杜一丁目","koaza":"","lat":36.101926,"lng":140.050224},{"town":"豊里の杜二丁目","koaza":"","lat":36.10137,"lng":140.045313},{"town":"中内","koaza":"","lat":36.047077,"lng":140.108026},{"town":"中菅間","koaza":"","lat":36.198639,"lng":140.065554},{"town":"中根","koaza":"","lat":36.109219,"lng":140.136395},{"town":"中野","koaza":"","lat":36.022683,"lng":140.066658},{"town":"中東原新田","koaza":"","lat":36.089551,"lng":140.071125},{"town":"中別府","koaza":"","lat":36.082003,"lng":140.029931},{"town":"長峰","koaza":"","lat":36.055938,"lng":140.124879},{"town":"中山","koaza":"","lat":36.019577,"lng":140.109762},{"town":"鍋沼新田","koaza":"","lat":36.059625,"lng":140.035822},{"town":"並木一丁目","koaza":"","lat":36.068916,"lng":140.133645},{"town":"並木二丁目","koaza":"","lat":36.064866,"lng":140.139623},{"town":"並木三丁目","koaza":"","lat":36.063684,"lng":140.147861},{"town":"並木四丁目","koaza":"","lat":36.060889,"lng":140.144888},{"town":"西大井","koaza":"","lat":36.015659,"lng":140.128152},{"town":"西大沼","koaza":"","lat":36.054771,"lng":140.105642},{"town":"西大橋","koaza":"","lat":36.072583,"lng":140.088773},{"town":"西岡","koaza":"","lat":36.06979,"lng":140.086307},{"town":"西高野","koaza":"","lat":36.146664,"lng":140.024557},{"town":"西沢","koaza":"","lat":36.106927,"lng":140.078075},{"town":"西の沢","koaza":"","lat":36.013412,"lng":140.108558},{"town":"西原","koaza":"","lat":36.103226,"lng":140.079964},{"town":"西平塚","koaza":"","lat":36.099885,"lng":140.086466},{"town":"二の宮一丁目","koaza":"","lat":36.0697,"lng":140.118255},{"town":"二の宮二丁目","koaza":"","lat":36.062424,"lng":140.122579},{"town":"二の宮三丁目","koaza":"","lat":36.066917,"lng":140.116364},{"town":"二の宮四丁目","koaza":"","lat":36.059806,"lng":140.117467},{"town":"沼田","koaza":"","lat":36.206663,"lng":140.08669},{"town":"野畑","koaza":"","lat":36.096904,"lng":140.040097},{"town":"八幡台","koaza":"","lat":36.053371,"lng":140.077695},{"town":"百家","koaza":"","lat":36.096488,"lng":140.050354},{"town":"八崎","koaza":"","lat":35.954269,"lng":140.109183},{"town":"泊崎","koaza":"","lat":35.954997,"lng":140.112108},{"town":"花園","koaza":"","lat":36.086894,"lng":140.123158},{"town":"花畑二丁目","koaza":"","lat":36.132325,"lng":140.084348},{"town":"花畑三丁目","koaza":"","lat":36.129409,"lng":140.092924},{"town":"花室","koaza":"","lat":36.089112,"lng":140.129772},{"town":"羽成","koaza":"","lat":36.023091,"lng":140.091829},{"town":"原","koaza":"","lat":36.0783,"lng":140.098156},{"town":"東一丁目","koaza":"","lat":36.061122,"lng":140.130308},{"town":"東二丁目","koaza":"","lat":36.054109,"lng":140.132994},{"town":"東新井","koaza":"","lat":36.075596,"lng":140.1131},{"town":"東岡","koaza":"","lat":36.094852,"lng":140.124244},{"town":"東平塚","koaza":"","lat":36.099685,"lng":140.095383},{"town":"東丸山","koaza":"","lat":36.015038,"lng":140.09199},{"town":"樋の沢","koaza":"","lat":36.020349,"lng":140.134973},{"town":"平沢","koaza":"","lat":36.183522,"lng":140.115229},{"town":"富士見台","koaza":"","lat":35.950468,"lng":140.117014},{"town":"藤本","koaza":"","lat":36.046791,"lng":140.0992},{"town":"古来","koaza":"","lat":36.093655,"lng":140.145791},{"town":"北条","koaza":"","lat":36.174248,"lng":140.095477},{"town":"房内","koaza":"","lat":36.00841,"lng":140.095356},{"town":"宝陽台","koaza":"","lat":35.981519,"lng":140.125302},{"town":"細見","koaza":"","lat":35.956836,"lng":140.10328},{"town":"洞下","koaza":"","lat":36.198369,"lng":140.046082},{"town":"前野","koaza":"","lat":36.146834,"lng":140.063634},{"town":"牧園","koaza":"","lat":36.020778,"lng":140.127617},{"town":"真瀬","koaza":"","lat":36.048363,"lng":140.037558},{"town":"松代一丁目","koaza":"","lat":36.069735,"lng":140.095862},{"town":"松代二丁目","koaza":"","lat":36.072211,"lng":140.099995},{"town":"松代三丁目","koaza":"","lat":36.068818,"lng":140.102865},{"town":"松代四丁目","koaza":"","lat":36.065429,"lng":140.103842},{"town":"松代五丁目","koaza":"","lat":36.062124,"lng":140.105823},{"town":"松塚","koaza":"","lat":36.107947,"lng":140.153703},{"town":"松野木","koaza":"","lat":36.058976,"lng":140.113441},{"town":"松の里","koaza":"","lat":36.008429,"lng":140.12981},{"town":"水堀","koaza":"","lat":36.061293,"lng":140.066848},{"town":"緑が丘","koaza":"","lat":36.00863,"lng":140.087137},{"town":"緑ケ原一丁目","koaza":"","lat":36.114971,"lng":140.022615},{"town":"緑ケ原二丁目","koaza":"","lat":36.115064,"lng":140.029035},{"town":"緑ケ原三丁目","koaza":"","lat":36.112252,"lng":140.030628},{"town":"緑ケ原四丁目","koaza":"","lat":36.111981,"lng":140.022837},{"town":"南中妻","koaza":"","lat":36.03332,"lng":140.1135},{"town":"水守","koaza":"","lat":36.167183,"lng":140.062751},{"town":"御幸が丘","koaza":"","lat":36.066784,"lng":140.073823},{"town":"明神","koaza":"","lat":35.98717,"lng":140.134047},{"town":"森の里","koaza":"","lat":35.990817,"lng":140.109938},{"town":"柳橋","koaza":"","lat":36.059552,"lng":140.077374},{"town":"山木","koaza":"","lat":36.161626,"lng":140.077749},{"town":"山口","koaza":"","lat":36.173133,"lng":140.119873},{"town":"山中","koaza":"","lat":36.063733,"lng":140.084066},{"town":"横町","koaza":"","lat":36.103683,"lng":140.144322},{"town":"六斗","koaza":"","lat":35.998079,"lng":140.105071},{"town":"若栗","koaza":"","lat":36.01448,"lng":140.100286},{"town":"若葉","koaza":"","lat":36.020755,"lng":140.103238},{"town":"若森","koaza":"","lat":36.148252,"lng":140.086323},{"town":"和台","koaza":"","lat":36.158488,"lng":140.057288},{"town":"和台原","koaza":"","lat":36.164203,"lng":140.05051},{"town":"谷田部","koaza":"","lat":36.026408,"lng":140.078901},{"town":"花島新田","koaza":"","lat":36.031344,"lng":140.050798},{"town":"南原","koaza":"","lat":36.125164,"lng":140.072734},{"town":"花畑一丁目","koaza":"","lat":36.127932,"lng":140.088511},{"town":"筑穂三丁目","koaza":"","lat":36.129742,"lng":140.079725},{"town":"片田","koaza":"","lat":36.021354,"lng":140.049841},{"town":"みどりの一丁目","koaza":"","lat":36.02831,"lng":140.053973},{"town":"みどりの中央","koaza":"","lat":36.025547,"lng":140.060105},{"town":"みどりの二丁目","koaza":"","lat":36.035117,"lng":140.052655},{"town":"上萱丸","koaza":"","lat":36.033382,"lng":140.058215},{"town":"下萱丸","koaza":"","lat":36.02946,"lng":140.062727},{"town":"古館","koaza":"","lat":36.013298,"lng":140.073828},{"town":"根崎","koaza":"","lat":36.008394,"lng":140.071888},{"town":"みどりの東","koaza":"","lat":36.012737,"lng":140.068123},{"town":"みどりの南","koaza":"","lat":36.015604,"lng":140.051991},{"town":"西栗山","koaza":"","lat":36.020304,"lng":140.057604},{"town":"吉沼","koaza":"","lat":36.140852,"lng":140.010249},{"town":"蓮沼","koaza":"","lat":36.125487,"lng":140.081094},{"town":"要","koaza":"","lat":36.113184,"lng":140.083886},{"town":"東光台二丁目","koaza":"","lat":36.100496,"lng":140.065591},{"town":"下河原崎","koaza":"","lat":36.067378,"lng":140.044421},{"town":"沼崎","koaza":"","lat":36.117156,"lng":140.057775},{"town":"遠東","koaza":"","lat":36.099682,"lng":140.072236},{"town":"中東","koaza":"","lat":36.104534,"lng":140.063642},{"town":"酒丸","koaza":"","lat":36.097668,"lng":140.058749},{"town":"上河原崎下河原崎入会地","koaza":"","lat":36.072624,"lng":140.038812},{"town":"上河原崎元宮本","koaza":"","lat":36.075704,"lng":140.036447},{"town":"上河原崎","koaza":"","lat":36.079024,"lng":140.03917},{"town":"上郷","koaza":"角内","lat":36.095309,"lng":140.034311},{"town":"島名","koaza":"中西","lat":36.060313,"lng":140.051157},{"town":"酒丸","koaza":"元中東","lat":36.10119,"lng":140.069446},{"town":"面野井","koaza":"登戸","lat":36.075416,"lng":140.070835},{"town":"小野崎","koaza":"千駄苅","lat":36.07371,"lng":140.103182},{"town":"下原","koaza":"池向","lat":36.049483,"lng":140.134128},{"town":"沼田","koaza":"西川面","lat":36.201667,"lng":140.075203},{"town":"要","koaza":"元南口の堀","lat":36.111978,"lng":140.079598},{"town":"要","koaza":"元上口の堀","lat":36.113185,"lng":140.080381},{"town":"要","koaza":"元弥平太","lat":36.108344,"lng":140.083227},{"town":"要","koaza":"元猿壁","lat":36.109554,"lng":140.090666},{"town":"要","koaza":"元中根","lat":36.11775,"lng":140.087444}]