[{"town":"大字枝川","koaza":"","lat":36.383933,"lng":140.495179},{"town":"大字勝倉","koaza":"","lat":36.375687,"lng":140.522641},{"town":"大字金上","koaza":"","lat":36.372818,"lng":140.538928},{"town":"大字後台","koaza":"","lat":36.418815,"lng":140.504174},{"town":"大字佐和","koaza":"","lat":36.44764,"lng":140.529742},{"town":"大字武田","koaza":"","lat":36.384812,"lng":140.517938},{"town":"大字田彦","koaza":"","lat":36.418231,"lng":140.515615},{"town":"大字足崎","koaza":"","lat":36.418294,"lng":140.565262},{"town":"大字津田","koaza":"","lat":36.405021,"lng":140.493834},{"town":"大字中根","koaza":"","lat":36.389362,"lng":140.556473},{"town":"大字東石川","koaza":"","lat":36.414592,"lng":140.534939},{"town":"大字堀口","koaza":"","lat":36.394236,"lng":140.51356},{"town":"大字前浜","koaza":"","lat":36.380939,"lng":140.57839},{"town":"大字馬渡","koaza":"","lat":36.396318,"lng":140.571285},{"town":"大字三反田","koaza":"","lat":36.364671,"lng":140.549197},{"town":"大字市毛","koaza":"","lat":36.398764,"lng":140.506742},{"town":"鍛治屋窪","koaza":"","lat":36.352654,"lng":140.592537},{"town":"獅子前","koaza":"","lat":36.355074,"lng":140.582707},{"town":"ナメシ","koaza":"","lat":36.351873,"lng":140.603158},{"town":"大字稲田","koaza":"","lat":36.433088,"lng":140.524338},{"town":"大字高野","koaza":"","lat":36.431162,"lng":140.55592},{"town":"大字高場","koaza":"","lat":36.418793,"lng":140.54252},{"town":"大字長砂","koaza":"","lat":36.421292,"lng":140.593446},{"town":"青葉町","koaza":"","lat":36.386856,"lng":140.531597},{"town":"赤坂","koaza":"","lat":36.355013,"lng":140.597499},{"town":"浅井内","koaza":"","lat":36.349759,"lng":140.600521},{"town":"阿字ケ浦町","koaza":"","lat":36.391121,"lng":140.608914},{"town":"雨沢谷津","koaza":"","lat":36.358719,"lng":140.583963},{"town":"石川町","koaza":"","lat":36.390935,"lng":140.529503},{"town":"磯崎町","koaza":"","lat":36.376839,"lng":140.619333},{"town":"稲田一丁目","koaza":"","lat":36.433637,"lng":140.539749},{"town":"稲田二丁目","koaza":"","lat":36.434153,"lng":140.537267},{"town":"牛久保一丁目","koaza":"","lat":36.345872,"lng":140.60233},{"town":"牛久保二丁目","koaza":"","lat":36.348396,"lng":140.601321},{"town":"後野一丁目","koaza":"","lat":36.393742,"lng":140.558767},{"town":"後野二丁目","koaza":"","lat":36.39123,"lng":140.558706},{"town":"大平一丁目","koaza":"","lat":36.383353,"lng":140.537277},{"town":"大平二丁目","koaza":"","lat":36.380871,"lng":140.539133},{"town":"大平三丁目","koaza":"","lat":36.379133,"lng":140.537825},{"town":"大平四丁目","koaza":"","lat":36.381658,"lng":140.534044},{"town":"和尚塚","koaza":"","lat":36.355624,"lng":140.59989},{"town":"小貫山一丁目","koaza":"","lat":36.435011,"lng":140.543767},{"town":"小貫山二丁目","koaza":"","lat":36.431566,"lng":140.545609},{"town":"表町","koaza":"","lat":36.389918,"lng":140.527028},{"town":"海門町一丁目","koaza":"","lat":36.338518,"lng":140.592313},{"town":"海門町二丁目","koaza":"","lat":36.338133,"lng":140.587875},{"town":"春日町","koaza":"","lat":36.38818,"lng":140.525512},{"town":"勝田泉町","koaza":"","lat":36.391724,"lng":140.52523},{"town":"勝田中央","koaza":"","lat":36.394704,"lng":140.528013},{"town":"勝田中原町","koaza":"","lat":36.392964,"lng":140.516954},{"town":"勝田本町","koaza":"","lat":36.391632,"lng":140.520945},{"town":"上野二丁目","koaza":"","lat":36.391914,"lng":140.556797},{"town":"烏ケ台","koaza":"","lat":36.366979,"lng":140.602549},{"town":"北神敷台","koaza":"","lat":36.355845,"lng":140.59416},{"town":"共栄町","koaza":"","lat":36.398171,"lng":140.526545},{"town":"国神前","koaza":"","lat":36.346677,"lng":140.578728},{"town":"小砂町一丁目","koaza":"","lat":36.385634,"lng":140.542901},{"town":"小谷金","koaza":"","lat":36.361961,"lng":140.587503},{"town":"西光地一丁目","koaza":"","lat":36.411225,"lng":140.530123},{"town":"西光地二丁目","koaza":"","lat":36.415675,"lng":140.531882},{"town":"西光地三丁目","koaza":"","lat":36.419967,"lng":140.53413},{"town":"幸町","koaza":"","lat":36.348095,"lng":140.587549},{"town":"栄町一丁目","koaza":"","lat":36.341458,"lng":140.582393},{"town":"栄町二丁目","koaza":"","lat":36.343412,"lng":140.580598},{"town":"笹野町一丁目","koaza":"","lat":36.395949,"lng":140.541367},{"town":"笹野町二丁目","koaza":"","lat":36.397101,"lng":140.544501},{"town":"笹野町三丁目","koaza":"","lat":36.397577,"lng":140.547295},{"town":"沢メキ","koaza":"","lat":36.352683,"lng":140.604964},{"town":"四十発句","koaza":"","lat":36.353565,"lng":140.590066},{"town":"釈迦町","koaza":"","lat":36.344855,"lng":140.586718},{"town":"新光町","koaza":"","lat":36.395819,"lng":140.589949},{"town":"十三奉行","koaza":"","lat":36.364526,"lng":140.600027},{"town":"関戸","koaza":"","lat":36.347074,"lng":140.576944},{"town":"相金","koaza":"","lat":36.353423,"lng":140.585204},{"town":"相金町","koaza":"","lat":36.35166,"lng":140.586567},{"town":"外野一丁目","koaza":"","lat":36.405871,"lng":140.536707},{"town":"外野二丁目","koaza":"","lat":36.408983,"lng":140.535539},{"town":"大成町","koaza":"","lat":36.385903,"lng":140.537751},{"town":"高場一丁目","koaza":"","lat":36.430873,"lng":140.538781},{"town":"高場二丁目","koaza":"","lat":36.425862,"lng":140.536733},{"town":"高場三丁目","koaza":"","lat":36.427066,"lng":140.534107},{"town":"高場四丁目","koaza":"","lat":36.431895,"lng":140.536103},{"town":"高場五丁目","koaza":"","lat":36.431465,"lng":140.532463},{"town":"高場六丁目","koaza":"","lat":36.427605,"lng":140.531634},{"town":"館山","koaza":"","lat":36.349594,"lng":140.58782},{"town":"田中後","koaza":"","lat":36.349499,"lng":140.581475},{"town":"田宮原","koaza":"","lat":36.354424,"lng":140.590611},{"town":"津田東一丁目","koaza":"","lat":36.410932,"lng":140.505896},{"town":"津田東二丁目","koaza":"","lat":36.407933,"lng":140.506865},{"town":"津田東三丁目","koaza":"","lat":36.410698,"lng":140.502843},{"town":"津田東四丁目","koaza":"","lat":36.412818,"lng":140.502271},{"town":"鶴代","koaza":"","lat":36.358648,"lng":140.599312},{"town":"殿山町一丁目","koaza":"","lat":36.348349,"lng":140.606101},{"town":"殿山町二丁目","koaza":"","lat":36.350456,"lng":140.605109},{"town":"洞下町","koaza":"","lat":36.346232,"lng":140.588572},{"town":"堂端一丁目","koaza":"","lat":36.408852,"lng":140.528544},{"town":"堂端二丁目","koaza":"","lat":36.409681,"lng":140.527258},{"town":"道メキ","koaza":"","lat":36.355623,"lng":140.602279},{"town":"長堀町一丁目","koaza":"","lat":36.392044,"lng":140.53769},{"town":"長堀町二丁目","koaza":"","lat":36.392812,"lng":140.541083},{"town":"長堀町三丁目","koaza":"","lat":36.389494,"lng":140.542371},{"town":"新堤","koaza":"","lat":36.358078,"lng":140.586701},{"town":"西赤坂","koaza":"","lat":36.357512,"lng":140.595748},{"town":"西大島一丁目","koaza":"","lat":36.402314,"lng":140.523377},{"town":"西大島二丁目","koaza":"","lat":36.40627,"lng":140.527484},{"town":"西大島三丁目","koaza":"","lat":36.40744,"lng":140.524091},{"town":"西十三奉行","koaza":"","lat":36.367866,"lng":140.593017},{"town":"はしかべ一丁目","koaza":"","lat":36.407694,"lng":140.541066},{"town":"はしかべ二丁目","koaza":"","lat":36.410361,"lng":140.539321},{"town":"八幡町","koaza":"","lat":36.347023,"lng":140.591626},{"town":"東石川一丁目","koaza":"","lat":36.396257,"lng":140.530209},{"town":"東石川二丁目","koaza":"","lat":36.396693,"lng":140.534918},{"town":"東石川三丁目","koaza":"","lat":36.391591,"lng":140.533043},{"town":"東大島一丁目","koaza":"","lat":36.401197,"lng":140.528522},{"town":"東大島二丁目","koaza":"","lat":36.405722,"lng":140.530206},{"town":"東大島三丁目","koaza":"","lat":36.400825,"lng":140.533078},{"town":"東大島四丁目","koaza":"","lat":36.404173,"lng":140.53283},{"town":"東本町","koaza":"","lat":36.34442,"lng":140.595123},{"town":"平磯町","koaza":"","lat":36.365101,"lng":140.614718},{"town":"平磯遠原町","koaza":"","lat":36.36195,"lng":140.607702},{"town":"富士ノ上","koaza":"","lat":36.346621,"lng":140.598433},{"town":"船窪","koaza":"","lat":36.347937,"lng":140.59416},{"town":"部田野","koaza":"","lat":36.367971,"lng":140.579525},{"town":"堀川","koaza":"","lat":36.350384,"lng":140.578578},{"town":"松戸町一丁目","koaza":"","lat":36.393129,"lng":140.544731},{"town":"松戸町二丁目","koaza":"","lat":36.393401,"lng":140.547941},{"town":"松戸町三丁目","koaza":"","lat":36.389788,"lng":140.546384},{"town":"廻り目","koaza":"","lat":36.350774,"lng":140.596008},{"town":"美田多町","koaza":"","lat":36.352766,"lng":140.565729},{"town":"湊泉町","koaza":"","lat":36.345084,"lng":140.59292},{"town":"湊中央一丁目","koaza":"","lat":36.341472,"lng":140.589746},{"town":"湊中央二丁目","koaza":"","lat":36.343301,"lng":140.590504},{"town":"湊中原","koaza":"","lat":36.352127,"lng":140.598627},{"town":"湊本町","koaza":"","lat":36.340281,"lng":140.593997},{"town":"南神敷台","koaza":"","lat":36.351646,"lng":140.594194},{"town":"峰後","koaza":"","lat":36.348234,"lng":140.578789},{"town":"狢谷津","koaza":"","lat":36.34891,"lng":140.597551},{"town":"元町","koaza":"","lat":36.396541,"lng":140.526202},{"town":"柳が丘","koaza":"","lat":36.35306,"lng":140.573614},{"town":"柳沢","koaza":"","lat":36.358609,"lng":140.573814},{"town":"山崎","koaza":"","lat":36.379485,"lng":140.575167},{"town":"山ノ上町","koaza":"","lat":36.341852,"lng":140.585754},{"town":"和田町一丁目","koaza":"","lat":36.34393,"lng":140.597417},{"town":"和田町二丁目","koaza":"","lat":36.343883,"lng":140.600257},{"town":"和田町三丁目","koaza":"","lat":36.342106,"lng":140.599502}]