[{"town":"大字相川","koaza":"","lat":36.750644,"lng":140.281702},{"town":"大字浅川","koaza":"","lat":36.803927,"lng":140.333447},{"town":"大字芦野倉","koaza":"","lat":36.796335,"lng":140.304022},{"town":"大字池田","koaza":"","lat":36.782001,"lng":140.36753},{"town":"大字内大野","koaza":"","lat":36.792902,"lng":140.424546},{"town":"大字上岡","koaza":"","lat":36.773315,"lng":140.331667},{"town":"大字大沢","koaza":"","lat":36.728933,"lng":140.336756},{"town":"大字大生瀬","koaza":"","lat":36.79449,"lng":140.397978},{"town":"大字上金沢","koaza":"","lat":36.778538,"lng":140.271394},{"town":"大字上郷","koaza":"","lat":36.843288,"lng":140.33305},{"town":"大字上野宮","koaza":"","lat":36.892233,"lng":140.289802},{"town":"大字川山","koaza":"","lat":36.80489,"lng":140.370608},{"town":"大字北田気","koaza":"","lat":36.766618,"lng":140.367595},{"town":"大字北富田","koaza":"","lat":36.699764,"lng":140.426671},{"town":"大字北吉沢","koaza":"","lat":36.868371,"lng":140.363184},{"town":"大字久野瀬","koaza":"","lat":36.77271,"lng":140.38223},{"town":"大字小生瀬","koaza":"","lat":36.753194,"lng":140.43163},{"town":"大字頃藤","koaza":"","lat":36.720575,"lng":140.393459},{"town":"大字西金","koaza":"","lat":36.702228,"lng":140.401664},{"town":"大字左貫","koaza":"","lat":36.847876,"lng":140.273419},{"town":"大字下金沢","koaza":"","lat":36.770861,"lng":140.292546},{"town":"大字下津原","koaza":"","lat":36.741161,"lng":140.368523},{"town":"大字下野宮","koaza":"","lat":36.824387,"lng":140.382596},{"town":"大字外大野","koaza":"","lat":36.815979,"lng":140.424827},{"town":"大字大子","koaza":"","lat":36.765857,"lng":140.349861},{"town":"大字高柴","koaza":"","lat":36.779655,"lng":140.443906},{"town":"大字高田","koaza":"","lat":36.844835,"lng":140.374198},{"town":"大字田野沢","koaza":"","lat":36.799005,"lng":140.275922},{"town":"大字栃原","koaza":"","lat":36.731941,"lng":140.30384},{"town":"大字中郷","koaza":"","lat":36.870405,"lng":140.344789},{"town":"大字初原","koaza":"","lat":36.811238,"lng":140.302035},{"town":"大字塙","koaza":"","lat":36.791606,"lng":140.292778},{"town":"大字袋田","koaza":"","lat":36.751104,"lng":140.391998},{"town":"大字槙野地","koaza":"","lat":36.837508,"lng":140.311831},{"town":"大字町付","koaza":"","lat":36.842404,"lng":140.360037},{"town":"大字南田気","koaza":"","lat":36.753309,"lng":140.36601},{"town":"大字冥賀","koaza":"","lat":36.814535,"lng":140.349125},{"town":"大字盛金","koaza":"","lat":36.687449,"lng":140.409018},{"town":"大字矢田","koaza":"","lat":36.787434,"lng":140.354111},{"town":"大字山田","koaza":"","lat":36.764603,"lng":140.309523}]