[{"town":"青柳町","koaza":"","lat":36.394705,"lng":140.48046},{"town":"赤尾関町","koaza":"","lat":36.363979,"lng":140.374861},{"town":"赤塚一丁目","koaza":"","lat":36.384389,"lng":140.415744},{"town":"赤塚二丁目","koaza":"","lat":36.38853,"lng":140.416041},{"town":"秋成町","koaza":"","lat":36.309591,"lng":140.530039},{"town":"圷大野","koaza":"","lat":36.357839,"lng":140.534651},{"town":"曙町","koaza":"","lat":36.394656,"lng":140.443992},{"town":"朝日町","koaza":"","lat":36.360144,"lng":140.487602},{"town":"愛宕町","koaza":"","lat":36.396157,"lng":140.452408},{"town":"木葉下町","koaza":"","lat":36.42204,"lng":140.352989},{"town":"有賀町","koaza":"","lat":36.386053,"lng":140.358724},{"town":"飯島町","koaza":"","lat":36.368733,"lng":140.392335},{"town":"飯富町","koaza":"","lat":36.427076,"lng":140.417484},{"town":"石川一丁目","koaza":"","lat":36.392147,"lng":140.427917},{"town":"石川二丁目","koaza":"","lat":36.387181,"lng":140.429331},{"town":"石川三丁目","koaza":"","lat":36.386853,"lng":140.423267},{"town":"石川四丁目","koaza":"","lat":36.391283,"lng":140.423583},{"town":"石川町","koaza":"","lat":36.394597,"lng":140.425853},{"town":"泉町一丁目","koaza":"","lat":36.378367,"lng":140.465085},{"town":"泉町二丁目","koaza":"","lat":36.378957,"lng":140.463096},{"town":"泉町三丁目","koaza":"","lat":36.379934,"lng":140.46107},{"town":"岩根町","koaza":"","lat":36.450205,"lng":140.417719},{"town":"牛伏町","koaza":"","lat":36.391025,"lng":140.365216},{"town":"大串町","koaza":"","lat":36.334002,"lng":140.538016},{"town":"大足町","koaza":"","lat":36.382292,"lng":140.369684},{"town":"大塚町","koaza":"","lat":36.384572,"lng":140.397897},{"town":"大場町","koaza":"","lat":36.328072,"lng":140.524559},{"town":"大町一丁目","koaza":"","lat":36.377189,"lng":140.473821},{"town":"大町二丁目","koaza":"","lat":36.377989,"lng":140.472013},{"town":"大町三丁目","koaza":"","lat":36.379068,"lng":140.469334},{"town":"小原町","koaza":"","lat":36.373877,"lng":140.336632},{"town":"加倉井町","koaza":"","lat":36.393644,"lng":140.381962},{"town":"笠原町","koaza":"","lat":36.341498,"lng":140.448466},{"town":"金谷町","koaza":"","lat":36.378234,"lng":140.381711},{"town":"金町一丁目","koaza":"","lat":36.382109,"lng":140.469596},{"town":"金町二丁目","koaza":"","lat":36.383105,"lng":140.465868},{"town":"金町三丁目","koaza":"","lat":36.38513,"lng":140.463107},{"town":"上河内町","koaza":"","lat":36.418648,"lng":140.454413},{"town":"上国井町","koaza":"","lat":36.442627,"lng":140.439721},{"town":"上水戸一丁目","koaza":"","lat":36.388998,"lng":140.451458},{"town":"上水戸二丁目","koaza":"","lat":36.389006,"lng":140.446683},{"town":"上水戸三丁目","koaza":"","lat":36.391514,"lng":140.449711},{"town":"上水戸四丁目","koaza":"","lat":36.392696,"lng":140.445912},{"town":"萱場町","koaza":"","lat":36.344666,"lng":140.399603},{"town":"川又町","koaza":"","lat":36.333518,"lng":140.569629},{"town":"瓦谷","koaza":"","lat":36.36284,"lng":140.491451},{"town":"河和田一丁目","koaza":"","lat":36.376165,"lng":140.413517},{"town":"河和田二丁目","koaza":"","lat":36.377749,"lng":140.404327},{"town":"河和田三丁目","koaza":"","lat":36.37469,"lng":140.401772},{"town":"河和田町","koaza":"","lat":36.360248,"lng":140.405095},{"town":"北見町","koaza":"","lat":36.37916,"lng":140.473965},{"town":"栗崎町","koaza":"","lat":36.344254,"lng":140.51808},{"town":"黒磯町","koaza":"","lat":36.391537,"lng":140.359433},{"town":"けやき台一丁目","koaza":"","lat":36.337613,"lng":140.488798},{"town":"けやき台二丁目","koaza":"","lat":36.335722,"lng":140.490049},{"town":"けやき台三丁目","koaza":"","lat":36.334505,"lng":140.485911},{"town":"小泉町","koaza":"","lat":36.343224,"lng":140.57033},{"town":"鯉淵町","koaza":"","lat":36.338558,"lng":140.361719},{"town":"五軒町一丁目","koaza":"","lat":36.380224,"lng":140.466562},{"town":"五軒町二丁目","koaza":"","lat":36.381564,"lng":140.463835},{"town":"五軒町三丁目","koaza":"","lat":36.382844,"lng":140.461257},{"town":"小林町","koaza":"","lat":36.357268,"lng":140.34754},{"town":"小吹町","koaza":"","lat":36.343538,"lng":140.424},{"town":"五平町","koaza":"","lat":36.347621,"lng":140.352987},{"town":"紺屋町","koaza":"","lat":36.363041,"lng":140.488472},{"town":"栄町一丁目","koaza":"","lat":36.382752,"lng":140.45823},{"town":"栄町二丁目","koaza":"","lat":36.384999,"lng":140.45827},{"town":"酒門町","koaza":"","lat":36.346767,"lng":140.492542},{"town":"柵町一丁目","koaza":"","lat":36.368568,"lng":140.482751},{"town":"柵町二丁目","koaza":"","lat":36.36834,"lng":140.485764},{"town":"柵町三丁目","koaza":"","lat":36.368392,"lng":140.489805},{"town":"桜川一丁目","koaza":"","lat":36.369364,"lng":140.471477},{"town":"桜川二丁目","koaza":"","lat":36.368353,"lng":140.479072},{"town":"三の丸一丁目","koaza":"","lat":36.37491,"lng":140.475896},{"town":"三の丸二丁目","koaza":"","lat":36.374243,"lng":140.480635},{"town":"三の丸三丁目","koaza":"","lat":36.372336,"lng":140.484065},{"town":"塩崎町","koaza":"","lat":36.334434,"lng":140.554945},{"town":"渋井町","koaza":"","lat":36.363247,"lng":140.506214},{"town":"島田町","koaza":"","lat":36.321179,"lng":140.549157},{"town":"下入野町","koaza":"","lat":36.310207,"lng":140.518262},{"town":"下大野町","koaza":"","lat":36.348695,"lng":140.551153},{"town":"下国井町","koaza":"","lat":36.427162,"lng":140.430649},{"town":"下野町","koaza":"","lat":36.325632,"lng":140.381664},{"town":"自由が丘","koaza":"","lat":36.385149,"lng":140.440704},{"town":"城東一丁目","koaza":"","lat":36.371973,"lng":140.488718},{"town":"城東二丁目","koaza":"","lat":36.372125,"lng":140.492756},{"town":"城東三丁目","koaza":"","lat":36.371733,"lng":140.498017},{"town":"城東四丁目","koaza":"","lat":36.374489,"lng":140.49577},{"town":"城東五丁目","koaza":"","lat":36.37701,"lng":140.497849},{"town":"城南一丁目","koaza":"","lat":36.366539,"lng":140.474108},{"town":"城南二丁目","koaza":"","lat":36.366224,"lng":140.478092},{"town":"城南三丁目","koaza":"","lat":36.365686,"lng":140.482602},{"town":"白梅一丁目","koaza":"","lat":36.363128,"lng":140.473815},{"town":"白梅二丁目","koaza":"","lat":36.362978,"lng":140.477488},{"town":"白梅三丁目","koaza":"","lat":36.363014,"lng":140.482114},{"town":"白梅四丁目","koaza":"","lat":36.363491,"lng":140.485422},{"town":"新荘一丁目","koaza":"","lat":36.38325,"lng":140.454061},{"town":"新荘二丁目","koaza":"","lat":36.385219,"lng":140.451382},{"town":"新荘三丁目","koaza":"","lat":36.385752,"lng":140.454753},{"town":"新原一丁目","koaza":"","lat":36.392736,"lng":140.434074},{"town":"新原二丁目","koaza":"","lat":36.395504,"lng":140.439861},{"town":"水府町","koaza":"","lat":36.378171,"lng":140.485524},{"town":"末広町一丁目","koaza":"","lat":36.387334,"lng":140.455883},{"town":"末広町二丁目","koaza":"","lat":36.390032,"lng":140.454012},{"town":"末広町三丁目","koaza":"","lat":36.392589,"lng":140.45179},{"town":"住吉町","koaza":"","lat":36.333232,"lng":140.472295},{"town":"千波町","koaza":"","lat":36.358263,"lng":140.457849},{"town":"大工町一丁目","koaza":"","lat":36.380235,"lng":140.45887},{"town":"大工町二丁目","koaza":"","lat":36.381132,"lng":140.456698},{"town":"大工町三丁目","koaza":"","lat":36.381973,"lng":140.45179},{"town":"高田町","koaza":"","lat":36.335117,"lng":140.394697},{"town":"田島町","koaza":"","lat":36.397289,"lng":140.36799},{"town":"田野町","koaza":"","lat":36.416246,"lng":140.403485},{"town":"田谷町","koaza":"","lat":36.426601,"lng":140.449377},{"town":"ちとせ一丁目","koaza":"","lat":36.394966,"lng":140.457527},{"town":"ちとせ二丁目","koaza":"","lat":36.4002,"lng":140.454323},{"town":"中央一丁目","koaza":"","lat":36.366116,"lng":140.47167},{"town":"中央二丁目","koaza":"","lat":36.367084,"lng":140.469424},{"town":"筑地町","koaza":"","lat":36.370219,"lng":140.374564},{"town":"天王町","koaza":"","lat":36.37614,"lng":140.461194},{"town":"東野町","koaza":"","lat":36.324797,"lng":140.448787},{"town":"東前一丁目","koaza":"","lat":36.341483,"lng":140.533175},{"town":"東前二丁目","koaza":"","lat":36.339675,"lng":140.531282},{"town":"東前三丁目","koaza":"","lat":36.336212,"lng":140.529064},{"town":"東前町","koaza":"","lat":36.34201,"lng":140.527496},{"town":"常磐町","koaza":"","lat":36.372585,"lng":140.453571},{"town":"常磐町一丁目","koaza":"","lat":36.375127,"lng":140.453487},{"town":"常磐町二丁目","koaza":"","lat":36.376652,"lng":140.45656},{"town":"中大野","koaza":"","lat":36.356295,"lng":140.540126},{"town":"中河内町","koaza":"","lat":36.401543,"lng":140.45875},{"town":"中丸町","koaza":"","lat":36.38972,"lng":140.40711},{"town":"成沢町","koaza":"","lat":36.432997,"lng":140.394185},{"town":"西大野","koaza":"","lat":36.357625,"lng":140.519487},{"town":"西原一丁目","koaza":"","lat":36.388062,"lng":140.4419},{"town":"西原二丁目","koaza":"","lat":36.389387,"lng":140.435808},{"town":"西原三丁目","koaza":"","lat":36.391957,"lng":140.441427},{"town":"根本一丁目","koaza":"","lat":36.38202,"lng":140.475013},{"town":"根本二丁目","koaza":"","lat":36.385371,"lng":140.470036},{"town":"根本三丁目","koaza":"","lat":36.387324,"lng":140.466595},{"town":"根本四丁目","koaza":"","lat":36.389847,"lng":140.463769},{"town":"根本町","koaza":"","lat":36.392224,"lng":140.464257},{"town":"梅香一丁目","koaza":"","lat":36.373038,"lng":140.468425},{"town":"梅香二丁目","koaza":"","lat":36.375114,"lng":140.466806},{"town":"袴塚一丁目","koaza":"","lat":36.394695,"lng":140.448899},{"town":"袴塚二丁目","koaza":"","lat":36.396384,"lng":140.445795},{"town":"袴塚三丁目","koaza":"","lat":36.398625,"lng":140.442208},{"town":"八幡町","koaza":"","lat":36.388439,"lng":140.45881},{"town":"浜田一丁目","koaza":"","lat":36.363307,"lng":140.49785},{"town":"浜田二丁目","koaza":"","lat":36.365864,"lng":140.500729},{"town":"浜田町","koaza":"","lat":36.367398,"lng":140.502326},{"town":"東赤塚","koaza":"","lat":36.384701,"lng":140.428489},{"town":"東大野","koaza":"","lat":36.359726,"lng":140.528099},{"town":"東桜川","koaza":"","lat":36.369455,"lng":140.499335},{"town":"東台一丁目","koaza":"","lat":36.367446,"lng":140.49346},{"town":"東台二丁目","koaza":"","lat":36.368679,"lng":140.495448},{"town":"東原一丁目","koaza":"","lat":36.383644,"lng":140.44763},{"town":"東原二丁目","koaza":"","lat":36.384967,"lng":140.444264},{"town":"東原三丁目","koaza":"","lat":36.385903,"lng":140.447381},{"town":"備前町","koaza":"","lat":36.374785,"lng":140.463749},{"town":"姫子一丁目","koaza":"","lat":36.381717,"lng":140.431111},{"town":"姫子二丁目","koaza":"","lat":36.380395,"lng":140.420945},{"town":"開江町","koaza":"","lat":36.402598,"lng":140.399905},{"town":"平須町","koaza":"","lat":36.327853,"lng":140.431838},{"town":"平戸町","koaza":"","lat":36.322254,"lng":140.562803},{"town":"藤井町","koaza":"","lat":36.452126,"lng":140.396489},{"town":"藤が原一丁目","koaza":"","lat":36.458215,"lng":140.394556},{"town":"藤が原二丁目","koaza":"","lat":36.457918,"lng":140.391428},{"town":"藤が原三丁目","koaza":"","lat":36.460959,"lng":140.391634},{"town":"藤柄町","koaza":"","lat":36.361119,"lng":140.484057},{"town":"双葉台一丁目","koaza":"","lat":36.390089,"lng":140.39633},{"town":"双葉台二丁目","koaza":"","lat":36.395855,"lng":140.393329},{"town":"双葉台三丁目","koaza":"","lat":36.397353,"lng":140.395344},{"town":"双葉台四丁目","koaza":"","lat":36.393289,"lng":140.400853},{"town":"双葉台五丁目","koaza":"","lat":36.39548,"lng":140.407384},{"town":"文京一丁目","koaza":"","lat":36.399132,"lng":140.448637},{"town":"文京二丁目","koaza":"","lat":36.401571,"lng":140.444308},{"town":"堀町","koaza":"","lat":36.401192,"lng":140.424425},{"town":"本町一丁目","koaza":"","lat":36.364343,"lng":140.488162},{"town":"本町二丁目","koaza":"","lat":36.364088,"lng":140.492048},{"town":"本町三丁目","koaza":"","lat":36.365906,"lng":140.495979},{"town":"全隈町","koaza":"","lat":36.417435,"lng":140.378614},{"town":"松が丘一丁目","koaza":"","lat":36.385677,"lng":140.436551},{"town":"松が丘二丁目","koaza":"","lat":36.387763,"lng":140.433562},{"town":"松本町","koaza":"","lat":36.392589,"lng":140.455728},{"town":"見川一丁目","koaza":"","lat":36.372029,"lng":140.445914},{"town":"見川二丁目","koaza":"","lat":36.372866,"lng":140.438301},{"town":"見川三丁目","koaza":"","lat":36.365652,"lng":140.440783},{"town":"見川四丁目","koaza":"","lat":36.364268,"lng":140.435571},{"town":"見川五丁目","koaza":"","lat":36.370528,"lng":140.426885},{"town":"見川町","koaza":"","lat":36.35796,"lng":140.432914},{"town":"緑町一丁目","koaza":"","lat":36.38027,"lng":140.453177},{"town":"緑町二丁目","koaza":"","lat":36.379323,"lng":140.449463},{"town":"緑町三丁目","koaza":"","lat":36.380602,"lng":140.445569},{"town":"南町一丁目","koaza":"","lat":36.374896,"lng":140.472542},{"town":"南町二丁目","koaza":"","lat":36.37568,"lng":140.470598},{"town":"南町三丁目","koaza":"","lat":36.377047,"lng":140.467682},{"town":"三野輪町","koaza":"","lat":36.397105,"lng":140.361286},{"town":"宮内町","koaza":"","lat":36.361201,"lng":140.481992},{"town":"宮町一丁目","koaza":"","lat":36.37066,"lng":140.475382},{"town":"宮町二丁目","koaza":"","lat":36.372757,"lng":140.47362},{"town":"宮町三丁目","koaza":"","lat":36.372461,"lng":140.470846},{"town":"見和一丁目","koaza":"","lat":36.379515,"lng":140.43986},{"town":"見和二丁目","koaza":"","lat":36.376334,"lng":140.431267},{"town":"見和三丁目","koaza":"","lat":36.37473,"lng":140.42212},{"town":"元石川町","koaza":"","lat":36.324969,"lng":140.499638},{"town":"元台町","koaza":"","lat":36.35751,"lng":140.481428},{"town":"元山町一丁目","koaza":"","lat":36.378952,"lng":140.456045},{"town":"元山町二丁目","koaza":"","lat":36.377407,"lng":140.45137},{"town":"元吉田町","koaza":"","lat":36.349418,"lng":140.475176},{"town":"森戸町","koaza":"","lat":36.313375,"lng":140.508069},{"town":"谷田町","koaza":"","lat":36.353063,"lng":140.504218},{"town":"谷津町","koaza":"","lat":36.407733,"lng":140.362935},{"town":"柳河町","koaza":"","lat":36.400114,"lng":140.468345},{"town":"柳町一丁目","koaza":"","lat":36.366211,"lng":140.486649},{"town":"柳町二丁目","koaza":"","lat":36.366712,"lng":140.49043},{"town":"百合が丘町","koaza":"","lat":36.345853,"lng":140.506711},{"town":"吉沢町","koaza":"","lat":36.327757,"lng":140.459685},{"town":"吉田","koaza":"","lat":36.362343,"lng":140.485973},{"town":"吉沼町","koaza":"","lat":36.366615,"lng":140.516638},{"town":"米沢町","koaza":"","lat":36.341944,"lng":140.4612},{"town":"六反田町","koaza":"","lat":36.351604,"lng":140.511842},{"town":"若宮一丁目","koaza":"","lat":36.373996,"lng":140.503526},{"town":"若宮二丁目","koaza":"","lat":36.377012,"lng":140.502271},{"town":"若宮町","koaza":"","lat":36.380203,"lng":140.50222},{"town":"渡里町","koaza":"","lat":36.408547,"lng":140.440221},{"town":"三湯町","koaza":"","lat":36.369831,"lng":140.344351},{"town":"中原町","koaza":"","lat":36.38069,"lng":140.35813},{"town":"内原町","koaza":"","lat":36.365393,"lng":140.359844},{"town":"杉崎町","koaza":"","lat":36.383079,"lng":140.338668},{"town":"内原二丁目","koaza":"","lat":36.374562,"lng":140.358837},{"town":"内原一丁目","koaza":"","lat":36.372598,"lng":140.353027},{"town":"内原町一丁目","koaza":"","lat":36.371292,"lng":140.353671},{"town":"河和田町","koaza":"稲荷新田","lat":36.365597,"lng":140.404556},{"town":"大塚町","koaza":"新堂","lat":36.384408,"lng":140.406714},{"town":"河和田町","koaza":"榎本","lat":36.36308,"lng":140.410147},{"town":"河和田町","koaza":"水窪","lat":36.363209,"lng":140.415407},{"town":"小吹町","koaza":"新山","lat":36.341001,"lng":140.436747},{"town":"平須町","koaza":"南山","lat":36.318827,"lng":140.43751},{"town":"千波町","koaza":"海道付","lat":36.348714,"lng":140.44599},{"town":"千波町","koaza":"千波山","lat":36.364536,"lng":140.450024},{"town":"吉沢町","koaza":"西割","lat":36.32923,"lng":140.459459},{"town":"千波町","koaza":"かち道","lat":36.364215,"lng":140.46741},{"town":"元吉田町","koaza":"一本松","lat":36.353605,"lng":140.472563},{"town":"千波町","koaza":"中山","lat":36.360647,"lng":140.446829},{"town":"見川町","koaza":"手負山","lat":36.361186,"lng":140.44579},{"town":"酒門町","koaza":"仲田","lat":36.359976,"lng":140.495205},{"town":"酒門町","koaza":"上千束","lat":36.340179,"lng":140.48386},{"town":"元吉田町","koaza":"上千束","lat":36.339609,"lng":140.481253},{"town":"内原町二丁目","koaza":"","lat":36.374769,"lng":140.359157}]