[{"town":"大字中野内","koaza":"","lat":36.023916,"lng":140.332},{"town":"大字余郷入","koaza":"","lat":36.001447,"lng":140.351564},{"town":"大字信太","koaza":"","lat":35.986044,"lng":140.31301},{"town":"大字八井田","koaza":"","lat":36.026102,"lng":140.331713},{"town":"大字受領","koaza":"","lat":36.006785,"lng":140.302405},{"town":"大字土屋","koaza":"","lat":35.990865,"lng":140.286896},{"town":"大字土浦","koaza":"","lat":36.011558,"lng":140.347672},{"town":"大字堀田","koaza":"","lat":36.023734,"lng":140.329698},{"town":"大字大塚","koaza":"","lat":36.023442,"lng":140.320312},{"town":"大字大山","koaza":"","lat":36.005503,"lng":140.366683},{"town":"大字大谷","koaza":"","lat":36.000326,"lng":140.318089},{"town":"大字大須賀津","koaza":"","lat":36.024123,"lng":140.311545},{"town":"大字太田","koaza":"","lat":36.012521,"lng":140.331735},{"town":"大字定光","koaza":"","lat":36.012872,"lng":140.327222},{"town":"大字宮地","koaza":"","lat":36.008329,"lng":140.316704},{"town":"大字山内","koaza":"","lat":36.020536,"lng":140.329265},{"town":"大字山王","koaza":"","lat":36.019117,"lng":140.326055},{"town":"大字布佐","koaza":"","lat":36.011665,"lng":140.281175},{"town":"大字木","koaza":"","lat":36.014322,"lng":140.326806},{"town":"大字木原","koaza":"","lat":36.014515,"lng":140.290861},{"town":"大字本橋","koaza":"","lat":36.012876,"lng":140.329456},{"town":"大字根本","koaza":"","lat":36.024846,"lng":140.346756},{"town":"大字根火","koaza":"","lat":36.023555,"lng":140.33865},{"town":"大字牛込","koaza":"","lat":36.025736,"lng":140.342075},{"town":"大字美駒","koaza":"","lat":35.985858,"lng":140.304378},{"town":"大字興津","koaza":"","lat":35.996293,"lng":140.303098},{"town":"大字舟子","koaza":"","lat":36.027572,"lng":140.282051},{"town":"大字花見塚","koaza":"","lat":36.016662,"lng":140.322802},{"town":"大字茂呂","koaza":"","lat":36.014072,"lng":140.313453},{"town":"大字見晴","koaza":"","lat":36.016429,"lng":140.333742},{"town":"大字谷中","koaza":"","lat":36.018207,"lng":140.320582},{"town":"大字間野","koaza":"","lat":36.010633,"lng":140.334745},{"town":"大字馬掛","koaza":"","lat":36.021329,"lng":140.353231},{"town":"大字馬見山","koaza":"","lat":36.014387,"lng":140.354301},{"town":"郷中","koaza":"","lat":36.009963,"lng":140.295502},{"town":"みどり台","koaza":"","lat":36.016197,"lng":140.315658}]