[{"town":"青屋町","lat":"34.716112","lng":"137.781322"},{"town":"飯田町","lat":"34.706931","lng":"137.775756"},{"town":"石原町","lat":"34.691933","lng":"137.772641"},{"town":"瓜内町","lat":"34.688078","lng":"137.735072"},{"town":"江之島町","lat":"34.662467","lng":"137.755573"},{"town":"遠州浜一丁目","lat":"34.657794","lng":"137.761709"},{"town":"遠州浜二丁目","lat":"34.656772","lng":"137.767605"},{"town":"遠州浜三丁目","lat":"34.655971","lng":"137.772902"},{"town":"遠州浜四丁目","lat":"34.654426","lng":"137.776628"},{"town":"老間町","lat":"34.690026","lng":"137.78925"},{"town":"大塚町","lat":"34.698129","lng":"137.789284"},{"town":"大柳町","lat":"34.676654","lng":"137.756513"},{"town":"卸本町","lat":"34.673065","lng":"137.724662"},{"town":"恩地町","lat":"34.687206","lng":"137.760258"},{"town":"金折町","lat":"34.691782","lng":"137.780868"},{"town":"河輪町","lat":"34.674878","lng":"137.786213"},{"town":"倉松町","lat":"34.673412","lng":"137.692546"},{"town":"御給町","lat":"34.675866","lng":"137.768763"},{"town":"小沢渡町","lat":"34.677762","lng":"137.679931"},{"town":"参野町","lat":"34.691868","lng":"137.761007"},{"town":"三新町","lat":"34.662414","lng":"137.784606"},{"town":"三和町","lat":"34.704649","lng":"137.767089"},{"town":"四本松町","lat":"34.684259","lng":"137.767693"},{"town":"下飯田町","lat":"34.700228","lng":"137.778853"},{"town":"下江町","lat":"34.676905","lng":"137.772265"},{"town":"白羽町","lat":"34.672407","lng":"137.731721"},{"town":"新貝町","lat":"34.703269","lng":"137.791939"},{"town":"頭陀寺町","lat":"34.698732","lng":"137.757989"},{"town":"西伝寺町","lat":"34.702085","lng":"137.764101"},{"town":"増楽町","lat":"34.690417","lng":"137.692591"},{"town":"高塚町","lat":"34.690267","lng":"137.681178"},{"town":"田尻町","lat":"34.665711","lng":"137.722197"},{"town":"立野町","lat":"34.685191","lng":"137.773927"},{"town":"堤町","lat":"34.669256","lng":"137.704523"},{"town":"都盛町","lat":"34.686337","lng":"137.755818"},{"town":"鶴見町","lat":"34.710229","lng":"137.793257"},{"town":"寺脇町","lat":"34.67855","lng":"137.748588"},{"town":"富屋町","lat":"34.678463","lng":"137.775403"},{"town":"中田島町","lat":"34.668753","lng":"137.741869"},{"town":"長田町","lat":"34.670734","lng":"137.777078"},{"town":"西島町","lat":"34.669275","lng":"137.767028"},{"town":"西町","lat":"34.683186","lng":"137.779156"},{"town":"新橋町","lat":"34.682125","lng":"137.705704"},{"town":"鼡野町","lat":"34.67646","lng":"137.763208"},{"town":"法枝町","lat":"34.677759","lng":"137.719662"},{"town":"東町","lat":"34.67996","lng":"137.78297"},{"town":"東若林町","lat":"34.689425","lng":"137.712192"},{"town":"福島町","lat":"34.663841","lng":"137.768361"},{"town":"福塚町","lat":"34.674783","lng":"137.752807"},{"town":"古川町","lat":"34.687555","lng":"137.771106"},{"town":"芳川町","lat":"34.688332","lng":"137.765654"},{"town":"本郷町","lat":"34.697372","lng":"137.762307"},{"town":"松島町","lat":"34.662507","lng":"137.776082"},{"town":"三島町","lat":"34.688898","lng":"137.745959"},{"town":"安松町","lat":"34.697423","lng":"137.770165"},{"town":"楊子町","lat":"34.693931","lng":"137.746117"},{"town":"米津町","lat":"34.670951","lng":"137.719096"},{"town":"若林町","lat":"34.691268","lng":"137.702509"},{"town":"渡瀬町","lat":"34.70634","lng":"137.760955"}]