[{"town":"桜森町","lat":"34.743738","lng":"135.173906"},{"town":"山田町東下","lat":"34.7614","lng":"135.119754"},{"town":"ひよどり台南町四丁目","lat":"34.691558","lng":"135.122422"},{"town":"ひよどり台南町三丁目","lat":"34.689559","lng":"135.12006"},{"town":"ひよどり台南町二丁目","lat":"34.688913","lng":"135.122732"},{"town":"ひよどり台一丁目","lat":"34.694667","lng":"135.121441"},{"town":"ひよどり台三丁目","lat":"34.69812","lng":"135.124268"},{"town":"星和台七丁目","lat":"34.724092","lng":"135.121072"},{"town":"星和台六丁目","lat":"34.722671","lng":"135.122708"},{"town":"有野町唐櫃","lat":"34.781502","lng":"135.225979"},{"town":"有馬町","lat":"34.789225","lng":"135.255196"},{"town":"山田町上谷上","lat":"34.759717","lng":"135.192908"},{"town":"小倉台三丁目","lat":"34.753455","lng":"135.166987"},{"town":"小倉台七丁目","lat":"34.752045","lng":"135.17109"},{"town":"小倉台一丁目","lat":"34.754044","lng":"135.16386"},{"town":"緑町四丁目","lat":"34.752571","lng":"135.149629"},{"town":"桂木四丁目","lat":"34.753232","lng":"135.147196"},{"town":"桂木三丁目","lat":"34.753004","lng":"135.143966"},{"town":"山田町原野","lat":"34.766309","lng":"135.143237"},{"town":"日の峰二丁目","lat":"34.754715","lng":"135.141953"},{"town":"山田町中","lat":"34.77234","lng":"135.129498"},{"town":"山田町小河","lat":"34.749125","lng":"135.100783"},{"town":"山田町西下","lat":"34.756688","lng":"135.108599"},{"town":"山田町坂本","lat":"34.780511","lng":"135.114776"},{"town":"淡河町野瀬","lat":"34.801654","lng":"135.153856"},{"town":"淡河町萩原","lat":"34.810432","lng":"135.109188"},{"town":"淡河町木津","lat":"34.810559","lng":"135.118847"},{"town":"淡河町行原","lat":"34.812832","lng":"135.125174"},{"town":"淡河町北畑","lat":"34.826978","lng":"135.122753"},{"town":"淡河町南僧尾","lat":"34.829116","lng":"135.109207"},{"town":"淡河町北僧尾","lat":"34.836076","lng":"135.116654"},{"town":"京地三丁目","lat":"34.83723","lng":"135.211364"},{"town":"道場町塩田","lat":"34.865533","lng":"135.237089"},{"town":"道場町生野","lat":"34.864133","lng":"135.268285"},{"town":"有野町有野","lat":"34.816201","lng":"135.223084"},{"town":"有野町二郎","lat":"34.845818","lng":"135.227001"},{"town":"西山一丁目","lat":"34.836958","lng":"135.218485"},{"town":"京地二丁目","lat":"34.837149","lng":"135.214519"},{"town":"八多町上小名田","lat":"34.835567","lng":"135.196431"},{"town":"八多町吉尾","lat":"34.827327","lng":"135.209788"},{"town":"大沢町神付","lat":"34.837034","lng":"135.181061"},{"town":"大沢町中大沢","lat":"34.847893","lng":"135.161989"},{"town":"大沢町上大沢","lat":"34.849402","lng":"135.184629"},{"town":"八多町西畑","lat":"34.828918","lng":"135.170298"},{"town":"淡河町神影","lat":"34.832175","lng":"135.142093"},{"town":"淡河町神田","lat":"34.831777","lng":"135.156388"},{"town":"ひよどり台南町一丁目","lat":"34.689325","lng":"135.124481"},{"town":"ひよどり台四丁目","lat":"34.698438","lng":"135.128764"},{"town":"中里町二丁目","lat":"34.714243","lng":"135.154523"},{"town":"鈴蘭台南町九丁目","lat":"34.717403","lng":"135.146445"},{"town":"君影町四丁目","lat":"34.715532","lng":"135.140535"},{"town":"君影町五丁目","lat":"34.717947","lng":"135.140964"},{"town":"君影町二丁目","lat":"34.715007","lng":"135.137965"},{"town":"君影町三丁目","lat":"34.717482","lng":"135.138084"},{"town":"君影町一丁目","lat":"34.716825","lng":"135.13457"},{"town":"星和台二丁目","lat":"34.716357","lng":"135.13142"},{"town":"星和台三丁目","lat":"34.718073","lng":"135.124866"},{"town":"鈴蘭台北町八丁目","lat":"34.72554","lng":"135.157116"},{"town":"中里町一丁目","lat":"34.718391","lng":"135.156068"},{"town":"鈴蘭台東町九丁目","lat":"34.72212","lng":"135.157059"},{"town":"鈴蘭台東町八丁目","lat":"34.7228","lng":"135.153883"},{"town":"鈴蘭台東町七丁目","lat":"34.724957","lng":"135.154673"},{"town":"鈴蘭台東町六丁目","lat":"34.723698","lng":"135.152511"},{"town":"鈴蘭台東町三丁目","lat":"34.722574","lng":"135.150178"},{"town":"鈴蘭台東町四丁目","lat":"34.723478","lng":"135.149089"},{"town":"鈴蘭台北町九丁目","lat":"34.728499","lng":"135.158819"},{"town":"鈴蘭台北町七丁目","lat":"34.727353","lng":"135.156007"},{"town":"惣山町四丁目","lat":"34.733357","lng":"135.156715"},{"town":"鈴蘭台東町五丁目","lat":"34.725479","lng":"135.150984"},{"town":"鈴蘭台北町五丁目","lat":"34.727669","lng":"135.152097"},{"town":"鈴蘭台北町六丁目","lat":"34.729596","lng":"135.152431"},{"town":"鈴蘭台北町四丁目","lat":"34.726473","lng":"135.14993"},{"town":"鈴蘭台北町三丁目","lat":"34.729546","lng":"135.149097"},{"town":"惣山町三丁目","lat":"34.735019","lng":"135.153976"},{"town":"鈴蘭台南町八丁目","lat":"34.716991","lng":"135.144969"},{"town":"鈴蘭台東町二丁目","lat":"34.720506","lng":"135.148887"},{"town":"鈴蘭台東町一丁目","lat":"34.721841","lng":"135.147119"},{"town":"鈴蘭台北町一丁目","lat":"34.726001","lng":"135.147259"},{"town":"鈴蘭台南町七丁目","lat":"34.720191","lng":"135.144879"},{"town":"鈴蘭台南町六丁目","lat":"34.721932","lng":"135.144029"},{"town":"鈴蘭台南町一丁目","lat":"34.723792","lng":"135.144121"},{"town":"君影町六丁目","lat":"34.719308","lng":"135.140998"},{"town":"南五葉六丁目","lat":"34.720256","lng":"135.139021"},{"town":"鈴蘭台南町五丁目","lat":"34.721416","lng":"135.141824"},{"town":"鈴蘭台南町二丁目","lat":"34.724312","lng":"135.140476"},{"town":"南五葉四丁目","lat":"34.719215","lng":"135.135479"},{"town":"南五葉五丁目","lat":"34.722","lng":"135.136909"},{"town":"鈴蘭台南町四丁目","lat":"34.723521","lng":"135.13783"},{"town":"鈴蘭台北町二丁目","lat":"34.728042","lng":"135.146111"},{"town":"鈴蘭台南町三丁目","lat":"34.725225","lng":"135.138002"},{"town":"鈴蘭台西町一丁目","lat":"34.72623","lng":"135.143469"},{"town":"鈴蘭台西町六丁目","lat":"34.731738","lng":"135.146042"},{"town":"鈴蘭台西町四丁目","lat":"34.728943","lng":"135.14311"},{"town":"鈴蘭台西町五丁目","lat":"34.730855","lng":"135.143003"},{"town":"鈴蘭台西町二丁目","lat":"34.727143","lng":"135.139092"},{"town":"鈴蘭台西町三丁目","lat":"34.729241","lng":"135.139636"},{"town":"北五葉七丁目","lat":"34.730401","lng":"135.138744"},{"town":"北五葉六丁目","lat":"34.73275","lng":"135.139199"},{"town":"北五葉三丁目","lat":"34.730446","lng":"135.136168"},{"town":"南五葉三丁目","lat":"34.720771","lng":"135.133236"},{"town":"南五葉一丁目","lat":"34.724237","lng":"135.134805"},{"town":"北五葉一丁目","lat":"34.727239","lng":"135.135279"},{"town":"鳴子一丁目","lat":"34.724081","lng":"135.128978"},{"town":"鳴子二丁目","lat":"34.722923","lng":"135.126661"},{"town":"鳴子三丁目","lat":"34.725786","lng":"135.127353"},{"town":"南五葉二丁目","lat":"34.724199","lng":"135.131665"},{"town":"北五葉二丁目","lat":"34.728888","lng":"135.131855"},{"town":"北五葉五丁目","lat":"34.734035","lng":"135.136212"},{"town":"北五葉四丁目","lat":"34.733451","lng":"135.13305"},{"town":"筑紫が丘六丁目","lat":"34.741694","lng":"135.164114"},{"town":"筑紫が丘五丁目","lat":"34.741662","lng":"135.161279"},{"town":"筑紫が丘八丁目","lat":"34.743879","lng":"135.168314"},{"town":"筑紫が丘九丁目","lat":"34.745741","lng":"135.16936"},{"town":"小倉台六丁目","lat":"34.748838","lng":"135.17145"},{"town":"小倉台五丁目","lat":"34.749345","lng":"135.16892"},{"town":"小倉台四丁目","lat":"34.751415","lng":"135.168515"},{"town":"筑紫が丘七丁目","lat":"34.742833","lng":"135.165878"},{"town":"筑紫が丘四丁目","lat":"34.746037","lng":"135.166254"},{"town":"筑紫が丘三丁目","lat":"34.744671","lng":"135.16283"},{"town":"筑紫が丘一丁目","lat":"34.746159","lng":"135.161505"},{"town":"筑紫が丘二丁目","lat":"34.748339","lng":"135.166062"},{"town":"小倉台二丁目","lat":"34.750941","lng":"135.165417"},{"town":"広陵町五丁目","lat":"34.749117","lng":"135.163405"},{"town":"広陵町四丁目","lat":"34.751399","lng":"135.162759"},{"town":"広陵町三丁目","lat":"34.750382","lng":"135.161045"},{"town":"大脇台","lat":"34.7387","lng":"135.161621"},{"town":"山田町小部","lat":"34.732713","lng":"135.162901"},{"town":"惣山町五丁目","lat":"34.736601","lng":"135.157265"},{"town":"若葉台三丁目","lat":"34.738394","lng":"135.157752"},{"town":"若葉台二丁目","lat":"34.740851","lng":"135.157155"},{"town":"惣山町二丁目","lat":"34.736878","lng":"135.153968"},{"town":"惣山町一丁目","lat":"34.73391","lng":"135.151279"},{"town":"若葉台四丁目","lat":"34.73874","lng":"135.153049"},{"town":"若葉台一丁目","lat":"34.740855","lng":"135.153727"},{"town":"甲栄台五丁目","lat":"34.737593","lng":"135.149416"},{"town":"甲栄台四丁目","lat":"34.739134","lng":"135.149804"},{"town":"松宮台一丁目","lat":"34.736223","lng":"135.148455"},{"town":"広陵町六丁目","lat":"34.748059","lng":"135.161489"},{"town":"広陵町一丁目","lat":"34.749986","lng":"135.157776"},{"town":"広陵町二丁目","lat":"34.750174","lng":"135.159459"},{"town":"甲栄台一丁目","lat":"34.741852","lng":"135.151412"},{"town":"緑町一丁目","lat":"34.746915","lng":"135.153087"},{"town":"甲栄台二丁目","lat":"34.741806","lng":"135.149737"},{"town":"緑町七丁目","lat":"34.745354","lng":"135.150811"},{"town":"緑町八丁目","lat":"34.751249","lng":"135.153304"},{"town":"緑町三丁目","lat":"34.75015","lng":"135.150341"},{"town":"緑町二丁目","lat":"34.749223","lng":"135.148664"},{"town":"甲栄台三丁目","lat":"34.741911","lng":"135.1478"},{"town":"松宮台二丁目","lat":"34.736193","lng":"135.144993"},{"town":"泉台二丁目","lat":"34.739355","lng":"135.144786"},{"town":"泉台一丁目","lat":"34.741026","lng":"135.144758"},{"town":"杉尾台一丁目","lat":"34.735788","lng":"135.140679"},{"town":"泉台三丁目","lat":"34.739792","lng":"135.140981"},{"town":"泉台四丁目","lat":"34.74019","lng":"135.137982"},{"town":"緑町六丁目","lat":"34.74563","lng":"135.147304"},{"town":"緑町五丁目","lat":"34.748639","lng":"135.146764"},{"town":"桂木一丁目","lat":"34.748152","lng":"135.145806"},{"town":"桂木二丁目","lat":"34.749308","lng":"135.143562"},{"town":"大原一丁目","lat":"34.744531","lng":"135.143858"},{"town":"大原二丁目","lat":"34.745212","lng":"135.138198"},{"town":"大原三丁目","lat":"34.748411","lng":"135.139116"},{"town":"杉尾台二丁目","lat":"34.736161","lng":"135.138065"},{"town":"泉台六丁目","lat":"34.736263","lng":"135.134919"},{"town":"泉台五丁目","lat":"34.738822","lng":"135.13467"},{"town":"泉台七丁目","lat":"34.737097","lng":"135.131324"},{"town":"ひよどり台二丁目","lat":"34.697497","lng":"135.118933"},{"town":"谷上西町","lat":"34.761782","lng":"135.168577"},{"town":"谷上南町","lat":"34.763301","lng":"135.178887"},{"town":"谷上東町","lat":"34.763322","lng":"135.175715"},{"town":"有野中町二丁目","lat":"34.825463","lng":"135.225371"},{"town":"花山中尾台二丁目","lat":"34.766285","lng":"135.195054"},{"town":"幸陽町三丁目","lat":"34.765227","lng":"135.191546"},{"town":"幸陽町二丁目","lat":"34.767081","lng":"135.19019"},{"town":"花山東町","lat":"34.765359","lng":"135.185496"},{"town":"松が枝町一丁目","lat":"34.757048","lng":"135.151754"},{"town":"松が枝町二丁目","lat":"34.759256","lng":"135.150855"},{"town":"松が枝町三丁目","lat":"34.760514","lng":"135.150834"},{"town":"日の峰一丁目","lat":"34.758448","lng":"135.147525"},{"town":"日の峰三丁目","lat":"34.75829","lng":"135.14443"},{"town":"日の峰四丁目","lat":"34.762174","lng":"135.145693"},{"town":"日の峰五丁目","lat":"34.760518","lng":"135.141828"},{"town":"唐櫃六甲台","lat":"34.782871","lng":"135.207807"},{"town":"東大池三丁目","lat":"34.776217","lng":"135.201078"},{"town":"東大池二丁目","lat":"34.780799","lng":"135.201657"},{"town":"幸陽町一丁目","lat":"34.768442","lng":"135.188143"},{"town":"花山中尾台三丁目","lat":"34.76881","lng":"135.196871"},{"town":"花山中尾台一丁目","lat":"34.768893","lng":"135.191693"},{"town":"大池見山台","lat":"34.774331","lng":"135.191494"},{"town":"西大池二丁目","lat":"34.774106","lng":"135.198057"},{"town":"東大池一丁目","lat":"34.778002","lng":"135.199429"},{"town":"西大池一丁目","lat":"34.777969","lng":"135.1971"},{"town":"花山台","lat":"34.769503","lng":"135.184592"},{"town":"青葉台","lat":"34.766144","lng":"135.152369"},{"town":"柏尾台","lat":"34.77131","lng":"135.148013"},{"town":"山田町福地","lat":"34.774554","lng":"135.136551"},{"town":"唐櫃台一丁目","lat":"34.792324","lng":"135.216526"},{"town":"唐櫃台二丁目","lat":"34.790294","lng":"135.213289"},{"town":"唐櫃台四丁目","lat":"34.785376","lng":"135.213823"},{"town":"唐櫃台三丁目","lat":"34.787525","lng":"135.213565"},{"town":"山田町与左衛門新田","lat":"34.785655","lng":"135.161947"},{"town":"東有野台四丁目","lat":"34.807574","lng":"135.237218"},{"town":"東有野台三丁目","lat":"34.808117","lng":"135.239985"},{"town":"東有野台五丁目","lat":"34.805854","lng":"135.237509"},{"town":"東有野台二丁目","lat":"34.810825","lng":"135.23455"},{"town":"東有野台一丁目","lat":"34.808734","lng":"135.233839"},{"town":"有野台七丁目","lat":"34.809364","lng":"135.228411"},{"town":"有野台六丁目","lat":"34.811989","lng":"135.230983"},{"town":"有野台五丁目","lat":"34.814441","lng":"135.231314"},{"town":"有野台四丁目","lat":"34.816786","lng":"135.230805"},{"town":"有野台三丁目","lat":"34.815374","lng":"135.227202"},{"town":"有野台二丁目","lat":"34.812452","lng":"135.226059"},{"town":"有野台八丁目","lat":"34.807962","lng":"135.227122"},{"town":"有野台一丁目","lat":"34.810857","lng":"135.224335"},{"town":"有野台九丁目","lat":"34.808177","lng":"135.22052"},{"town":"藤原台中町八丁目","lat":"34.816837","lng":"135.220617"},{"town":"藤原台南町一丁目","lat":"34.812644","lng":"135.209691"},{"town":"藤原台中町七丁目","lat":"34.81435","lng":"135.212507"},{"town":"藤原台中町六丁目","lat":"34.816095","lng":"135.215025"},{"town":"藤原台南町四丁目","lat":"34.81399","lng":"135.205516"},{"town":"藤原台南町三丁目","lat":"34.810775","lng":"135.20774"},{"town":"藤原台南町二丁目","lat":"34.80989","lng":"135.211562"},{"town":"藤原台南町五丁目","lat":"34.815266","lng":"135.202774"},{"town":"八多町柳谷","lat":"34.812183","lng":"135.199086"},{"town":"有野中町三丁目","lat":"34.830097","lng":"135.226025"},{"town":"藤原台中町二丁目","lat":"34.819572","lng":"135.220175"},{"town":"藤原台中町三丁目","lat":"34.819135","lng":"135.217124"},{"town":"藤原台中町四丁目","lat":"34.819527","lng":"135.214768"},{"town":"藤原台中町一丁目","lat":"34.82226","lng":"135.218861"},{"town":"藤原台中町五丁目","lat":"34.819951","lng":"135.21241"},{"town":"有野中町一丁目","lat":"34.820326","lng":"135.222714"},{"town":"藤原台北町一丁目","lat":"34.825414","lng":"135.222498"},{"town":"藤原台北町二丁目","lat":"34.825281","lng":"135.219155"},{"town":"藤原台北町三丁目","lat":"34.827975","lng":"135.220458"},{"town":"藤原台北町六丁目","lat":"34.831724","lng":"135.223712"},{"town":"藤原台北町五丁目","lat":"34.831435","lng":"135.221293"},{"town":"有野中町四丁目","lat":"34.834359","lng":"135.227834"},{"town":"藤原台北町四丁目","lat":"34.828795","lng":"135.217674"},{"town":"藤原台北町七丁目","lat":"34.834615","lng":"135.222026"},{"town":"京地四丁目","lat":"34.834581","lng":"135.211514"},{"town":"京地一丁目","lat":"34.834217","lng":"135.215778"},{"town":"八多町附物","lat":"34.804502","lng":"135.184578"},{"town":"八多町屏風","lat":"34.804936","lng":"135.172695"},{"town":"八多町深谷","lat":"34.823178","lng":"135.181929"},{"town":"淡河町中山","lat":"34.812149","lng":"135.139818"},{"town":"淡河町東畑","lat":"34.816293","lng":"135.131193"},{"town":"山田町衝原","lat":"34.773259","lng":"135.092761"},{"town":"淡河町勝雄","lat":"34.803575","lng":"135.088581"},{"town":"淡河町淡河","lat":"34.81002","lng":"135.09751"},{"town":"上津台八丁目","lat":"34.859139","lng":"135.194506"},{"town":"上津台五丁目","lat":"34.86992","lng":"135.19201"},{"town":"上津台七丁目","lat":"34.861548","lng":"135.191465"},{"town":"上津台四丁目","lat":"34.868182","lng":"135.197607"},{"town":"上津台六丁目","lat":"34.867253","lng":"135.191531"},{"town":"上津台九丁目","lat":"34.85995","lng":"135.198213"},{"town":"上津台一丁目","lat":"34.864188","lng":"135.201342"},{"town":"鹿の子台南町六丁目","lat":"34.857058","lng":"135.207703"},{"town":"上津台二丁目","lat":"34.863572","lng":"135.194998"},{"town":"上津台三丁目","lat":"34.867196","lng":"135.195893"},{"town":"赤松台一丁目","lat":"34.877279","lng":"135.184151"},{"town":"赤松台二丁目","lat":"34.877489","lng":"135.177082"},{"town":"西山二丁目","lat":"34.838918","lng":"135.221725"},{"town":"菖蒲が丘三丁目","lat":"34.841947","lng":"135.224536"},{"town":"菖蒲が丘一丁目","lat":"34.840277","lng":"135.218306"},{"town":"菖蒲が丘二丁目","lat":"34.842311","lng":"135.221203"},{"town":"八多町下小名田","lat":"34.844028","lng":"135.20991"},{"town":"道場町平田","lat":"34.852823","lng":"135.237274"},{"town":"道場町道場","lat":"34.864108","lng":"135.22932"},{"town":"八多町中","lat":"34.850463","lng":"135.218014"},{"town":"鹿の子台南町二丁目","lat":"34.849256","lng":"135.209001"},{"town":"鹿の子台南町一丁目","lat":"34.852533","lng":"135.215539"},{"town":"鹿の子台南町四丁目","lat":"34.853946","lng":"135.213839"},{"town":"道場町日下部","lat":"34.860988","lng":"135.227316"},{"town":"鹿の子台北町三丁目","lat":"34.859503","lng":"135.221763"},{"town":"鹿の子台北町四丁目","lat":"34.860221","lng":"135.21989"},{"town":"鹿の子台北町二丁目","lat":"34.864566","lng":"135.224454"},{"town":"鹿の子台北町五丁目","lat":"34.86422","lng":"135.221333"},{"town":"鹿の子台北町一丁目","lat":"34.867733","lng":"135.223269"},{"town":"鹿の子台北町六丁目","lat":"34.862598","lng":"135.217689"},{"town":"鹿の子台北町八丁目","lat":"34.860105","lng":"135.216297"},{"town":"鹿の子台南町五丁目","lat":"34.859509","lng":"135.21338"},{"town":"鹿の子台南町三丁目","lat":"34.853018","lng":"135.210511"},{"town":"大沢町日西原","lat":"34.861132","lng":"135.169126"},{"town":"鹿の子台北町七丁目","lat":"34.867567","lng":"135.218272"},{"town":"長尾町宅原","lat":"34.862575","lng":"135.206702"},{"town":"大沢町市原","lat":"34.873953","lng":"135.171835"},{"town":"大沢町簾","lat":"34.870787","lng":"135.160841"},{"town":"長尾町上津","lat":"34.876491","lng":"135.193979"},{"town":"ひよどり台五丁目","lat":"34.701192","lng":"135.120992"},{"town":"ひよどり北町一丁目","lat":"34.704457","lng":"135.11981"},{"town":"ひよどり北町二丁目","lat":"34.705641","lng":"135.119916"},{"town":"ひよどり北町三丁目","lat":"34.708477","lng":"135.120008"},{"town":"山田町下谷上","lat":"34.725645","lng":"135.173837"},{"town":"星和台四丁目","lat":"34.719199","lng":"135.122739"},{"town":"星和台五丁目","lat":"34.719088","lng":"135.119811"},{"town":"しあわせの村","lat":"34.711657","lng":"135.114707"},{"town":"山田町藍那","lat":"34.731305","lng":"135.11473"},{"town":"星和台一丁目","lat":"34.719007","lng":"135.130003"}]