[{"town":"東今里一丁目","lat":"34.680418","lng":"135.551480"},{"town":"中本二丁目","lat":"34.679818","lng":"135.541696"},{"town":"大今里南五丁目","lat":"34.666376","lng":"135.554008"},{"town":"中本三丁目","lat":"34.679109","lng":"135.543178"},{"town":"東中本一丁目","lat":"34.680973","lng":"135.547074"},{"town":"中本一丁目","lat":"34.682001","lng":"135.541683"},{"town":"神路四丁目","lat":"34.669151","lng":"135.553190"},{"town":"大今里南四丁目","lat":"34.666368","lng":"135.552104"},{"town":"大今里南三丁目","lat":"34.666446","lng":"135.549900"},{"town":"玉津三丁目","lat":"34.666724","lng":"135.537442"},{"town":"神路二丁目","lat":"34.674724","lng":"135.554000"},{"town":"大今里南二丁目","lat":"34.666622","lng":"135.547179"},{"town":"中本四丁目","lat":"34.676618","lng":"135.539625"},{"town":"中道四丁目","lat":"34.675779","lng":"135.537526"},{"town":"大今里西二丁目","lat":"34.670001","lng":"135.540377"},{"town":"大今里南六丁目","lat":"34.666336","lng":"135.556091"},{"town":"東小橋二丁目","lat":"34.669507","lng":"135.533674"},{"town":"中道三丁目","lat":"34.676191","lng":"135.535134"},{"town":"大今里西三丁目","lat":"34.667287","lng":"135.540953"},{"town":"神路三丁目","lat":"34.671854","lng":"135.553513"},{"town":"東小橋三丁目","lat":"34.666902","lng":"135.532887"},{"town":"大今里南一丁目","lat":"34.667200","lng":"135.544318"},{"town":"神路一丁目","lat":"34.678471","lng":"135.554560"},{"town":"中本五丁目","lat":"34.676242","lng":"135.542352"},{"town":"中道一丁目","lat":"34.679666","lng":"135.535672"},{"town":"東今里二丁目","lat":"34.678331","lng":"135.551150"},{"town":"玉津一丁目","lat":"34.672361","lng":"135.537752"},{"town":"大今里四丁目","lat":"34.669166","lng":"135.549539"},{"town":"深江南一丁目","lat":"34.670875","lng":"135.555998"},{"town":"東小橋一丁目","lat":"34.672645","lng":"135.534730"},{"town":"中道二丁目","lat":"34.679483","lng":"135.538719"},{"town":"大今里三丁目","lat":"34.669663","lng":"135.545268"},{"town":"東今里三丁目","lat":"34.675626","lng":"135.550658"},{"town":"深江北一丁目","lat":"34.676495","lng":"135.556687"},{"town":"深江南三丁目","lat":"34.670575","lng":"135.560831"},{"town":"深江南二丁目","lat":"34.670594","lng":"135.558389"},{"town":"東中本二丁目","lat":"34.678958","lng":"135.546753"},{"town":"深江北二丁目","lat":"34.675883","lng":"135.558817"},{"town":"玉津二丁目","lat":"34.668495","lng":"135.537109"},{"town":"大今里二丁目","lat":"34.672313","lng":"135.550075"},{"town":"東中本三丁目","lat":"34.676095","lng":"135.546303"},{"town":"大今里西一丁目","lat":"34.671709","lng":"135.541497"},{"town":"大今里一丁目","lat":"34.672740","lng":"135.545765"},{"town":"深江北三丁目","lat":"34.675735","lng":"135.561473"}]