[{"town":"住之江一丁目","lat":"34.605352","lng":"135.487992"},{"town":"安立二丁目","lat":"34.605110","lng":"135.489226"},{"town":"西加賀屋一丁目","lat":"34.620393","lng":"135.477358"},{"town":"東加賀屋四丁目","lat":"34.613733","lng":"135.482591"},{"town":"中加賀屋四丁目","lat":"34.614199","lng":"135.479093"},{"town":"安立三丁目","lat":"34.602272","lng":"135.488428"},{"town":"住之江二丁目","lat":"34.602576","lng":"135.486931"},{"town":"御崎三丁目","lat":"34.609919","lng":"135.481822"},{"town":"浜口東三丁目","lat":"34.608156","lng":"135.487004"},{"town":"南加賀屋三丁目","lat":"34.605579","lng":"135.474398"},{"town":"東加賀屋三丁目","lat":"34.615861","lng":"135.483043"},{"town":"御崎八丁目","lat":"34.605521","lng":"135.477722"},{"town":"緑木二丁目","lat":"34.615367","lng":"135.471713"},{"town":"浜口西二丁目","lat":"34.610475","lng":"135.484899"},{"town":"浜口東二丁目","lat":"34.610322","lng":"135.488019"},{"town":"御崎一丁目","lat":"34.611831","lng":"135.482072"},{"town":"東加賀屋二丁目","lat":"34.617585","lng":"135.483651"},{"town":"中加賀屋三丁目","lat":"34.616024","lng":"135.479868"},{"town":"住之江三丁目","lat":"34.598858","lng":"135.485437"},{"town":"中加賀屋二丁目","lat":"34.618101","lng":"135.480314"},{"town":"安立一丁目","lat":"34.608509","lng":"135.489831"},{"town":"南加賀屋二丁目","lat":"34.607932","lng":"135.474650"},{"town":"浜口西三丁目","lat":"34.605632","lng":"135.483663"},{"town":"御崎四丁目","lat":"34.610023","lng":"135.478466"},{"town":"粉浜二丁目","lat":"34.617754","lng":"135.489894"},{"town":"西加賀屋四丁目","lat":"34.615016","lng":"135.476211"},{"town":"西加賀屋二丁目","lat":"34.618702","lng":"135.476785"},{"town":"中加賀屋一丁目","lat":"34.620287","lng":"135.480709"},{"town":"浜口西一丁目","lat":"34.612551","lng":"135.485367"},{"town":"浜口東一丁目","lat":"34.612203","lng":"135.488416"},{"town":"新北島六丁目","lat":"34.605384","lng":"135.463050"},{"town":"新北島五丁目","lat":"34.608408","lng":"135.464439"},{"town":"御崎二丁目","lat":"34.612287","lng":"135.478965"},{"town":"西住之江三丁目","lat":"34.600630","lng":"135.483616"},{"town":"北島二丁目","lat":"34.603434","lng":"135.477441"},{"town":"粉浜三丁目","lat":"34.615190","lng":"135.489239"},{"town":"北島一丁目","lat":"34.600197","lng":"135.480717"},{"town":"西加賀屋三丁目","lat":"34.616727","lng":"135.476099"},{"town":"御崎六丁目","lat":"34.607623","lng":"135.478037"},{"town":"粉浜西一丁目","lat":"34.621494","lng":"135.488261"},{"town":"西住之江四丁目","lat":"34.598138","lng":"135.482609"},{"town":"粉浜西二丁目","lat":"34.618404","lng":"135.487071"},{"town":"北加賀屋二丁目","lat":"34.622728","lng":"135.478377"},{"town":"西住之江一丁目","lat":"34.606089","lng":"135.486031"},{"town":"新北島七丁目","lat":"34.608975","lng":"135.461306"},{"town":"粉浜西三丁目","lat":"34.615723","lng":"135.486292"},{"town":"御崎五丁目","lat":"34.607535","lng":"135.481599"},{"town":"安立四丁目","lat":"34.598465","lng":"135.486962"},{"town":"西住之江二丁目","lat":"34.603247","lng":"135.484698"},{"town":"北加賀屋一丁目","lat":"34.623603","lng":"135.480655"},{"town":"新北島二丁目","lat":"34.603081","lng":"135.470761"},{"town":"北加賀屋三丁目","lat":"34.625011","lng":"135.476539"},{"town":"新北島八丁目","lat":"34.606387","lng":"135.460128"},{"town":"新北島一丁目","lat":"34.606954","lng":"135.471566"},{"town":"御崎七丁目","lat":"34.604211","lng":"135.481113"},{"town":"粉浜一丁目","lat":"34.621080","lng":"135.490937"},{"town":"東加賀屋一丁目","lat":"34.620364","lng":"135.484438"},{"town":"北島三丁目","lat":"34.599983","lng":"135.477995"},{"town":"新北島四丁目","lat":"34.604260","lng":"135.466723"},{"town":"南加賀屋四丁目","lat":"34.602146","lng":"135.473896"},{"town":"新北島三丁目","lat":"34.607559","lng":"135.467862"},{"town":"南加賀屋一丁目","lat":"34.611620","lng":"135.475177"},{"town":"南港東五丁目","lat":"34.627177","lng":"135.435327"},{"town":"緑木一丁目","lat":"34.618410","lng":"135.472127"},{"town":"南港中五丁目","lat":"34.633903","lng":"135.420199"},{"town":"北加賀屋四丁目","lat":"34.626588","lng":"135.472332"},{"town":"南港中二丁目","lat":"34.629496","lng":"135.428500"},{"town":"南港東二丁目","lat":"34.613748","lng":"135.440294"},{"town":"南港南六丁目","lat":"34.613738","lng":"135.406645"},{"town":"北加賀屋五丁目","lat":"34.622918","lng":"135.473324"},{"town":"南港東七丁目","lat":"34.633847","lng":"135.435776"},{"town":"南港南四丁目","lat":"34.613754","lng":"135.414724"},{"town":"南港中八丁目","lat":"34.630748","lng":"135.410129"},{"town":"南港中七丁目","lat":"34.627020","lng":"135.417137"},{"town":"泉二丁目","lat":"34.612954","lng":"135.463704"},{"town":"南港南三丁目","lat":"34.615555","lng":"135.424893"},{"town":"南港中四丁目","lat":"34.634410","lng":"135.425859"},{"town":"南港中三丁目","lat":"34.628495","lng":"135.423585"},{"town":"南港中六丁目","lat":"34.631956","lng":"135.416109"},{"town":"南港中一丁目","lat":"34.624768","lng":"135.426907"},{"town":"泉一丁目","lat":"34.612082","lng":"135.469824"},{"town":"南港南五丁目","lat":"34.617197","lng":"135.415485"},{"town":"柴谷二丁目","lat":"34.617603","lng":"135.465513"},{"town":"南港南二丁目","lat":"34.617532","lng":"135.433645"},{"town":"柴谷一丁目","lat":"34.623683","lng":"135.465914"},{"town":"南港北三丁目","lat":"34.633584","lng":"135.402894"},{"town":"南港東八丁目","lat":"34.632938","lng":"135.431976"},{"town":"南港東四丁目","lat":"34.621839","lng":"135.438045"},{"town":"南港東六丁目","lat":"34.634405","lng":"135.438884"},{"town":"平林北二丁目","lat":"34.618833","lng":"135.454110"},{"town":"南港東九丁目","lat":"34.640662","lng":"135.430268"},{"town":"南港南七丁目","lat":"34.617618","lng":"135.406255"},{"town":"南港北二丁目","lat":"34.638337","lng":"135.407954"},{"town":"平林北一丁目","lat":"34.622863","lng":"135.454096"},{"town":"平林南二丁目","lat":"34.609609","lng":"135.453121"},{"town":"平林南一丁目","lat":"34.614639","lng":"135.452292"},{"town":"南港南一丁目","lat":"34.611068","lng":"135.441415"},{"town":"南港北一丁目","lat":"34.639792","lng":"135.418806"},{"town":"南港東三丁目","lat":"34.617818","lng":"135.440208"},{"town":"南港東一丁目","lat":"34.614542","lng":"135.444142"}]