[{"town":"大字須賀","lat":"34.476926","lng":"135.575378"},{"town":"大字西板持","lat":"34.489038","lng":"135.595533"},{"town":"甲田四丁目","lat":"34.491072","lng":"135.589429"},{"town":"大字毛人谷","lat":"34.504649","lng":"135.590980"},{"town":"甲田五丁目","lat":"34.493795","lng":"135.590822"},{"town":"津々山台五丁目","lat":"34.493611","lng":"135.576264"},{"town":"加太三丁目","lat":"34.506860","lng":"135.563927"},{"town":"緑ケ丘町","lat":"34.510159","lng":"135.600225"},{"town":"楠風台一丁目","lat":"34.483886","lng":"135.597641"},{"town":"寿町一丁目","lat":"34.499011","lng":"135.594604"},{"town":"大字北大伴","lat":"34.505623","lng":"135.616204"},{"town":"楠風台二丁目","lat":"34.484618","lng":"135.600389"},{"town":"甲田六丁目","lat":"34.496067","lng":"135.591737"},{"town":"西板持町六丁目","lat":"34.488738","lng":"135.605619"},{"town":"新青葉丘町","lat":"34.505858","lng":"135.565955"},{"town":"向陽台五丁目","lat":"34.507902","lng":"135.581410"},{"town":"若松町西三丁目","lat":"34.509932","lng":"135.602763"},{"town":"藤沢台四丁目","lat":"34.505886","lng":"135.567712"},{"town":"若松町三丁目","lat":"34.505370","lng":"135.608238"},{"town":"楠風台三丁目","lat":"34.484973","lng":"135.603162"},{"town":"津々山台二丁目","lat":"34.495404","lng":"135.577934"},{"town":"若松町西二丁目","lat":"34.507962","lng":"135.602104"},{"town":"中野町西一丁目","lat":"34.511883","lng":"135.602731"},{"town":"若松町東二丁目","lat":"34.508586","lng":"135.611538"},{"town":"津々山台四丁目","lat":"34.491418","lng":"135.581494"},{"town":"不動ケ丘町","lat":"34.474255","lng":"135.587861"},{"town":"錦織中二丁目","lat":"34.478886","lng":"135.583873"},{"town":"西板持町五丁目","lat":"34.486997","lng":"135.602726"},{"town":"金剛錦織台","lat":"34.486479","lng":"135.567973"},{"town":"山中田町三丁目","lat":"34.492942","lng":"135.612902"},{"town":"南大伴町二丁目","lat":"34.498052","lng":"135.619692"},{"town":"通法寺町","lat":"34.524331","lng":"135.625637"},{"town":"甲田","lat":"34.493364","lng":"135.597259"},{"town":"昭和町二丁目","lat":"34.507547","lng":"135.598239"},{"town":"谷川町","lat":"34.497181","lng":"135.599869"},{"town":"錦ケ丘町","lat":"34.498392","lng":"135.589868"},{"town":"平町一丁目","lat":"34.525455","lng":"135.602020"},{"town":"喜志町四丁目","lat":"34.527814","lng":"135.609352"},{"town":"昭和町一丁目","lat":"34.504488","lng":"135.597598"},{"town":"川面町二丁目","lat":"34.516819","lng":"135.615585"},{"town":"喜志新家町一丁目","lat":"34.526945","lng":"135.605714"},{"town":"小金台二丁目","lat":"34.498607","lng":"135.581659"},{"town":"喜志町五丁目","lat":"34.524918","lng":"135.605533"},{"town":"錦織中一丁目","lat":"34.482949","lng":"135.586248"},{"town":"別井二丁目","lat":"34.496076","lng":"135.626661"},{"town":"中野町西二丁目","lat":"34.514072","lng":"135.603180"},{"town":"中野町東一丁目","lat":"34.512708","lng":"135.612383"},{"town":"加太二丁目","lat":"34.506887","lng":"135.562593"},{"town":"北大伴町二丁目","lat":"34.502880","lng":"135.619071"},{"town":"津々山台三丁目","lat":"34.493225","lng":"135.579326"},{"town":"寿町三丁目","lat":"34.503048","lng":"135.593857"},{"town":"藤沢台五丁目","lat":"34.507123","lng":"135.570111"},{"town":"東板持町一丁目","lat":"34.492009","lng":"135.610790"},{"town":"若松町二丁目","lat":"34.505421","lng":"135.604644"},{"town":"山手町","lat":"34.483593","lng":"135.608636"},{"town":"別井三丁目","lat":"34.492218","lng":"135.626582"},{"town":"川面町一丁目","lat":"34.518869","lng":"135.615421"},{"town":"須賀三丁目","lat":"34.478968","lng":"135.561355"},{"town":"西板持町三丁目","lat":"34.492080","lng":"135.603068"},{"town":"南大伴町一丁目","lat":"34.495884","lng":"135.618990"},{"town":"青葉丘","lat":"34.503420","lng":"135.562607"},{"town":"小金台一丁目","lat":"34.498777","lng":"135.583552"},{"town":"富美ケ丘町","lat":"34.502634","lng":"135.590333"},{"town":"北大伴町四丁目","lat":"34.498943","lng":"135.615637"},{"town":"木戸山町","lat":"34.525180","lng":"135.612747"},{"town":"粟ケ池町","lat":"34.516735","lng":"135.607127"},{"town":"西板持町七丁目","lat":"34.492090","lng":"135.605497"},{"town":"喜志町二丁目","lat":"34.522175","lng":"135.612206"},{"town":"川向町","lat":"34.498433","lng":"135.607467"},{"town":"寿町二丁目","lat":"34.502569","lng":"135.596043"},{"town":"西板持町九丁目","lat":"34.494347","lng":"135.609129"},{"town":"廿山一丁目","lat":"34.492021","lng":"135.576224"},{"town":"若松町西一丁目","lat":"34.506100","lng":"135.600542"},{"town":"南大伴町三丁目","lat":"34.494306","lng":"135.621396"},{"town":"藤沢台七丁目","lat":"34.509139","lng":"135.567641"},{"town":"喜志新家町二丁目","lat":"34.528389","lng":"135.605871"},{"town":"楠町","lat":"34.504344","lng":"135.617599"},{"town":"かがり台","lat":"34.492773","lng":"135.615627"},{"town":"別井四丁目","lat":"34.488131","lng":"135.626208"},{"town":"旭ケ丘町","lat":"34.522226","lng":"135.605206"},{"town":"新家一丁目","lat":"34.492929","lng":"135.587165"},{"town":"西板持町八丁目","lat":"34.493666","lng":"135.607485"},{"town":"東板持町二丁目","lat":"34.489764","lng":"135.609668"},{"town":"藤沢台三丁目","lat":"34.503072","lng":"135.568693"},{"town":"寿町四丁目","lat":"34.499088","lng":"135.593172"},{"town":"東板持町三丁目","lat":"34.487619","lng":"135.609186"},{"town":"五軒家二丁目","lat":"34.511445","lng":"135.562355"},{"town":"桜井町二丁目","lat":"34.520081","lng":"135.608268"},{"town":"中野町二丁目","lat":"34.512514","lng":"135.610023"},{"town":"常盤町","lat":"34.500731","lng":"135.598184"},{"town":"南大伴町四丁目","lat":"34.493047","lng":"135.618008"},{"town":"本町","lat":"34.503123","lng":"135.600585"},{"town":"小金台三丁目","lat":"34.498024","lng":"135.579813"},{"town":"別井五丁目","lat":"34.492143","lng":"135.623846"},{"town":"北大伴町一丁目","lat":"34.501691","lng":"135.615275"},{"town":"若松町一丁目","lat":"34.503115","lng":"135.604581"},{"town":"桜ケ丘町","lat":"34.494349","lng":"135.585179"},{"town":"山中田町二丁目","lat":"34.495074","lng":"135.612634"},{"town":"向陽台二丁目","lat":"34.503564","lng":"135.581339"},{"town":"宮町二丁目","lat":"34.519792","lng":"135.604332"},{"town":"小金台四丁目","lat":"34.494689","lng":"135.581782"},{"town":"甲田三丁目","lat":"34.490422","lng":"135.592540"},{"town":"梅の里二丁目","lat":"34.527998","lng":"135.596608"},{"town":"若松町東一丁目","lat":"34.505171","lng":"135.611573"},{"town":"清水町","lat":"34.502814","lng":"135.608561"},{"town":"伏山二丁目","lat":"34.486232","lng":"135.561935"},{"town":"北大伴町三丁目","lat":"34.500729","lng":"135.619792"},{"town":"喜志町三丁目","lat":"34.523997","lng":"135.609118"},{"town":"若松町五丁目","lat":"34.508830","lng":"135.605752"},{"town":"金剛伏山台","lat":"34.486961","lng":"135.565479"},{"town":"美山台","lat":"34.499288","lng":"135.586860"},{"town":"寺池台五丁目","lat":"34.490073","lng":"135.563263"},{"town":"若松町四丁目","lat":"34.508542","lng":"135.608870"},{"town":"津々山台一丁目","lat":"34.498896","lng":"135.577101"},{"town":"五軒家一丁目","lat":"34.511038","lng":"135.566022"},{"town":"向陽台四丁目","lat":"34.507915","lng":"135.577357"},{"town":"平町二丁目","lat":"34.528303","lng":"135.600680"},{"town":"中野町一丁目","lat":"34.512802","lng":"135.606757"},{"town":"加太一丁目","lat":"34.506413","lng":"135.560854"},{"town":"錦織東二丁目","lat":"34.482592","lng":"135.588372"},{"town":"宮町一丁目","lat":"34.516576","lng":"135.604079"},{"town":"向陽台一丁目","lat":"34.505014","lng":"135.582729"},{"town":"中野町三丁目","lat":"34.515509","lng":"135.610637"},{"town":"宮甲田町","lat":"34.495702","lng":"135.588706"},{"town":"喜志町一丁目","lat":"34.523129","lng":"135.615302"},{"town":"梅の里一丁目","lat":"34.525015","lng":"135.595731"},{"town":"藤沢台一丁目","lat":"34.503527","lng":"135.575996"},{"town":"藤沢台六丁目","lat":"34.508418","lng":"135.571844"},{"town":"大字横山","lat":"34.466661","lng":"135.584395"},{"town":"西板持町二丁目","lat":"34.496384","lng":"135.604286"},{"town":"南旭ケ丘町","lat":"34.515810","lng":"135.599880"},{"town":"新家二丁目","lat":"34.490713","lng":"135.585886"},{"town":"甲田二丁目","lat":"34.493234","lng":"135.594804"},{"town":"寺池台二丁目","lat":"34.491955","lng":"135.571344"},{"town":"久野喜台一丁目","lat":"34.501216","lng":"135.563124"},{"town":"西板持町四丁目","lat":"34.489283","lng":"135.600336"},{"town":"藤沢台二丁目","lat":"34.504274","lng":"135.572424"},{"town":"向陽台三丁目","lat":"34.503547","lng":"135.578716"},{"town":"伏山一丁目","lat":"34.486104","lng":"135.559454"},{"town":"若松町東三丁目","lat":"34.509057","lng":"135.614915"},{"town":"伏山三丁目","lat":"34.483122","lng":"135.563678"},{"town":"寺池台三丁目","lat":"34.487854","lng":"135.570693"},{"town":"桜井町一丁目","lat":"34.519491","lng":"135.612032"},{"town":"錦織南二丁目","lat":"34.474876","lng":"135.578321"},{"town":"錦織北二丁目","lat":"34.484373","lng":"135.584521"},{"town":"別井一丁目","lat":"34.497119","lng":"135.623848"},{"town":"甲田一丁目","lat":"34.496341","lng":"135.596310"},{"town":"高辺台一丁目","lat":"34.501526","lng":"135.570057"},{"town":"中野町東二丁目","lat":"34.513478","lng":"135.615059"},{"town":"錦織北一丁目","lat":"34.486997","lng":"135.586496"},{"town":"錦織北三丁目","lat":"34.484007","lng":"135.581023"},{"town":"廿山二丁目","lat":"34.491356","lng":"135.574878"},{"town":"宮町三丁目","lat":"34.520439","lng":"135.600596"},{"town":"梅の里四丁目","lat":"34.527238","lng":"135.590572"},{"town":"錦織東三丁目","lat":"34.475799","lng":"135.583090"},{"town":"山中田町一丁目","lat":"34.499226","lng":"135.611181"},{"town":"富田林町","lat":"34.499719","lng":"135.601991"},{"town":"寺池台一丁目","lat":"34.494781","lng":"135.565397"},{"town":"須賀二丁目","lat":"34.478689","lng":"135.565281"},{"town":"西条町一丁目","lat":"34.514277","lng":"135.618218"},{"town":"高辺台二丁目","lat":"34.497495","lng":"135.573559"},{"town":"高辺台三丁目","lat":"34.497037","lng":"135.569718"},{"town":"寺池台四丁目","lat":"34.491477","lng":"135.566881"},{"town":"梅の里三丁目","lat":"34.529643","lng":"135.591309"},{"town":"錦織東一丁目","lat":"34.486390","lng":"135.590058"},{"town":"須賀一丁目","lat":"34.479073","lng":"135.569524"},{"town":"西板持町一丁目","lat":"34.493621","lng":"135.600264"},{"town":"錦織南一丁目","lat":"34.479353","lng":"135.579714"},{"town":"久野喜台二丁目","lat":"34.497658","lng":"135.564171"},{"town":"大字中野","lat":"34.512425","lng":"135.596672"},{"town":"大字廿山","lat":"34.510892","lng":"135.572329"},{"town":"西条町二丁目","lat":"34.522644","lng":"135.618989"},{"town":"大字嬉","lat":"34.460653","lng":"135.581086"},{"town":"大字東板持","lat":"34.482243","lng":"135.611972"},{"town":"大字錦織","lat":"34.482180","lng":"135.574441"},{"town":"大字喜志","lat":"34.521835","lng":"135.593499"},{"town":"大字龍泉","lat":"34.462450","lng":"135.601502"},{"town":"大字伏見堂","lat":"34.462801","lng":"135.588607"},{"town":"大字新堂","lat":"34.512340","lng":"135.587385"},{"town":"大字彼方","lat":"34.477348","lng":"135.593545"},{"town":"大字佐備","lat":"34.469948","lng":"135.605283"},{"town":"大字甘南備","lat":"34.450569","lng":"135.598318"}]