[{"town":"如意谷五丁目","lat":"34.840986","lng":"135.479256"},{"town":"粟生間谷東三丁目","lat":"34.844705","lng":"135.523296"},{"town":"百楽荘三丁目","lat":"34.819978","lng":"135.466657"},{"town":"百楽荘二丁目","lat":"34.821721","lng":"135.466775"},{"town":"西小路五丁目","lat":"34.825504","lng":"135.468001"},{"town":"桜ケ丘五丁目","lat":"34.821483","lng":"135.452027"},{"town":"小野原西四丁目","lat":"34.829705","lng":"135.508975"},{"town":"百楽荘一丁目","lat":"34.824000","lng":"135.467195"},{"town":"百楽荘四丁目","lat":"34.818614","lng":"135.466362"},{"town":"桜六丁目","lat":"34.820956","lng":"135.460639"},{"town":"稲四丁目","lat":"34.821042","lng":"135.478332"},{"town":"桜三丁目","lat":"34.825628","lng":"135.460505"},{"town":"今宮一丁目","lat":"34.833782","lng":"135.496333"},{"town":"西小路一丁目","lat":"34.829230","lng":"135.466655"},{"town":"彩都粟生北六丁目","lat":"34.861653","lng":"135.514558"},{"town":"彩都粟生北一丁目","lat":"34.858936","lng":"135.513992"},{"town":"坊島二丁目","lat":"34.833396","lng":"135.481850"},{"town":"箕面一丁目","lat":"34.835893","lng":"135.468504"},{"town":"西小路二丁目","lat":"34.829273","lng":"135.469148"},{"town":"半町一丁目","lat":"34.818578","lng":"135.455515"},{"town":"坊島五丁目","lat":"34.836678","lng":"135.486589"},{"town":"小野原東二丁目","lat":"34.833407","lng":"135.518334"},{"town":"桜一丁目","lat":"34.826057","lng":"135.464497"},{"town":"稲三丁目","lat":"34.824783","lng":"135.479689"},{"town":"箕面七丁目","lat":"34.833311","lng":"135.465145"},{"town":"新稲七丁目","lat":"34.825511","lng":"135.452022"},{"town":"彩都粟生南五丁目","lat":"34.857065","lng":"135.514668"},{"town":"彩都粟生南四丁目","lat":"34.856439","lng":"135.518297"},{"town":"小野原西一丁目","lat":"34.834814","lng":"135.513305"},{"town":"牧落四丁目","lat":"34.822020","lng":"135.474192"},{"town":"西小路四丁目","lat":"34.826986","lng":"135.468866"},{"town":"粟生外院二丁目","lat":"34.840869","lng":"135.502650"},{"town":"西宿三丁目","lat":"34.828340","lng":"135.495579"},{"town":"彩都粟生北五丁目","lat":"34.864113","lng":"135.513787"},{"town":"今宮二丁目","lat":"34.831867","lng":"135.497447"},{"town":"粟生外院三丁目","lat":"34.840934","lng":"135.505480"},{"town":"桜五丁目","lat":"34.821497","lng":"135.463582"},{"town":"粟生間谷東七丁目","lat":"34.850859","lng":"135.516793"},{"town":"彩都粟生南二丁目","lat":"34.848312","lng":"135.519788"},{"town":"白島一丁目","lat":"34.834220","lng":"135.491728"},{"town":"坊島三丁目","lat":"34.833907","lng":"135.483998"},{"town":"彩都粟生南六丁目","lat":"34.855803","lng":"135.512128"},{"town":"粟生外院五丁目","lat":"34.843072","lng":"135.505460"},{"town":"粟生外院四丁目","lat":"34.840087","lng":"135.508545"},{"town":"牧落二丁目","lat":"34.821115","lng":"135.469619"},{"town":"萱野二丁目","lat":"34.830879","lng":"135.486802"},{"town":"桜二丁目","lat":"34.827069","lng":"135.462426"},{"town":"外院二丁目","lat":"34.840810","lng":"135.499881"},{"town":"桜四丁目","lat":"34.824069","lng":"135.463793"},{"town":"森町南二丁目","lat":"34.888596","lng":"135.457740"},{"town":"彩都粟生南三丁目","lat":"34.851883","lng":"135.519913"},{"town":"稲二丁目","lat":"34.823195","lng":"135.477221"},{"town":"萱野四丁目","lat":"34.828294","lng":"135.487296"},{"town":"如意谷二丁目","lat":"34.836677","lng":"135.482800"},{"town":"粟生間谷西五丁目","lat":"34.848489","lng":"135.504418"},{"town":"森町南一丁目","lat":"34.886664","lng":"135.458756"},{"town":"西小路三丁目","lat":"34.828580","lng":"135.472601"},{"town":"森町南三丁目","lat":"34.886786","lng":"135.453293"},{"town":"小野原東三丁目","lat":"34.831378","lng":"135.518404"},{"town":"外院一丁目","lat":"34.837552","lng":"135.501531"},{"town":"粟生間谷西二丁目","lat":"34.843165","lng":"135.510058"},{"town":"牧落一丁目","lat":"34.824423","lng":"135.469925"},{"town":"如意谷一丁目","lat":"34.835378","lng":"135.479996"},{"town":"粟生新家五丁目","lat":"34.840794","lng":"135.511424"},{"town":"粟生新家一丁目","lat":"34.834626","lng":"135.508393"},{"town":"瀬川三丁目","lat":"34.812464","lng":"135.453839"},{"town":"桜井三丁目","lat":"34.815461","lng":"135.464162"},{"town":"小野原西二丁目","lat":"34.833088","lng":"135.512996"},{"town":"粟生新家三丁目","lat":"34.837891","lng":"135.513424"},{"town":"船場東二丁目","lat":"34.824947","lng":"135.493172"},{"town":"彩都粟生北七丁目","lat":"34.859841","lng":"135.510270"},{"town":"森町中二丁目","lat":"34.890906","lng":"135.463304"},{"town":"粟生間谷西一丁目","lat":"34.841042","lng":"135.514533"},{"town":"如意谷三丁目","lat":"34.838925","lng":"135.480023"},{"town":"新稲四丁目","lat":"34.829471","lng":"135.460639"},{"town":"桜井二丁目","lat":"34.816586","lng":"135.462252"},{"town":"粟生外院六丁目","lat":"34.845272","lng":"135.502829"},{"town":"粟生間谷東六丁目","lat":"34.851420","lng":"135.513793"},{"town":"坊島四丁目","lat":"34.833529","lng":"135.487059"},{"town":"半町三丁目","lat":"34.814510","lng":"135.458018"},{"town":"森町西一丁目","lat":"34.892057","lng":"135.454768"},{"town":"稲五丁目","lat":"34.822546","lng":"135.481765"},{"town":"桜ケ丘三丁目","lat":"34.821610","lng":"135.456000"},{"town":"小野原西五丁目","lat":"34.831157","lng":"135.513454"},{"town":"小野原東一丁目","lat":"34.834836","lng":"135.519145"},{"town":"瀬川四丁目","lat":"34.809847","lng":"135.455093"},{"town":"稲一丁目","lat":"34.826428","lng":"135.476848"},{"town":"船場西一丁目","lat":"34.823954","lng":"135.488418"},{"town":"桜ケ丘二丁目","lat":"34.821895","lng":"135.458992"},{"town":"坊島一丁目","lat":"34.830456","lng":"135.478665"},{"town":"新稲三丁目","lat":"34.830400","lng":"135.463912"},{"town":"瀬川一丁目","lat":"34.816291","lng":"135.450229"},{"town":"森町中三丁目","lat":"34.893708","lng":"135.462591"},{"town":"瀬川二丁目","lat":"34.813743","lng":"135.451379"},{"town":"桜ケ丘一丁目","lat":"34.825439","lng":"135.456683"},{"town":"粟生間谷東八丁目","lat":"34.853296","lng":"135.517015"},{"town":"新稲一丁目","lat":"34.833722","lng":"135.461367"},{"town":"小野原西六丁目","lat":"34.829149","lng":"135.513648"},{"town":"牧落五丁目","lat":"34.818856","lng":"135.469719"},{"town":"桜ケ丘四丁目","lat":"34.821155","lng":"135.453435"},{"town":"箕面三丁目","lat":"34.835497","lng":"135.475436"},{"town":"牧落三丁目","lat":"34.824858","lng":"135.473450"},{"town":"瀬川五丁目","lat":"34.809407","lng":"135.451002"},{"town":"粟生間谷西四丁目","lat":"34.845809","lng":"135.507051"},{"town":"粟生間谷西七丁目","lat":"34.849954","lng":"135.509819"},{"town":"粟生新家二丁目","lat":"34.837430","lng":"135.510472"},{"town":"西宿一丁目","lat":"34.832043","lng":"135.491394"},{"town":"半町四丁目","lat":"34.811684","lng":"135.459354"},{"town":"粟生間谷西六丁目","lat":"34.850749","lng":"135.507122"},{"town":"石丸三丁目","lat":"34.842350","lng":"135.494999"},{"town":"粟生外院一丁目","lat":"34.837776","lng":"135.505094"},{"town":"新稲六丁目","lat":"34.828927","lng":"135.452812"},{"town":"萱野五丁目","lat":"34.824482","lng":"135.484473"},{"town":"桜井一丁目","lat":"34.818936","lng":"135.461731"},{"town":"今宮四丁目","lat":"34.828522","lng":"135.499046"},{"town":"小野原東四丁目","lat":"34.832766","lng":"135.521851"},{"town":"船場西三丁目","lat":"34.817974","lng":"135.488665"},{"town":"粟生間谷西三丁目","lat":"34.845174","lng":"135.512029"},{"town":"船場東一丁目","lat":"34.826720","lng":"135.491832"},{"town":"彩都粟生南七丁目","lat":"34.853725","lng":"135.509636"},{"town":"粟生間谷東二丁目","lat":"34.842906","lng":"135.522237"},{"town":"萱野一丁目","lat":"34.830063","lng":"135.482273"},{"town":"稲六丁目","lat":"34.819599","lng":"135.482192"},{"town":"箕面六丁目","lat":"34.832589","lng":"135.467940"},{"town":"半町二丁目","lat":"34.816863","lng":"135.456820"},{"town":"小野原東五丁目","lat":"34.828318","lng":"135.518511"},{"town":"萱野三丁目","lat":"34.827018","lng":"135.482712"},{"town":"石丸二丁目","lat":"34.839286","lng":"135.496123"},{"town":"箕面五丁目","lat":"34.832238","lng":"135.472397"},{"town":"彩都粟生南一丁目","lat":"34.847498","lng":"135.522111"},{"town":"西宿二丁目","lat":"34.829831","lng":"135.491879"},{"town":"白島二丁目","lat":"34.836812","lng":"135.490490"},{"town":"温泉町","lat":"34.839581","lng":"135.466565"},{"town":"如意谷四丁目","lat":"34.840137","lng":"135.483697"},{"town":"小野原西三丁目","lat":"34.832401","lng":"135.507575"},{"town":"彩都粟生北四丁目","lat":"34.862757","lng":"135.509594"},{"town":"彩都粟生北二丁目","lat":"34.857740","lng":"135.509857"},{"town":"船場西二丁目","lat":"34.820669","lng":"135.487474"},{"town":"小野原東六丁目","lat":"34.828508","lng":"135.523303"},{"town":"箕面八丁目","lat":"34.837051","lng":"135.464018"},{"town":"外院三丁目","lat":"34.843927","lng":"135.499114"},{"town":"彩都粟生北三丁目","lat":"34.858438","lng":"135.506014"},{"town":"新稲二丁目","lat":"34.832863","lng":"135.456511"},{"town":"箕面四丁目","lat":"34.831127","lng":"135.475975"},{"town":"新稲五丁目","lat":"34.828701","lng":"135.456984"},{"town":"船場東三丁目","lat":"34.821937","lng":"135.492445"},{"town":"白島","lat":"34.845746","lng":"135.491123"},{"town":"粟生間谷東五丁目","lat":"34.847513","lng":"135.515651"},{"town":"石丸一丁目","lat":"34.836366","lng":"135.496583"},{"town":"粟生間谷東一丁目","lat":"34.843400","lng":"135.517440"},{"town":"白島三丁目","lat":"34.840042","lng":"135.488994"},{"town":"粟生新家四丁目","lat":"34.838959","lng":"135.516827"},{"town":"今宮三丁目","lat":"34.832620","lng":"135.501619"},{"town":"森町北二丁目","lat":"34.898644","lng":"135.460388"},{"town":"森町中一丁目","lat":"34.888589","lng":"135.462615"},{"town":"森町北一丁目","lat":"34.894707","lng":"135.455789"},{"town":"大字粟生外院","lat":"34.852557","lng":"135.498139"},{"town":"箕面二丁目","lat":"34.838367","lng":"135.474377"},{"town":"新稲","lat":"34.838277","lng":"135.456122"},{"town":"箕面公園","lat":"34.846408","lng":"135.472680"},{"town":"外院","lat":"34.852181","lng":"135.489817"},{"town":"如意谷","lat":"34.846888","lng":"135.483750"},{"town":"大字粟生間谷","lat":"34.861576","lng":"135.498957"},{"town":"上止々呂美","lat":"34.889936","lng":"135.471471"},{"town":"下止々呂美","lat":"34.878905","lng":"135.453405"},{"town":"箕面","lat":"34.857934","lng":"135.471900"},{"town":"森町西二丁目","lat":"34.885622","lng":"135.444029"},{"town":"森町西三丁目","lat":"34.885662","lng":"135.441253"}]