[{"town":"大字七色","koaza":"","lat":33.982045,"lng":135.991941},{"town":"大字下尾井","koaza":"","lat":33.958531,"lng":135.937025},{"town":"大字大沼","koaza":"","lat":33.939146,"lng":135.96645},{"town":"大字小松","koaza":"","lat":33.940225,"lng":135.906994},{"town":"大字竹原","koaza":"","lat":33.966213,"lng":135.967572}]