[{"town":"矢ケ谷","koaza":"","lat":33.62295,"lng":135.541996},{"town":"江住","koaza":"","lat":33.520921,"lng":135.601552},{"town":"大鎌","koaza":"","lat":33.548795,"lng":135.617787},{"town":"大谷","koaza":"","lat":33.574382,"lng":135.616812},{"town":"大附","koaza":"","lat":33.607372,"lng":135.571013},{"town":"小河内","koaza":"","lat":33.563833,"lng":135.581318},{"town":"口和深","koaza":"","lat":33.53167,"lng":135.521517},{"town":"小附","koaza":"","lat":33.615382,"lng":135.556337},{"town":"里野","koaza":"","lat":33.516605,"lng":135.625124},{"town":"佐本追川","koaza":"","lat":33.582216,"lng":135.604394},{"town":"佐本中","koaza":"","lat":33.593334,"lng":135.61582},{"town":"佐本中野","koaza":"","lat":33.605817,"lng":135.615264},{"town":"佐本西栗垣内","koaza":"","lat":33.60583,"lng":135.592596},{"town":"佐本西野川","koaza":"","lat":33.60884,"lng":135.633561},{"town":"佐本根倉","koaza":"","lat":33.593532,"lng":135.640207},{"town":"佐本東栗垣内","koaza":"","lat":33.59137,"lng":135.601808},{"town":"佐本平野","koaza":"","lat":33.599267,"lng":135.633013},{"town":"佐本深谷","koaza":"","lat":33.595284,"lng":135.654937},{"town":"周参見","koaza":"","lat":33.566285,"lng":135.52394},{"town":"太間川","koaza":"","lat":33.594216,"lng":135.503825},{"town":"防己","koaza":"","lat":33.560153,"lng":135.598995},{"town":"見老津","koaza":"","lat":33.522399,"lng":135.56353},{"town":"矢野口","koaza":"","lat":33.620865,"lng":135.531526},{"town":"和深川","koaza":"","lat":33.53598,"lng":135.548528}]