[{"town":"石神","koaza":"","lat":35.498907,"lng":137.06868,"zip":"5090303"},{"town":"鹿塩","koaza":"","lat":35.499247,"lng":137.047942,"zip":"5090307"},{"town":"上川辺","koaza":"","lat":35.52872,"lng":137.077412,"zip":"5090302"},{"town":"権現山","koaza":"","lat":35.500365,"lng":137.101341,"zip":"5090300"},{"town":"下麻生","koaza":"","lat":35.534579,"lng":137.095769,"zip":"5090301"},{"town":"下飯田","koaza":"","lat":35.476147,"lng":137.083241,"zip":"5090313"},{"town":"下川辺","koaza":"","lat":35.474883,"lng":137.056307,"zip":"5090306"},{"town":"下吉田","koaza":"","lat":35.512628,"lng":137.106413,"zip":"5090311"},{"town":"中川辺","koaza":"","lat":35.492355,"lng":137.06337,"zip":"5090304"},{"town":"中野","koaza":"","lat":35.490447,"lng":137.078392,"zip":"5090312"},{"town":"西栃井","koaza":"","lat":35.483493,"lng":137.06466,"zip":"5090305"},{"town":"比久見","koaza":"","lat":35.495968,"lng":137.078369,"zip":"5090315"},{"town":"福島","koaza":"","lat":35.47945,"lng":137.0759,"zip":"5090314"}]