[{"town":"石神","koaza":"","lat":35.498907,"lng":137.06868},{"town":"鹿塩","koaza":"","lat":35.499247,"lng":137.047942},{"town":"上川辺","koaza":"","lat":35.52872,"lng":137.077412},{"town":"権現山","koaza":"","lat":35.500365,"lng":137.101341},{"town":"下麻生","koaza":"","lat":35.534579,"lng":137.095769},{"town":"下飯田","koaza":"","lat":35.476147,"lng":137.083241},{"town":"下川辺","koaza":"","lat":35.474883,"lng":137.056307},{"town":"下吉田","koaza":"","lat":35.512628,"lng":137.106413},{"town":"中川辺","koaza":"","lat":35.492355,"lng":137.06337},{"town":"中野","koaza":"","lat":35.490447,"lng":137.078392},{"town":"西栃井","koaza":"","lat":35.483493,"lng":137.06466},{"town":"比久見","koaza":"","lat":35.495968,"lng":137.078369},{"town":"福島","koaza":"","lat":35.47945,"lng":137.0759}]