[{"town":"大字池底","koaza":"","lat":"35.033189","lng":"136.522905"},{"town":"大字潤田","koaza":"","lat":"35.028158","lng":"136.516660"},{"town":"大字大強原","koaza":"","lat":"35.028963","lng":"136.530668"},{"town":"大字小島","koaza":"","lat":"35.069084","lng":"136.527287"},{"town":"大字音羽","koaza":"","lat":"35.026157","lng":"136.493616"},{"town":"大字神森","koaza":"","lat":"35.004243","lng":"136.539745"},{"town":"大字川北","koaza":"","lat":"35.030755","lng":"136.548688"},{"town":"大字切畑","koaza":"","lat":"35.073816","lng":"136.476640"},{"town":"大字菰野","koaza":"","lat":"35.008765","lng":"136.469361"},{"town":"大字榊","koaza":"","lat":"35.053712","lng":"136.504861"},{"town":"大字下村","koaza":"","lat":"35.020682","lng":"136.543774"},{"town":"大字宿野","koaza":"","lat":"35.003136","lng":"136.525030"},{"town":"大字杉谷","koaza":"","lat":"35.058858","lng":"136.496896"},{"town":"大字諏訪","koaza":"","lat":"35.032517","lng":"136.538034"},{"town":"大字田口","koaza":"","lat":"35.083646","lng":"136.486245"},{"town":"大字田口新田","koaza":"","lat":"35.083559","lng":"136.519073"},{"town":"大字竹成","koaza":"","lat":"35.047501","lng":"136.514606"},{"town":"大字田光","koaza":"","lat":"35.074415","lng":"136.499386"},{"town":"大字千草","koaza":"","lat":"35.038931","lng":"136.465665"},{"town":"大字永井","koaza":"","lat":"35.051455","lng":"136.530574"},{"town":"大字根の平","koaza":"","lat":"35.058843","lng":"136.483023"},{"town":"大字福村","koaza":"","lat":"35.012450","lng":"136.523633"},{"town":"大字吉澤","koaza":"","lat":"35.016125","lng":"136.528500"},{"town":"大羽根園青葉町","koaza":"","lat":"35.014907","lng":"136.488730"},{"town":"大羽根園呉竹町","koaza":"","lat":"35.014777","lng":"136.496492"},{"town":"大羽根園柴垣町","koaza":"","lat":"35.016595","lng":"136.498295"},{"town":"大羽根園新林町","koaza":"","lat":"35.017576","lng":"136.493740"},{"town":"大羽根園並木通り","koaza":"","lat":"35.015749","lng":"136.494249"},{"town":"大羽根園松ケ枝町","koaza":"","lat":"35.014151","lng":"136.491397"},{"town":"初若の郷","koaza":"","lat":"35.011594","lng":"136.502286"},{"town":"宝永台","koaza":"","lat":"35.013866","lng":"136.512749"},{"town":"大字宿野","koaza":"神明田","lat":"35.005204","lng":"136.530282"},{"town":"大字菰野","koaza":"辰巳野","lat":"35.007917","lng":"136.519637"}]