[{"town":"有明町","lat":"43.243846","lng":"141.881371"},{"town":"幾春別川向町","lat":"43.258564","lng":"141.957723"},{"town":"幾春別栗丘町","lat":"43.255082","lng":"141.949886"},{"town":"幾春別千住町","lat":"43.261832","lng":"141.951242"},{"town":"幾春別滝見町","lat":"43.260082","lng":"141.955229"},{"town":"幾春別町一丁目","lat":"43.261153","lng":"141.956354"},{"town":"幾春別町二丁目","lat":"43.261709","lng":"141.957172"},{"town":"幾春別町三丁目","lat":"43.262180","lng":"141.957034"},{"town":"幾春別町四丁目","lat":"43.263017","lng":"141.958490"},{"town":"幾春別中島町","lat":"43.263660","lng":"141.956235"},{"town":"幾春別錦町一丁目","lat":"43.261263","lng":"141.962817"},{"town":"幾春別錦町二丁目","lat":"43.262964","lng":"141.962281"},{"town":"幾春別山手町","lat":"43.255854","lng":"141.960964"},{"town":"いちきしり","lat":"43.244190","lng":"141.846491"},{"town":"大里","lat":"43.224269","lng":"141.857557"},{"town":"岡山","lat":"43.240481","lng":"141.818843"},{"town":"柏町","lat":"43.262692","lng":"141.874123"},{"town":"桂沢","lat":"43.249813","lng":"142.002352"},{"town":"萱野","lat":"43.208783","lng":"141.853802"},{"town":"川内","lat":"43.255219","lng":"141.849734"},{"town":"清住町","lat":"43.271035","lng":"141.911311"},{"town":"幸町","lat":"43.246625","lng":"141.877197"},{"town":"榊町","lat":"43.249187","lng":"141.871825"},{"town":"多賀町","lat":"43.243635","lng":"141.877226"},{"town":"高美町","lat":"43.250456","lng":"141.875488"},{"town":"達布","lat":"43.252503","lng":"141.836437"},{"town":"堤町","lat":"43.241290","lng":"141.870889"},{"town":"唐松青山町","lat":"43.247836","lng":"141.902819"},{"town":"唐松栄町一丁目","lat":"43.252403","lng":"141.913051"},{"town":"唐松栄町二丁目","lat":"43.251312","lng":"141.911995"},{"town":"唐松栄町三丁目","lat":"43.252867","lng":"141.910553"},{"town":"唐松春光町","lat":"43.253973","lng":"141.929938"},{"town":"唐松町一丁目","lat":"43.254084","lng":"141.920018"},{"town":"唐松町二丁目","lat":"43.252757","lng":"141.916468"},{"town":"唐松千代田町一丁目","lat":"43.249443","lng":"141.917640"},{"town":"唐松千代田町二丁目","lat":"43.250165","lng":"141.914428"},{"town":"唐松常盤町","lat":"43.250585","lng":"141.919391"},{"town":"唐松緑町","lat":"43.243699","lng":"141.907936"},{"town":"西桂沢","lat":"43.255921","lng":"141.979497"},{"town":"東清住町","lat":"43.272199","lng":"141.924750"},{"town":"幌内春日町","lat":"43.218427","lng":"141.896997"},{"town":"幌内金谷町","lat":"43.231669","lng":"141.894130"},{"town":"幌内月光町","lat":"43.225825","lng":"141.901350"},{"town":"幌内新栄町","lat":"43.231221","lng":"141.878121"},{"town":"幌内末広町","lat":"43.231954","lng":"141.906279"},{"town":"幌内住吉町","lat":"43.234742","lng":"141.888662"},{"town":"幌内中央町","lat":"43.225406","lng":"141.906921"},{"town":"幌内町一丁目","lat":"43.228682","lng":"141.905524"},{"town":"幌内町二丁目","lat":"43.230860","lng":"141.901506"},{"town":"幌内町三丁目","lat":"43.231281","lng":"141.897566"},{"town":"幌内初音町","lat":"43.236077","lng":"141.879791"},{"town":"幌内北星町","lat":"43.218783","lng":"141.884580"},{"town":"幌内本沢町","lat":"43.215771","lng":"141.922944"},{"town":"幌内奔幌内町","lat":"43.234909","lng":"141.936389"},{"town":"本郷町","lat":"43.246814","lng":"141.860120"},{"town":"本町","lat":"43.240572","lng":"141.881890"},{"town":"奔別旭町","lat":"43.268217","lng":"141.960392"},{"town":"奔別川沿町","lat":"43.266529","lng":"141.964472"},{"town":"奔別川端町","lat":"43.268510","lng":"141.962733"},{"town":"奔別沢","lat":"43.270531","lng":"141.972430"},{"town":"奔別新町","lat":"43.263960","lng":"141.952076"},{"town":"奔別町","lat":"43.265143","lng":"141.957843"},{"town":"奔別鳥居沢町","lat":"43.274085","lng":"141.958725"},{"town":"奔別中の沢町","lat":"43.277143","lng":"141.962670"},{"town":"奔別本沢町","lat":"43.279038","lng":"141.967802"},{"town":"美園町","lat":"43.268040","lng":"141.893996"},{"town":"宮本町","lat":"43.247136","lng":"141.867722"},{"town":"美和","lat":"43.235912","lng":"141.866902"},{"town":"弥生桜木町","lat":"43.273801","lng":"141.942364"},{"town":"弥生橘町","lat":"43.259758","lng":"141.936562"},{"town":"弥生町一丁目","lat":"43.255949","lng":"141.943164"},{"town":"弥生町二丁目","lat":"43.256540","lng":"141.941958"},{"town":"弥生町三丁目","lat":"43.256783","lng":"141.938121"},{"town":"弥生並木町","lat":"43.261714","lng":"141.942054"},{"town":"弥生花園町","lat":"43.257884","lng":"141.941413"},{"town":"弥生藤枝町","lat":"43.256967","lng":"141.932216"},{"town":"弥生双葉町","lat":"43.253514","lng":"141.935380"},{"town":"弥生桃山町","lat":"43.260123","lng":"141.939983"},{"town":"弥生柳町","lat":"43.257045","lng":"141.935412"},{"town":"若草町","lat":"43.246393","lng":"141.883915"},{"town":"若松町","lat":"43.244750","lng":"141.872085"}]