[{"town":"相生町","lat":"42.251958","lng":"140.272529"},{"town":"旭丘","lat":"42.191634","lng":"140.407748"},{"town":"熱田","lat":"42.224269","lng":"140.270207"},{"town":"出雲町","lat":"42.250766","lng":"140.268877"},{"town":"入沢","lat":"42.177957","lng":"140.416564"},{"town":"内浦町","lat":"42.254695","lng":"140.284868"},{"town":"大新","lat":"42.229267","lng":"140.255085"},{"town":"落部","lat":"42.190189","lng":"140.422169"},{"town":"春日","lat":"42.244960","lng":"140.240085"},{"town":"上の湯","lat":"42.122103","lng":"140.373520"},{"town":"上八雲","lat":"42.287353","lng":"140.155282"},{"town":"熊石相沼町","lat":"42.073875","lng":"140.066396"},{"town":"熊石鮎川町","lat":"42.121501","lng":"140.012063"},{"town":"熊石泉岱町","lat":"42.091043","lng":"140.127177"},{"town":"熊石雲石町","lat":"42.133504","lng":"139.976968"},{"town":"熊石大谷町","lat":"42.151997","lng":"140.040240"},{"town":"熊石折戸町","lat":"42.069095","lng":"140.075052"},{"town":"熊石黒岩町","lat":"42.093528","lng":"140.050121"},{"town":"熊石見日町","lat":"42.118068","lng":"140.020354"},{"town":"熊石関内町","lat":"42.132485","lng":"139.938456"},{"town":"熊石平町","lat":"42.125423","lng":"139.998043"},{"town":"熊石畳岩町","lat":"42.130301","lng":"139.994949"},{"town":"熊石館平町","lat":"42.080569","lng":"140.059829"},{"town":"熊石泊川町","lat":"42.090118","lng":"140.053660"},{"town":"熊石鳴神町","lat":"42.132121","lng":"139.968195"},{"town":"熊石西浜町","lat":"42.132594","lng":"139.947411"},{"town":"熊石根崎町","lat":"42.133213","lng":"139.987014"},{"town":"黒岩","lat":"42.366698","lng":"140.288385"},{"town":"栄町","lat":"42.252879","lng":"140.255527"},{"town":"栄浜","lat":"42.175772","lng":"140.453726"},{"town":"桜野","lat":"42.131262","lng":"140.280749"},{"town":"東雲町","lat":"42.253494","lng":"140.280476"},{"town":"下の湯","lat":"42.168614","lng":"140.396962"},{"town":"末広町","lat":"42.255121","lng":"140.267973"},{"town":"住初町","lat":"42.257883","lng":"140.262705"},{"town":"立岩","lat":"42.268815","lng":"140.260430"},{"town":"富咲","lat":"42.297249","lng":"140.156547"},{"town":"豊河町","lat":"42.262310","lng":"140.276563"},{"town":"鉛川","lat":"42.274158","lng":"140.195360"},{"town":"野田生","lat":"42.216915","lng":"140.378979"},{"town":"花浦","lat":"42.290189","lng":"140.260971"},{"town":"浜松","lat":"42.238158","lng":"140.301099"},{"town":"東野","lat":"42.213380","lng":"140.391899"},{"town":"東町","lat":"42.259052","lng":"140.272408"},{"town":"富士見町","lat":"42.255309","lng":"140.275000"},{"town":"本町","lat":"42.254900","lng":"140.271774"},{"town":"三杉町","lat":"42.246564","lng":"140.281861"},{"town":"緑町","lat":"42.244780","lng":"140.265986"},{"town":"宮園町","lat":"42.251802","lng":"140.262727"},{"town":"元町","lat":"42.259816","lng":"140.267173"},{"town":"山越","lat":"42.229889","lng":"140.327967"},{"town":"わらび野","lat":"42.144923","lng":"140.291726"},{"town":"山崎","lat":"42.312204","lng":"140.274821"}]