[{"town":"字愛牛","lat":"42.740969","lng":"143.605816"},{"town":"字相川","lat":"43.055453","lng":"143.603886"},{"town":"字朝日","lat":"42.734111","lng":"143.651384"},{"town":"字厚内","lat":"42.874814","lng":"143.761393"},{"town":"字厚内一条通二丁目","lat":"42.806603","lng":"143.815067"},{"town":"字厚内一条通三丁目","lat":"42.806994","lng":"143.814243"},{"town":"字厚内一条通四丁目","lat":"42.807615","lng":"143.812819"},{"town":"字厚内一条通五丁目","lat":"42.808044","lng":"143.811793"},{"town":"字厚内二条通二丁目","lat":"42.807540","lng":"143.816288"},{"town":"字厚内二条通三丁目","lat":"42.808044","lng":"143.814777"},{"town":"字厚内二条通四丁目","lat":"42.808645","lng":"143.813284"},{"town":"字厚内二条通五丁目","lat":"42.809117","lng":"143.812031"},{"town":"字厚内二条通六丁目","lat":"42.809747","lng":"143.811385"},{"town":"字厚内三条通二丁目","lat":"42.808028","lng":"143.816918"},{"town":"字厚内三条通五丁目","lat":"42.809907","lng":"143.812212"},{"town":"字厚内三条通六丁目","lat":"42.810213","lng":"143.811657"},{"town":"字厚内大通","lat":"42.807325","lng":"143.817328"},{"town":"字厚内大通一丁目","lat":"42.805708","lng":"143.815676"},{"town":"字厚内大通二丁目","lat":"42.806569","lng":"143.815718"},{"town":"字幾栄","lat":"42.877533","lng":"143.587409"},{"town":"字幾千世","lat":"42.886447","lng":"143.619643"},{"town":"字稲穂","lat":"42.822279","lng":"143.602511"},{"town":"字ウツナイ","lat":"42.717266","lng":"143.617496"},{"town":"字栄穂","lat":"43.119480","lng":"143.662608"},{"town":"字オコツペ","lat":"42.811401","lng":"143.789843"},{"town":"字オタフンベ","lat":"42.825491","lng":"143.844255"},{"town":"字ヲトベ","lat":"42.822536","lng":"143.840267"},{"town":"字帯富","lat":"42.830120","lng":"143.673625"},{"town":"字恩根内","lat":"43.095103","lng":"143.640523"},{"town":"字活平","lat":"42.979390","lng":"143.631714"},{"town":"字上厚内","lat":"42.833533","lng":"143.719785"},{"town":"字上厚内本通","lat":"42.831572","lng":"143.749096"},{"town":"字川上","lat":"43.133951","lng":"143.687935"},{"town":"字川流布","lat":"43.074709","lng":"143.661517"},{"town":"字北町","lat":"42.814912","lng":"143.663828"},{"town":"字共栄","lat":"42.772509","lng":"143.616374"},{"town":"字貴老路","lat":"43.100549","lng":"143.617960"},{"town":"字合流","lat":"43.076031","lng":"143.584276"},{"town":"字寿町","lat":"42.812649","lng":"143.658030"},{"town":"字昆布刈石","lat":"42.782378","lng":"143.750098"},{"town":"字材木町","lat":"42.810062","lng":"143.650398"},{"town":"字幸町","lat":"42.811028","lng":"143.657455"},{"town":"字栄町","lat":"42.809337","lng":"143.652955"},{"town":"字桜町","lat":"42.809359","lng":"143.657145"},{"town":"字静内","lat":"42.789231","lng":"143.697041"},{"town":"字下浦幌","lat":"42.755416","lng":"143.683372"},{"town":"字新町","lat":"42.807734","lng":"143.657039"},{"town":"字末広町","lat":"42.813078","lng":"143.653515"},{"town":"字住吉町","lat":"42.804648","lng":"143.653328"},{"town":"字生剛","lat":"42.749762","lng":"143.648684"},{"town":"字瀬多来","lat":"42.978196","lng":"143.590683"},{"town":"字大平","lat":"42.769107","lng":"143.592556"},{"town":"字宝町","lat":"42.815275","lng":"143.655086"},{"town":"字炭山","lat":"43.083363","lng":"143.727393"},{"town":"字千才町","lat":"42.807557","lng":"143.646038"},{"town":"字チプネオコツペ","lat":"42.796123","lng":"143.787344"},{"town":"字チヤロ","lat":"42.728945","lng":"143.706655"},{"town":"字直別","lat":"42.850458","lng":"143.807694"},{"town":"字直別基線","lat":"42.849548","lng":"143.857891"},{"town":"字直別西一線","lat":"42.861353","lng":"143.831288"},{"town":"字直別西二線","lat":"42.847452","lng":"143.844899"},{"town":"字直別西三線","lat":"42.843639","lng":"143.839735"},{"town":"字直別西四線","lat":"42.843283","lng":"143.835108"},{"town":"字常豊","lat":"42.848839","lng":"143.679312"},{"town":"字トイトツキ","lat":"42.718906","lng":"143.650190"},{"town":"字統太","lat":"42.768682","lng":"143.648273"},{"town":"字十勝","lat":"42.726396","lng":"143.699202"},{"town":"字十勝太","lat":"42.732797","lng":"143.710127"},{"town":"字十勝太大通東一丁目","lat":"42.727546","lng":"143.697852"},{"town":"字十勝太大通東二丁目","lat":"42.727430","lng":"143.699350"},{"town":"字十勝太大通東三丁目","lat":"42.727502","lng":"143.700967"},{"town":"字十勝太大通東四丁目","lat":"42.727393","lng":"143.702523"},{"town":"字十勝太大通東五丁目","lat":"42.727797","lng":"143.703645"},{"town":"字十勝太北一条東三丁目","lat":"42.728499","lng":"143.701312"},{"town":"字十勝太北一条東四丁目","lat":"42.728393","lng":"143.702661"},{"town":"字十勝太北一条東五丁目","lat":"42.728226","lng":"143.704193"},{"town":"字十勝太北一条東六丁目","lat":"42.728423","lng":"143.705286"},{"town":"字十勝太北二条東四丁目","lat":"42.729365","lng":"143.702834"},{"town":"字十勝太北二条東五丁目","lat":"42.729310","lng":"143.704494"},{"town":"字十勝太北二条東六丁目","lat":"42.729036","lng":"143.705728"},{"town":"字十勝太南一条東一丁目","lat":"42.726704","lng":"143.697742"},{"town":"字十勝太南一条東二丁目","lat":"42.726684","lng":"143.699258"},{"town":"字十勝太南一条東三丁目","lat":"42.726666","lng":"143.700661"},{"town":"字時和","lat":"42.843026","lng":"143.641754"},{"town":"字常室","lat":"42.874314","lng":"143.691989"},{"town":"字富川","lat":"43.037606","lng":"143.646256"},{"town":"字西町","lat":"42.814168","lng":"143.650159"},{"town":"字ヌタペツト","lat":"42.714890","lng":"143.675084"},{"town":"字東山町","lat":"42.809550","lng":"143.667847"},{"town":"字福山","lat":"42.878384","lng":"143.733664"},{"town":"字平和","lat":"42.788826","lng":"143.609135"},{"town":"字ベツチヤロ","lat":"42.706968","lng":"143.616180"},{"town":"字宝生","lat":"43.083282","lng":"143.618760"},{"town":"字本町","lat":"42.810916","lng":"143.653067"},{"town":"字円山","lat":"42.889201","lng":"143.670828"},{"town":"字万年","lat":"42.799541","lng":"143.663282"},{"town":"字美園","lat":"43.025344","lng":"143.609327"},{"town":"字緑町","lat":"42.807977","lng":"143.652884"},{"town":"字南町","lat":"42.803927","lng":"143.665643"},{"town":"字養老","lat":"42.740010","lng":"143.625848"},{"town":"字吉野","lat":"42.774519","lng":"143.603707"},{"town":"字ラエベツブト","lat":"42.717959","lng":"143.695531"},{"town":"字留真","lat":"42.964560","lng":"143.699055"}]