[{"town":"字磯谷町","lat":"42.820506","lng":"140.352911"},{"town":"字岩崎町","lat":"42.790931","lng":"140.237704"},{"town":"字歌棄町","lat":"42.798264","lng":"140.327278"},{"town":"字大磯町","lat":"42.795629","lng":"140.230735"},{"town":"字開進町","lat":"42.784904","lng":"140.221523"},{"town":"字新栄町","lat":"42.791080","lng":"140.217791"},{"town":"字樽岸町","lat":"42.750740","lng":"140.254280"},{"town":"字渡島町","lat":"42.788448","lng":"140.224275"},{"town":"字政泊町","lat":"42.812836","lng":"140.189458"},{"town":"字矢追町","lat":"42.797812","lng":"140.208837"},{"town":"字六条町","lat":"42.780091","lng":"140.227838"}]