[{"town":"石山","lat":"42.946783","lng":"141.328331"},{"town":"石山一条一丁目","lat":"42.979022","lng":"141.343076"},{"town":"石山一条二丁目","lat":"42.973293","lng":"141.341311"},{"town":"石山一条三丁目","lat":"42.969534","lng":"141.336055"},{"town":"石山一条四丁目","lat":"42.966106","lng":"141.328872"},{"town":"石山一条五丁目","lat":"42.964700","lng":"141.326203"},{"town":"石山一条六丁目","lat":"42.964707","lng":"141.323503"},{"town":"石山一条七丁目","lat":"42.964152","lng":"141.319956"},{"town":"石山一条八丁目","lat":"42.963533","lng":"141.316726"},{"town":"石山一条九丁目","lat":"42.963114","lng":"141.314993"},{"town":"石山二条二丁目","lat":"42.969827","lng":"141.339175"},{"town":"石山二条三丁目","lat":"42.967298","lng":"141.335824"},{"town":"石山二条四丁目","lat":"42.964557","lng":"141.329123"},{"town":"石山二条五丁目","lat":"42.962808","lng":"141.326462"},{"town":"石山二条六丁目","lat":"42.961540","lng":"141.323822"},{"town":"石山二条七丁目","lat":"42.960681","lng":"141.320940"},{"town":"石山二条八丁目","lat":"42.960126","lng":"141.318405"},{"town":"石山二条九丁目","lat":"42.959764","lng":"141.314883"},{"town":"石山三条五丁目","lat":"42.960791","lng":"141.328139"},{"town":"石山三条六丁目","lat":"42.959126","lng":"141.324773"},{"town":"石山三条七丁目","lat":"42.958162","lng":"141.321663"},{"town":"石山三条八丁目","lat":"42.957335","lng":"141.319389"},{"town":"石山四条六丁目","lat":"42.956187","lng":"141.323889"},{"town":"石山東一丁目","lat":"42.972462","lng":"141.345108"},{"town":"石山東二丁目","lat":"42.968908","lng":"141.344474"},{"town":"石山東三丁目","lat":"42.966776","lng":"141.344650"},{"town":"石山東四丁目","lat":"42.963424","lng":"141.344544"},{"town":"石山東五丁目","lat":"42.960577","lng":"141.344776"},{"town":"石山東六丁目","lat":"42.957763","lng":"141.344714"},{"town":"石山東七丁目","lat":"42.953890","lng":"141.344460"},{"town":"硬石山","lat":"42.973435","lng":"141.315639"},{"town":"川沿十条一丁目","lat":"42.984021","lng":"141.336837"},{"town":"川沿十条二丁目","lat":"42.983369","lng":"141.334137"},{"town":"川沿十条三丁目","lat":"42.983295","lng":"141.331583"},{"town":"川沿十一条一丁目","lat":"42.982255","lng":"141.337077"},{"town":"川沿十一条二丁目","lat":"42.982308","lng":"141.334829"},{"town":"川沿十一条三丁目","lat":"42.981530","lng":"141.329410"},{"town":"川沿十二条一丁目","lat":"42.980920","lng":"141.338094"},{"town":"川沿十二条二丁目","lat":"42.980777","lng":"141.334753"},{"town":"川沿十二条三丁目","lat":"42.980623","lng":"141.331945"},{"town":"川沿十二条四丁目","lat":"42.979678","lng":"141.329482"},{"town":"川沿十二条五丁目","lat":"42.979372","lng":"141.327561"},{"town":"川沿十三条一丁目","lat":"42.979169","lng":"141.338338"},{"town":"川沿十三条二丁目","lat":"42.979040","lng":"141.335068"},{"town":"川沿十三条三丁目","lat":"42.979138","lng":"141.332135"},{"town":"川沿十四条一丁目","lat":"42.977279","lng":"141.338064"},{"town":"川沿十四条二丁目","lat":"42.977959","lng":"141.335205"},{"town":"川沿十五条一丁目","lat":"42.975412","lng":"141.337052"},{"town":"川沿十五条二丁目","lat":"42.977035","lng":"141.333914"},{"town":"川沿十六条一丁目","lat":"42.974110","lng":"141.336307"},{"town":"川沿十六条二丁目","lat":"42.975204","lng":"141.333553"},{"town":"川沿十七条一丁目","lat":"42.972353","lng":"141.335153"},{"town":"川沿十七条二丁目","lat":"42.974064","lng":"141.332793"},{"town":"川沿十八条一丁目","lat":"42.970864","lng":"141.333096"},{"town":"川沿十八条二丁目","lat":"42.972273","lng":"141.332637"},{"town":"川沿一条一丁目","lat":"43.000959","lng":"141.338236"},{"town":"川沿一条二丁目","lat":"43.002354","lng":"141.334299"},{"town":"川沿一条三丁目","lat":"43.001674","lng":"141.329297"},{"town":"川沿一条四丁目","lat":"43.001739","lng":"141.326851"},{"town":"川沿一条五丁目","lat":"43.000402","lng":"141.324731"},{"town":"川沿一条六丁目","lat":"43.000710","lng":"141.321137"},{"town":"川沿二条一丁目","lat":"42.998420","lng":"141.338053"},{"town":"川沿二条二丁目","lat":"42.998868","lng":"141.335097"},{"town":"川沿二条三丁目","lat":"42.999238","lng":"141.330703"},{"town":"川沿二条四丁目","lat":"42.998754","lng":"141.327010"},{"town":"川沿二条五丁目","lat":"42.998925","lng":"141.324910"},{"town":"川沿二条六丁目","lat":"42.998621","lng":"141.321651"},{"town":"川沿三条一丁目","lat":"42.996399","lng":"141.337371"},{"town":"川沿三条二丁目","lat":"42.996830","lng":"141.334162"},{"town":"川沿三条三丁目","lat":"42.996904","lng":"141.330294"},{"town":"川沿三条四丁目","lat":"42.996945","lng":"141.327470"},{"town":"川沿三条五丁目","lat":"42.996993","lng":"141.325071"},{"town":"川沿四条一丁目","lat":"42.994469","lng":"141.336826"},{"town":"川沿四条二丁目","lat":"42.994946","lng":"141.333623"},{"town":"川沿四条三丁目","lat":"42.994642","lng":"141.330258"},{"town":"川沿四条四丁目","lat":"42.994431","lng":"141.327792"},{"town":"川沿四条五丁目","lat":"42.994480","lng":"141.325691"},{"town":"川沿五条一丁目","lat":"42.992542","lng":"141.335757"},{"town":"川沿五条二丁目","lat":"42.992845","lng":"141.333407"},{"town":"川沿五条三丁目","lat":"42.992669","lng":"141.330527"},{"town":"川沿五条四丁目","lat":"42.992369","lng":"141.327837"},{"town":"川沿六条二丁目","lat":"42.990082","lng":"141.333862"},{"town":"川沿六条三丁目","lat":"42.990902","lng":"141.330856"},{"town":"川沿六条四丁目","lat":"42.990799","lng":"141.328046"},{"town":"川沿七条二丁目","lat":"42.989143","lng":"141.332730"},{"town":"川沿七条三丁目","lat":"42.988970","lng":"141.330823"},{"town":"川沿七条四丁目","lat":"42.988789","lng":"141.328253"},{"town":"川沿八条一丁目","lat":"42.987355","lng":"141.334790"},{"town":"川沿八条二丁目","lat":"42.987212","lng":"141.333440"},{"town":"川沿八条三丁目","lat":"42.987218","lng":"141.331038"},{"town":"川沿八条四丁目","lat":"42.987317","lng":"141.328892"},{"town":"川沿九条一丁目","lat":"42.985532","lng":"141.335441"},{"town":"川沿九条二丁目","lat":"42.985803","lng":"141.333694"},{"town":"川沿九条三丁目","lat":"42.985827","lng":"141.331432"},{"town":"川沿九条四丁目","lat":"42.985871","lng":"141.329444"},{"town":"川沿町","lat":"42.979953","lng":"141.340793"},{"town":"北ノ沢","lat":"43.013255","lng":"141.309119"},{"town":"北ノ沢一丁目","lat":"43.004041","lng":"141.330074"},{"town":"北ノ沢二丁目","lat":"43.005676","lng":"141.327049"},{"town":"北ノ沢三丁目","lat":"43.007939","lng":"141.325570"},{"town":"北ノ沢四丁目","lat":"43.006308","lng":"141.322596"},{"town":"北ノ沢五丁目","lat":"43.004611","lng":"141.321827"},{"town":"北ノ沢六丁目","lat":"43.003675","lng":"141.325016"},{"town":"北ノ沢七丁目","lat":"43.001530","lng":"141.324582"},{"town":"北ノ沢八丁目","lat":"43.002791","lng":"141.321594"},{"town":"北ノ沢九丁目","lat":"43.002321","lng":"141.318903"},{"town":"芸術の森一丁目","lat":"42.944695","lng":"141.341132"},{"town":"芸術の森二丁目","lat":"42.937567","lng":"141.338682"},{"town":"芸術の森三丁目","lat":"42.932425","lng":"141.337082"},{"town":"小金湯","lat":"42.970700","lng":"141.209459"},{"town":"定山渓","lat":"42.952518","lng":"141.116440"},{"town":"定山渓温泉西一丁目","lat":"42.972031","lng":"141.170743"},{"town":"定山渓温泉西二丁目","lat":"42.971403","lng":"141.165472"},{"town":"定山渓温泉西三丁目","lat":"42.967838","lng":"141.164005"},{"town":"定山渓温泉西四丁目","lat":"42.965522","lng":"141.160089"},{"town":"定山渓温泉東一丁目","lat":"42.970899","lng":"141.177033"},{"town":"定山渓温泉東二丁目","lat":"42.968770","lng":"141.169614"},{"town":"定山渓温泉東三丁目","lat":"42.965847","lng":"141.167013"},{"town":"定山渓温泉東四丁目","lat":"42.962184","lng":"141.158728"},{"town":"白川","lat":"42.978147","lng":"141.282997"},{"town":"澄川","lat":"42.981970","lng":"141.364727"},{"town":"澄川一条一丁目","lat":"43.019073","lng":"141.360247"},{"town":"澄川一条二丁目","lat":"43.017066","lng":"141.360064"},{"town":"澄川一条三丁目","lat":"43.015099","lng":"141.360086"},{"town":"澄川一条四丁目","lat":"43.012544","lng":"141.359429"},{"town":"澄川二条一丁目","lat":"43.018771","lng":"141.362115"},{"town":"澄川二条二丁目","lat":"43.016827","lng":"141.362944"},{"town":"澄川二条三丁目","lat":"43.014876","lng":"141.362682"},{"town":"澄川二条四丁目","lat":"43.012740","lng":"141.362115"},{"town":"澄川二条五丁目","lat":"43.010635","lng":"141.362489"},{"town":"澄川三条一丁目","lat":"43.018625","lng":"141.364948"},{"town":"澄川三条二丁目","lat":"43.016628","lng":"141.365508"},{"town":"澄川三条三丁目","lat":"43.014655","lng":"141.365138"},{"town":"澄川三条四丁目","lat":"43.012581","lng":"141.364874"},{"town":"澄川三条五丁目","lat":"43.010612","lng":"141.364723"},{"town":"澄川三条六丁目","lat":"43.007968","lng":"141.364348"},{"town":"澄川四条十丁目","lat":"42.999804","lng":"141.366127"},{"town":"澄川四条十一丁目","lat":"42.998044","lng":"141.365804"},{"town":"澄川四条十二丁目","lat":"42.995457","lng":"141.365135"},{"town":"澄川四条一丁目","lat":"43.018363","lng":"141.368710"},{"town":"澄川四条二丁目","lat":"43.016524","lng":"141.369205"},{"town":"澄川四条三丁目","lat":"43.014394","lng":"141.367575"},{"town":"澄川四条四丁目","lat":"43.012292","lng":"141.367837"},{"town":"澄川四条五丁目","lat":"43.010575","lng":"141.367358"},{"town":"澄川四条六丁目","lat":"43.008541","lng":"141.366870"},{"town":"澄川四条七丁目","lat":"43.006432","lng":"141.366867"},{"town":"澄川四条八丁目","lat":"43.004424","lng":"141.366805"},{"town":"澄川四条九丁目","lat":"43.002265","lng":"141.367523"},{"town":"澄川五条十丁目","lat":"43.000481","lng":"141.369016"},{"town":"澄川五条十一丁目","lat":"42.998379","lng":"141.368790"},{"town":"澄川五条十二丁目","lat":"42.995640","lng":"141.367969"},{"town":"澄川五条十三丁目","lat":"42.992671","lng":"141.368215"},{"town":"澄川五条三丁目","lat":"43.014184","lng":"141.371242"},{"town":"澄川五条四丁目","lat":"43.012346","lng":"141.371503"},{"town":"澄川五条五丁目","lat":"43.010486","lng":"141.371361"},{"town":"澄川五条六丁目","lat":"43.008308","lng":"141.370666"},{"town":"澄川五条七丁目","lat":"43.006620","lng":"141.370653"},{"town":"澄川五条八丁目","lat":"43.004194","lng":"141.369993"},{"town":"澄川五条九丁目","lat":"43.002643","lng":"141.370392"},{"town":"澄川六条十丁目","lat":"43.000390","lng":"141.372675"},{"town":"澄川六条十一丁目","lat":"42.998184","lng":"141.372757"},{"town":"澄川六条十二丁目","lat":"42.995247","lng":"141.371767"},{"town":"澄川六条十三丁目","lat":"42.992429","lng":"141.371692"},{"town":"澄川六条三丁目","lat":"43.013527","lng":"141.375350"},{"town":"澄川六条四丁目","lat":"43.011235","lng":"141.375312"},{"town":"澄川六条五丁目","lat":"43.009373","lng":"141.374695"},{"town":"澄川六条六丁目","lat":"43.007070","lng":"141.373712"},{"town":"澄川六条七丁目","lat":"43.005327","lng":"141.373329"},{"town":"澄川六条八丁目","lat":"43.004085","lng":"141.372541"},{"town":"澄川六条九丁目","lat":"43.001750","lng":"141.373025"},{"town":"滝野","lat":"42.901583","lng":"141.366966"},{"town":"砥石山","lat":"43.000688","lng":"141.271668"},{"town":"常盤","lat":"42.917723","lng":"141.322103"},{"town":"常盤一条一丁目","lat":"42.954904","lng":"141.347359"},{"town":"常盤一条二丁目","lat":"42.952558","lng":"141.347670"},{"town":"常盤二条一丁目","lat":"42.948995","lng":"141.345966"},{"town":"常盤二条二丁目","lat":"42.948444","lng":"141.348374"},{"town":"常盤二条三丁目","lat":"42.946659","lng":"141.350707"},{"town":"常盤三条一丁目","lat":"42.944451","lng":"141.345269"},{"town":"常盤三条二丁目","lat":"42.944081","lng":"141.346685"},{"town":"常盤四条一丁目","lat":"42.940327","lng":"141.344127"},{"town":"常盤四条二丁目","lat":"42.940188","lng":"141.345417"},{"town":"常盤五条一丁目","lat":"42.937711","lng":"141.342410"},{"town":"常盤五条二丁目","lat":"42.937371","lng":"141.344476"},{"town":"常盤六条一丁目","lat":"42.935768","lng":"141.341620"},{"town":"常盤六条二丁目","lat":"42.934499","lng":"141.343054"},{"town":"砥山","lat":"42.977148","lng":"141.245052"},{"town":"豊滝","lat":"42.928343","lng":"141.218081"},{"town":"豊滝一丁目","lat":"42.951979","lng":"141.237213"},{"town":"豊滝二丁目","lat":"42.951944","lng":"141.234615"},{"town":"中ノ沢","lat":"42.998716","lng":"141.295152"},{"town":"中ノ沢一丁目","lat":"42.995307","lng":"141.323616"},{"town":"中ノ沢二丁目","lat":"42.997331","lng":"141.321485"},{"town":"中ノ沢三丁目","lat":"42.994624","lng":"141.321183"},{"town":"中ノ沢四丁目","lat":"42.995548","lng":"141.317451"},{"town":"中ノ沢五丁目","lat":"42.997120","lng":"141.317341"},{"town":"中ノ沢六丁目","lat":"42.998193","lng":"141.316865"},{"town":"中ノ沢七丁目","lat":"42.997793","lng":"141.313598"},{"town":"藤野","lat":"42.936499","lng":"141.295094"},{"town":"藤野一条十丁目","lat":"42.964451","lng":"141.283721"},{"town":"藤野一条五丁目","lat":"42.965515","lng":"141.299984"},{"town":"藤野一条六丁目","lat":"42.966440","lng":"141.297158"},{"town":"藤野一条七丁目","lat":"42.966791","lng":"141.293604"},{"town":"藤野一条八丁目","lat":"42.966892","lng":"141.290048"},{"town":"藤野一条九丁目","lat":"42.966556","lng":"141.287717"},{"town":"藤野二条十丁目","lat":"42.962480","lng":"141.282631"},{"town":"藤野二条十一丁目","lat":"42.962471","lng":"141.279367"},{"town":"藤野二条十二丁目","lat":"42.962901","lng":"141.276382"},{"town":"藤野二条十三丁目","lat":"42.963058","lng":"141.273731"},{"town":"藤野二条一丁目","lat":"42.962389","lng":"141.312020"},{"town":"藤野二条二丁目","lat":"42.961810","lng":"141.309030"},{"town":"藤野二条三丁目","lat":"42.962271","lng":"141.305811"},{"town":"藤野二条四丁目","lat":"42.962857","lng":"141.302301"},{"town":"藤野二条五丁目","lat":"42.962735","lng":"141.299175"},{"town":"藤野二条六丁目","lat":"42.963373","lng":"141.296234"},{"town":"藤野二条七丁目","lat":"42.963497","lng":"141.292959"},{"town":"藤野二条八丁目","lat":"42.963625","lng":"141.289849"},{"town":"藤野二条九丁目","lat":"42.963450","lng":"141.286481"},{"town":"藤野三条十丁目","lat":"42.960101","lng":"141.282096"},{"town":"藤野三条十一丁目","lat":"42.959827","lng":"141.278469"},{"town":"藤野三条一丁目","lat":"42.960099","lng":"141.310716"},{"town":"藤野三条二丁目","lat":"42.960158","lng":"141.308989"},{"town":"藤野三条三丁目","lat":"42.959768","lng":"141.306131"},{"town":"藤野三条四丁目","lat":"42.959210","lng":"141.302797"},{"town":"藤野三条五丁目","lat":"42.960897","lng":"141.300408"},{"town":"藤野三条六丁目","lat":"42.960758","lng":"141.296415"},{"town":"藤野三条七丁目","lat":"42.960522","lng":"141.292409"},{"town":"藤野三条八丁目","lat":"42.960887","lng":"141.288966"},{"town":"藤野三条九丁目","lat":"42.960864","lng":"141.285932"},{"town":"藤野四条十丁目","lat":"42.958607","lng":"141.282845"},{"town":"藤野四条十一丁目","lat":"42.957759","lng":"141.277978"},{"town":"藤野四条一丁目","lat":"42.957144","lng":"141.310265"},{"town":"藤野四条二丁目","lat":"42.957585","lng":"141.308822"},{"town":"藤野四条三丁目","lat":"42.957406","lng":"141.306528"},{"town":"藤野四条四丁目","lat":"42.957057","lng":"141.303430"},{"town":"藤野四条五丁目","lat":"42.958159","lng":"141.299334"},{"town":"藤野四条六丁目","lat":"42.958384","lng":"141.294816"},{"town":"藤野四条七丁目","lat":"42.958754","lng":"141.291070"},{"town":"藤野四条八丁目","lat":"42.959036","lng":"141.288168"},{"town":"藤野四条九丁目","lat":"42.958814","lng":"141.285121"},{"town":"藤野五条十丁目","lat":"42.956168","lng":"141.282824"},{"town":"藤野五条一丁目","lat":"42.954296","lng":"141.311369"},{"town":"藤野五条二丁目","lat":"42.954533","lng":"141.308799"},{"town":"藤野五条三丁目","lat":"42.954637","lng":"141.306243"},{"town":"藤野五条四丁目","lat":"42.954942","lng":"141.303026"},{"town":"藤野五条五丁目","lat":"42.955092","lng":"141.298386"},{"town":"藤野五条六丁目","lat":"42.955452","lng":"141.293515"},{"town":"藤野五条七丁目","lat":"42.956005","lng":"141.290221"},{"town":"藤野五条八丁目","lat":"42.956238","lng":"141.288004"},{"town":"藤野五条九丁目","lat":"42.956302","lng":"141.285819"},{"town":"藤野六条一丁目","lat":"42.952754","lng":"141.311105"},{"town":"藤野六条二丁目","lat":"42.952764","lng":"141.308450"},{"town":"藤野六条三丁目","lat":"42.952783","lng":"141.305833"},{"town":"藤野六条四丁目","lat":"42.951990","lng":"141.303181"},{"town":"藤野六条六丁目","lat":"42.953024","lng":"141.291615"},{"town":"藤野六条九丁目","lat":"42.954725","lng":"141.284867"},{"town":"真駒内","lat":"42.956587","lng":"141.356462"},{"town":"真駒内曙町一丁目","lat":"43.002302","lng":"141.350778"},{"town":"真駒内曙町二丁目","lat":"42.999440","lng":"141.349874"},{"town":"真駒内曙町三丁目","lat":"42.999569","lng":"141.352011"},{"town":"真駒内曙町四丁目","lat":"42.999673","lng":"141.354398"},{"town":"真駒内泉町一丁目","lat":"42.987574","lng":"141.351966"},{"town":"真駒内泉町二丁目","lat":"42.986908","lng":"141.353816"},{"town":"真駒内泉町三丁目","lat":"42.986366","lng":"141.355342"},{"town":"真駒内泉町四丁目","lat":"42.986021","lng":"141.356951"},{"town":"真駒内柏丘十丁目","lat":"42.983053","lng":"141.347952"},{"town":"真駒内柏丘十一丁目","lat":"42.977073","lng":"141.345824"},{"town":"真駒内柏丘十二丁目","lat":"42.982201","lng":"141.343476"},{"town":"真駒内柏丘一丁目","lat":"42.991698","lng":"141.347393"},{"town":"真駒内柏丘二丁目","lat":"42.989399","lng":"141.348229"},{"town":"真駒内柏丘三丁目","lat":"42.988427","lng":"141.350187"},{"town":"真駒内柏丘四丁目","lat":"42.987474","lng":"141.347055"},{"town":"真駒内柏丘五丁目","lat":"42.988489","lng":"141.344596"},{"town":"真駒内柏丘六丁目","lat":"42.989957","lng":"141.343823"},{"town":"真駒内柏丘七丁目","lat":"42.987240","lng":"141.341594"},{"town":"真駒内柏丘八丁目","lat":"42.985868","lng":"141.346412"},{"town":"真駒内柏丘九丁目","lat":"42.982749","lng":"141.345601"},{"town":"真駒内上町一丁目","lat":"42.996450","lng":"141.349679"},{"town":"真駒内上町二丁目","lat":"42.996549","lng":"141.350685"},{"town":"真駒内上町三丁目","lat":"42.996916","lng":"141.353428"},{"town":"真駒内上町四丁目","lat":"42.996665","lng":"141.355763"},{"town":"真駒内上町五丁目","lat":"42.996456","lng":"141.358273"},{"town":"真駒内公園","lat":"42.994365","lng":"141.344149"},{"town":"真駒内幸町一丁目","lat":"42.989993","lng":"141.351668"},{"town":"真駒内幸町二丁目","lat":"42.990070","lng":"141.354229"},{"town":"真駒内幸町三丁目","lat":"42.990114","lng":"141.356791"},{"town":"真駒内東町一丁目","lat":"43.003361","lng":"141.364406"},{"town":"真駒内東町二丁目","lat":"42.999594","lng":"141.363889"},{"town":"真駒内東町三丁目","lat":"42.998191","lng":"141.364151"},{"town":"真駒内本町一丁目","lat":"43.010493","lng":"141.353140"},{"town":"真駒内本町二丁目","lat":"43.007508","lng":"141.351483"},{"town":"真駒内本町三丁目","lat":"43.007156","lng":"141.348946"},{"town":"真駒内本町四丁目","lat":"43.006398","lng":"141.347201"},{"town":"真駒内本町五丁目","lat":"43.005023","lng":"141.350164"},{"town":"真駒内本町六丁目","lat":"43.004324","lng":"141.347145"},{"town":"真駒内本町七丁目","lat":"43.002355","lng":"141.346822"},{"town":"真駒内緑町一丁目","lat":"42.992709","lng":"141.349844"},{"town":"真駒内緑町二丁目","lat":"42.992790","lng":"141.352112"},{"town":"真駒内緑町三丁目","lat":"42.992905","lng":"141.354685"},{"town":"真駒内緑町四丁目","lat":"42.993034","lng":"141.357240"},{"town":"真駒内南町一丁目","lat":"42.984681","lng":"141.350458"},{"town":"真駒内南町二丁目","lat":"42.982983","lng":"141.352753"},{"town":"真駒内南町三丁目","lat":"42.982117","lng":"141.353755"},{"town":"真駒内南町四丁目","lat":"42.981304","lng":"141.350518"},{"town":"真駒内南町五丁目","lat":"42.977897","lng":"141.347799"},{"town":"真駒内南町六丁目","lat":"42.977209","lng":"141.349661"},{"town":"真駒内南町七丁目","lat":"42.973345","lng":"141.347399"},{"town":"簾舞","lat":"42.917035","lng":"141.254455"},{"town":"簾舞一条一丁目","lat":"42.964460","lng":"141.271233"},{"town":"簾舞一条二丁目","lat":"42.963915","lng":"141.267917"},{"town":"簾舞一条四丁目","lat":"42.963961","lng":"141.264154"},{"town":"簾舞一条五丁目","lat":"42.962790","lng":"141.260038"},{"town":"簾舞二条一丁目","lat":"42.962820","lng":"141.271121"},{"town":"簾舞二条二丁目","lat":"42.962922","lng":"141.269151"},{"town":"簾舞二条三丁目","lat":"42.962553","lng":"141.267154"},{"town":"簾舞二条四丁目","lat":"42.962783","lng":"141.263823"},{"town":"簾舞二条五丁目","lat":"42.962112","lng":"141.260986"},{"town":"簾舞三条一丁目","lat":"42.960475","lng":"141.273940"},{"town":"簾舞三条二丁目","lat":"42.960547","lng":"141.271249"},{"town":"簾舞三条三丁目","lat":"42.960777","lng":"141.267688"},{"town":"簾舞三条五丁目","lat":"42.959944","lng":"141.261410"},{"town":"簾舞三条六丁目","lat":"42.960089","lng":"141.258111"},{"town":"簾舞四条一丁目","lat":"42.958608","lng":"141.274565"},{"town":"簾舞四条二丁目","lat":"42.958310","lng":"141.271749"},{"town":"簾舞四条三丁目","lat":"42.958840","lng":"141.268639"},{"town":"簾舞四条六丁目","lat":"42.958631","lng":"141.258808"},{"town":"簾舞五条一丁目","lat":"42.956505","lng":"141.274925"},{"town":"簾舞五条二丁目","lat":"42.956294","lng":"141.272477"},{"town":"簾舞六条一丁目","lat":"42.954397","lng":"141.275090"},{"town":"簾舞六条二丁目","lat":"42.953894","lng":"141.272243"},{"town":"南三十条西八丁目","lat":"43.019362","lng":"141.350285"},{"town":"南三十一条西十丁目","lat":"43.017547","lng":"141.347292"},{"town":"南三十一条西十一丁目","lat":"43.016977","lng":"141.346355"},{"town":"南三十一条西八丁目","lat":"43.017177","lng":"141.350852"},{"town":"南三十一条西九丁目","lat":"43.017509","lng":"141.348720"},{"town":"南三十二条西十丁目","lat":"43.015680","lng":"141.347503"},{"town":"南三十二条西十一丁目","lat":"43.015858","lng":"141.345849"},{"town":"南三十二条西八丁目","lat":"43.015709","lng":"141.350945"},{"town":"南三十二条西九丁目","lat":"43.015556","lng":"141.348928"},{"town":"南三十三条西十丁目","lat":"43.013969","lng":"141.347394"},{"town":"南三十三条西十一丁目","lat":"43.014534","lng":"141.345695"},{"town":"南三十三条西八丁目","lat":"43.014445","lng":"141.351119"},{"town":"南三十三条西九丁目","lat":"43.014184","lng":"141.349103"},{"town":"南三十四条西十丁目","lat":"43.012456","lng":"141.347291"},{"town":"南三十四条西十一丁目","lat":"43.012773","lng":"141.345022"},{"town":"南三十四条西八丁目","lat":"43.012239","lng":"141.350662"},{"town":"南三十四条西九丁目","lat":"43.012601","lng":"141.349302"},{"town":"南三十五条西十丁目","lat":"43.010425","lng":"141.347080"},{"town":"南三十五条西十一丁目","lat":"43.011173","lng":"141.344640"},{"town":"南三十五条西九丁目","lat":"43.010948","lng":"141.349492"},{"town":"南三十六条西十丁目","lat":"43.009332","lng":"141.345907"},{"town":"南三十六条西十一丁目","lat":"43.009730","lng":"141.344037"},{"town":"南三十七条西十丁目","lat":"43.007836","lng":"141.344825"},{"town":"南三十七条西十一丁目","lat":"43.008065","lng":"141.342938"},{"town":"南三十八条西十丁目","lat":"43.006478","lng":"141.344264"},{"town":"南三十八条西十一丁目","lat":"43.006506","lng":"141.342399"},{"town":"南三十九条西十丁目","lat":"43.004818","lng":"141.343681"},{"town":"南三十九条西十一丁目","lat":"43.004027","lng":"141.342691"},{"town":"南沢","lat":"42.983772","lng":"141.304200"},{"town":"南沢一条一丁目","lat":"42.983357","lng":"141.325923"},{"town":"南沢一条二丁目","lat":"42.982268","lng":"141.327037"},{"town":"南沢一条三丁目","lat":"42.981469","lng":"141.324100"},{"town":"南沢二条一丁目","lat":"42.985571","lng":"141.325706"},{"town":"南沢二条二丁目","lat":"42.984116","lng":"141.322560"},{"town":"南沢二条三丁目","lat":"42.981925","lng":"141.319211"},{"town":"南沢二条四丁目","lat":"42.980973","lng":"141.315775"},{"town":"南沢三条一丁目","lat":"42.987737","lng":"141.321135"},{"town":"南沢三条二丁目","lat":"42.985523","lng":"141.320331"},{"town":"南沢三条三丁目","lat":"42.984378","lng":"141.316669"},{"town":"南沢三条四丁目","lat":"42.983302","lng":"141.314376"},{"town":"南沢四条一丁目","lat":"42.989703","lng":"141.319614"},{"town":"南沢四条二丁目","lat":"42.987930","lng":"141.316637"},{"town":"南沢四条三丁目","lat":"42.986367","lng":"141.314737"},{"town":"南沢四条四丁目","lat":"42.984969","lng":"141.312732"},{"town":"南沢五条一丁目","lat":"42.990814","lng":"141.317293"},{"town":"南沢五条二丁目","lat":"42.989736","lng":"141.313519"},{"town":"南沢五条三丁目","lat":"42.987999","lng":"141.312073"},{"town":"南沢五条四丁目","lat":"42.986658","lng":"141.309826"},{"town":"南沢六条二丁目","lat":"42.990986","lng":"141.312513"},{"town":"南沢六条三丁目","lat":"42.989687","lng":"141.308871"},{"town":"南沢六条四丁目","lat":"42.987633","lng":"141.306720"},{"town":"藻岩下","lat":"43.012642","lng":"141.331858"},{"town":"藻岩下一丁目","lat":"43.010513","lng":"141.340121"},{"town":"藻岩下二丁目","lat":"43.008142","lng":"141.340801"},{"town":"藻岩下三丁目","lat":"43.007862","lng":"141.338371"},{"town":"藻岩下四丁目","lat":"43.008542","lng":"141.335576"},{"town":"藻岩下五丁目","lat":"43.010139","lng":"141.336317"},{"town":"藻岩山","lat":"43.019034","lng":"141.330408"}]