[{"town":"青葉町一丁目","lat":"42.630407","lng":"141.573662"},{"town":"青葉町二丁目","lat":"42.628743","lng":"141.568258"},{"town":"明野新町一丁目","lat":"42.657366","lng":"141.637173"},{"town":"明野新町二丁目","lat":"42.655270","lng":"141.630025"},{"town":"明野新町三丁目","lat":"42.657415","lng":"141.627707"},{"town":"明野新町四丁目","lat":"42.659939","lng":"141.635431"},{"town":"明野新町五丁目","lat":"42.662304","lng":"141.633963"},{"town":"明野新町六丁目","lat":"42.659994","lng":"141.627058"},{"town":"明野元町一丁目","lat":"42.664719","lng":"141.666051"},{"town":"明野元町二丁目","lat":"42.668416","lng":"141.661819"},{"town":"あけぼの町一丁目","lat":"42.679371","lng":"141.669289"},{"town":"あけぼの町二丁目","lat":"42.675265","lng":"141.660991"},{"town":"あけぼの町三丁目","lat":"42.671780","lng":"141.651463"},{"town":"あけぼの町四丁目","lat":"42.678355","lng":"141.649473"},{"town":"あけぼの町五丁目","lat":"42.680824","lng":"141.644550"},{"town":"字糸井","lat":"42.667220","lng":"141.515154"},{"town":"字柏原","lat":"42.677710","lng":"141.760125"},{"town":"字静川","lat":"42.664337","lng":"141.796627"},{"town":"字高丘","lat":"42.678951","lng":"141.594406"},{"town":"字樽前","lat":"42.636065","lng":"141.391404"},{"town":"字錦岡","lat":"42.648456","lng":"141.481606"},{"town":"旭町一丁目","lat":"42.631497","lng":"141.608741"},{"town":"旭町二丁目","lat":"42.630607","lng":"141.605550"},{"town":"旭町三丁目","lat":"42.632467","lng":"141.603496"},{"town":"旭町四丁目","lat":"42.634051","lng":"141.606328"},{"town":"字弁天","lat":"42.629541","lng":"141.774865"},{"town":"字丸山","lat":"42.722251","lng":"141.507028"},{"town":"字美沢","lat":"42.758630","lng":"141.686296"},{"town":"字勇払","lat":"42.638559","lng":"141.706512"},{"town":"有明町一丁目","lat":"42.621088","lng":"141.565627"},{"town":"有明町二丁目","lat":"42.618879","lng":"141.554849"},{"town":"泉町一丁目","lat":"42.657484","lng":"141.609635"},{"town":"泉町二丁目","lat":"42.655499","lng":"141.607560"},{"town":"一本松町","lat":"42.655077","lng":"141.647130"},{"town":"入船町一丁目","lat":"42.640615","lng":"141.632619"},{"town":"入船町二丁目","lat":"42.644978","lng":"141.629950"},{"town":"入船町三丁目","lat":"42.643574","lng":"141.621559"},{"town":"有珠の沢町一丁目","lat":"42.641364","lng":"141.555249"},{"town":"有珠の沢町二丁目","lat":"42.645225","lng":"141.553127"},{"town":"有珠の沢町三丁目","lat":"42.639459","lng":"141.553206"},{"town":"有珠の沢町四丁目","lat":"42.641624","lng":"141.550975"},{"town":"有珠の沢町五丁目","lat":"42.643970","lng":"141.548884"},{"town":"有珠の沢町六丁目","lat":"42.645495","lng":"141.546435"},{"town":"有珠の沢町七丁目","lat":"42.648984","lng":"141.548187"},{"town":"永福町一丁目","lat":"42.618498","lng":"141.544920"},{"town":"永福町二丁目","lat":"42.620376","lng":"141.543290"},{"town":"王子町一丁目","lat":"42.634801","lng":"141.595129"},{"town":"王子町二丁目","lat":"42.634090","lng":"141.590264"},{"town":"王子町三丁目","lat":"42.637874","lng":"141.595066"},{"town":"大町一丁目","lat":"42.630804","lng":"141.596343"},{"town":"大町二丁目","lat":"42.631938","lng":"141.595215"},{"town":"音羽町一丁目","lat":"42.647222","lng":"141.614863"},{"town":"音羽町二丁目","lat":"42.645733","lng":"141.610423"},{"town":"表町一丁目","lat":"42.634952","lng":"141.602539"},{"town":"表町二丁目","lat":"42.634013","lng":"141.600479"},{"town":"表町三丁目","lat":"42.636237","lng":"141.598942"},{"town":"表町四丁目","lat":"42.636829","lng":"141.600834"},{"town":"表町五丁目","lat":"42.639322","lng":"141.600007"},{"town":"表町六丁目","lat":"42.638815","lng":"141.597370"},{"town":"柏木町一丁目","lat":"42.625519","lng":"141.529401"},{"town":"柏木町二丁目","lat":"42.623900","lng":"141.525055"},{"town":"柏木町三丁目","lat":"42.623089","lng":"141.521508"},{"town":"柏木町四丁目","lat":"42.625580","lng":"141.519504"},{"town":"柏木町五丁目","lat":"42.626799","lng":"141.523265"},{"town":"柏木町六丁目","lat":"42.628507","lng":"141.527864"},{"town":"春日町一丁目","lat":"42.647562","lng":"141.604940"},{"town":"春日町二丁目","lat":"42.647064","lng":"141.601749"},{"town":"春日町三丁目","lat":"42.648572","lng":"141.601112"},{"town":"川沿町一丁目","lat":"42.619635","lng":"141.531910"},{"town":"川沿町二丁目","lat":"42.617803","lng":"141.528090"},{"town":"川沿町三丁目","lat":"42.616407","lng":"141.524125"},{"town":"川沿町四丁目","lat":"42.619419","lng":"141.523514"},{"town":"川沿町五丁目","lat":"42.620710","lng":"141.526329"},{"town":"川沿町六丁目","lat":"42.622121","lng":"141.530490"},{"town":"木場町一丁目","lat":"42.641498","lng":"141.596555"},{"town":"木場町二丁目","lat":"42.644419","lng":"141.593295"},{"town":"木場町三丁目","lat":"42.646037","lng":"141.593513"},{"town":"木場町四丁目","lat":"42.640717","lng":"141.587831"},{"town":"啓北町一丁目","lat":"42.630762","lng":"141.565171"},{"town":"啓北町二丁目","lat":"42.633043","lng":"141.561870"},{"town":"小糸井町一丁目","lat":"42.616999","lng":"141.545648"},{"town":"光洋町一丁目","lat":"42.622737","lng":"141.564460"},{"town":"光洋町二丁目","lat":"42.624359","lng":"141.563562"},{"town":"光洋町三丁目","lat":"42.626377","lng":"141.563119"},{"town":"寿町一丁目","lat":"42.628842","lng":"141.598231"},{"town":"寿町二丁目","lat":"42.629955","lng":"141.597621"},{"town":"幸町一丁目","lat":"42.628471","lng":"141.591500"},{"town":"幸町二丁目","lat":"42.629420","lng":"141.589954"},{"town":"栄町一丁目","lat":"42.629152","lng":"141.602107"},{"town":"栄町二丁目","lat":"42.630285","lng":"141.601325"},{"town":"栄町三丁目","lat":"42.631261","lng":"141.599825"},{"town":"桜木町一丁目","lat":"42.629000","lng":"141.561036"},{"town":"桜木町二丁目","lat":"42.626208","lng":"141.552754"},{"town":"桜木町三丁目","lat":"42.629441","lng":"141.551973"},{"town":"桜木町四丁目","lat":"42.631468","lng":"141.558192"},{"town":"桜坂町一丁目","lat":"42.638973","lng":"141.537213"},{"town":"桜坂町二丁目","lat":"42.639068","lng":"141.535180"},{"town":"三光町一丁目","lat":"42.653809","lng":"141.624703"},{"town":"三光町二丁目","lat":"42.651997","lng":"141.618136"},{"town":"三光町三丁目","lat":"42.654381","lng":"141.620699"},{"town":"三光町四丁目","lat":"42.656078","lng":"141.618897"},{"town":"三光町五丁目","lat":"42.656325","lng":"141.614803"},{"town":"三光町六丁目","lat":"42.657792","lng":"141.621974"},{"town":"汐見町一丁目","lat":"42.625548","lng":"141.615365"},{"town":"汐見町二丁目","lat":"42.625201","lng":"141.612316"},{"town":"汐見町三丁目","lat":"42.627779","lng":"141.607740"},{"town":"清水町一丁目","lat":"42.651470","lng":"141.602637"},{"town":"清水町二丁目","lat":"42.650728","lng":"141.597168"},{"town":"清水町三丁目","lat":"42.655016","lng":"141.595058"},{"town":"清水町四丁目","lat":"42.651112","lng":"141.584713"},{"town":"しらかば町一丁目","lat":"42.624155","lng":"141.547728"},{"town":"しらかば町二丁目","lat":"42.622684","lng":"141.541929"},{"town":"しらかば町三丁目","lat":"42.622011","lng":"141.536483"},{"town":"しらかば町四丁目","lat":"42.623735","lng":"141.537303"},{"town":"しらかば町五丁目","lat":"42.625920","lng":"141.542825"},{"town":"しらかば町六丁目","lat":"42.626919","lng":"141.547008"},{"town":"白金町一丁目","lat":"42.633613","lng":"141.583356"},{"town":"白金町二丁目","lat":"42.631655","lng":"141.578477"},{"town":"新開町一丁目","lat":"42.667618","lng":"141.658724"},{"town":"新開町二丁目","lat":"42.666172","lng":"141.653752"},{"town":"新開町三丁目","lat":"42.663850","lng":"141.647134"},{"town":"新開町四丁目","lat":"42.661924","lng":"141.641002"},{"town":"新富町一丁目","lat":"42.624898","lng":"141.576007"},{"town":"新富町二丁目","lat":"42.624098","lng":"141.571348"},{"town":"新中野町一丁目","lat":"42.644374","lng":"141.617325"},{"town":"新中野町二丁目","lat":"42.643113","lng":"141.614418"},{"town":"新中野町三丁目","lat":"42.641416","lng":"141.611384"},{"town":"新明町一丁目","lat":"42.670295","lng":"141.643072"},{"town":"新明町二丁目","lat":"42.668722","lng":"141.636799"},{"town":"新明町三丁目","lat":"42.666968","lng":"141.631078"},{"town":"新明町四丁目","lat":"42.663224","lng":"141.625201"},{"town":"新明町五丁目","lat":"42.666978","lng":"141.623013"},{"town":"末広町一丁目","lat":"42.631590","lng":"141.612337"},{"town":"末広町二丁目","lat":"42.634326","lng":"141.611932"},{"town":"末広町三丁目","lat":"42.636356","lng":"141.610479"},{"town":"澄川町一丁目","lat":"42.621592","lng":"141.518517"},{"town":"澄川町二丁目","lat":"42.620465","lng":"141.515013"},{"town":"澄川町三丁目","lat":"42.619137","lng":"141.510784"},{"town":"澄川町四丁目","lat":"42.617683","lng":"141.505506"},{"town":"澄川町五丁目","lat":"42.620422","lng":"141.503769"},{"town":"澄川町六丁目","lat":"42.622301","lng":"141.508882"},{"town":"澄川町七丁目","lat":"42.623569","lng":"141.513110"},{"town":"澄川町八丁目","lat":"42.624780","lng":"141.516395"},{"town":"住吉町一丁目","lat":"42.654414","lng":"141.611187"},{"town":"住吉町二丁目","lat":"42.652742","lng":"141.607184"},{"town":"青雲町一丁目","lat":"42.609636","lng":"141.496318"},{"town":"青雲町二丁目","lat":"42.609284","lng":"141.491292"},{"town":"青雲町三丁目","lat":"42.607579","lng":"141.485990"},{"town":"大成町一丁目","lat":"42.627684","lng":"141.575182"},{"town":"大成町二丁目","lat":"42.626671","lng":"141.569639"},{"town":"高砂町一丁目","lat":"42.627333","lng":"141.603066"},{"town":"高砂町二丁目","lat":"42.626954","lng":"141.599648"},{"town":"拓勇西町一丁目","lat":"42.667253","lng":"141.673835"},{"town":"拓勇西町二丁目","lat":"42.665593","lng":"141.669908"},{"town":"拓勇西町三丁目","lat":"42.668199","lng":"141.667334"},{"town":"拓勇西町四丁目","lat":"42.669527","lng":"141.672364"},{"town":"拓勇西町五丁目","lat":"42.672611","lng":"141.670428"},{"town":"拓勇西町六丁目","lat":"42.670840","lng":"141.666067"},{"town":"拓勇西町七丁目","lat":"42.672305","lng":"141.662161"},{"town":"拓勇西町八丁目","lat":"42.674925","lng":"141.669258"},{"town":"拓勇東町一丁目","lat":"42.670923","lng":"141.683314"},{"town":"拓勇東町二丁目","lat":"42.668974","lng":"141.678266"},{"town":"拓勇東町三丁目","lat":"42.671205","lng":"141.676695"},{"town":"拓勇東町四丁目","lat":"42.673917","lng":"141.682147"},{"town":"拓勇東町六丁目","lat":"42.673988","lng":"141.675021"},{"town":"拓勇東町七丁目","lat":"42.676723","lng":"141.673011"},{"town":"東開町一丁目","lat":"42.662514","lng":"141.701159"},{"town":"東開町二丁目","lat":"42.663097","lng":"141.696855"},{"town":"東開町三丁目","lat":"42.664915","lng":"141.685754"},{"town":"東開町四丁目","lat":"42.665353","lng":"141.692485"},{"town":"東開町五丁目","lat":"42.666433","lng":"141.695668"},{"town":"東開町六丁目","lat":"42.667320","lng":"141.698572"},{"town":"ときわ町一丁目","lat":"42.614950","lng":"141.518689"},{"town":"ときわ町二丁目","lat":"42.613248","lng":"141.514414"},{"town":"ときわ町三丁目","lat":"42.613816","lng":"141.509603"},{"town":"ときわ町四丁目","lat":"42.616037","lng":"141.512688"},{"town":"ときわ町五丁目","lat":"42.617403","lng":"141.516306"},{"town":"ときわ町六丁目","lat":"42.618430","lng":"141.519169"},{"town":"豊川町一丁目","lat":"42.635456","lng":"141.556728"},{"town":"豊川町二丁目","lat":"42.634589","lng":"141.554127"},{"town":"豊川町三丁目","lat":"42.632671","lng":"141.548230"},{"town":"豊川町四丁目","lat":"42.634692","lng":"141.548085"},{"town":"錦町一丁目","lat":"42.632273","lng":"141.598844"},{"town":"錦町二丁目","lat":"42.633380","lng":"141.597911"},{"town":"日新町一丁目","lat":"42.630464","lng":"141.544891"},{"town":"日新町二丁目","lat":"42.629040","lng":"141.540099"},{"town":"日新町三丁目","lat":"42.627804","lng":"141.534703"},{"town":"日新町四丁目","lat":"42.628453","lng":"141.532444"},{"town":"日新町五丁目","lat":"42.631782","lng":"141.538503"},{"town":"日新町六丁目","lat":"42.632674","lng":"141.543465"},{"town":"沼ノ端中央一丁目","lat":"42.674310","lng":"141.704937"},{"town":"沼ノ端中央二丁目","lat":"42.672108","lng":"141.699280"},{"town":"沼ノ端中央三丁目","lat":"42.670908","lng":"141.696220"},{"town":"沼ノ端中央四丁目","lat":"42.669879","lng":"141.692617"},{"town":"沼ノ端中央五丁目","lat":"42.668992","lng":"141.689324"},{"town":"沼ノ端中央六丁目","lat":"42.666419","lng":"141.681382"},{"town":"のぞみ町一丁目","lat":"42.615879","lng":"141.501942"},{"town":"のぞみ町二丁目","lat":"42.614451","lng":"141.497135"},{"town":"のぞみ町三丁目","lat":"42.617691","lng":"141.497357"},{"town":"花園町一丁目","lat":"42.633252","lng":"141.573567"},{"town":"花園町二丁目","lat":"42.632000","lng":"141.569735"},{"town":"花園町三丁目","lat":"42.635234","lng":"141.567751"},{"town":"花園町四丁目","lat":"42.636425","lng":"141.571513"},{"town":"浜町一丁目","lat":"42.626628","lng":"141.596861"},{"town":"浜町二丁目","lat":"42.626286","lng":"141.594209"},{"town":"はまなす町一丁目","lat":"42.628881","lng":"141.516984"},{"town":"はまなす町二丁目","lat":"42.630022","lng":"141.513404"},{"town":"晴海町","lat":"42.649079","lng":"141.648823"},{"town":"日の出町一丁目","lat":"42.650663","lng":"141.625091"},{"town":"日の出町二丁目","lat":"42.648980","lng":"141.619988"},{"town":"日吉町一丁目","lat":"42.621143","lng":"141.556855"},{"town":"日吉町二丁目","lat":"42.619875","lng":"141.550742"},{"town":"日吉町三丁目","lat":"42.622067","lng":"141.549247"},{"town":"日吉町四丁目","lat":"42.623952","lng":"141.555686"},{"town":"双葉町一丁目","lat":"42.650830","lng":"141.613393"},{"town":"双葉町二丁目","lat":"42.649368","lng":"141.610608"},{"town":"双葉町三丁目","lat":"42.649171","lng":"141.606575"},{"town":"船見町一丁目","lat":"42.648244","lng":"141.626629"},{"town":"船見町二丁目","lat":"42.645771","lng":"141.621195"},{"town":"北栄町二丁目","lat":"42.673098","lng":"141.688153"},{"town":"北光町一丁目","lat":"42.636658","lng":"141.581481"},{"town":"北光町二丁目","lat":"42.635088","lng":"141.576787"},{"town":"北光町三丁目","lat":"42.638197","lng":"141.575686"},{"town":"北光町四丁目","lat":"42.640871","lng":"141.579836"},{"town":"本幸町一丁目","lat":"42.628647","lng":"141.595993"},{"town":"本幸町二丁目","lat":"42.627857","lng":"141.594139"},{"town":"本町一丁目","lat":"42.629518","lng":"141.594316"},{"town":"本町二丁目","lat":"42.630777","lng":"141.593280"},{"town":"真砂町","lat":"42.632725","lng":"141.658839"},{"town":"松風町","lat":"42.637025","lng":"141.559293"},{"town":"美園町一丁目","lat":"42.661446","lng":"141.618385"},{"town":"美園町二丁目","lat":"42.658503","lng":"141.613754"},{"town":"美園町三丁目","lat":"42.660900","lng":"141.613410"},{"town":"美園町四丁目","lat":"42.665125","lng":"141.616459"},{"town":"緑町一丁目","lat":"42.643420","lng":"141.604727"},{"town":"緑町二丁目","lat":"42.643655","lng":"141.598308"},{"town":"港町一丁目","lat":"42.633001","lng":"141.622330"},{"town":"港町二丁目","lat":"42.632176","lng":"141.617353"},{"town":"美原町一丁目","lat":"42.610837","lng":"141.506929"},{"town":"美原町二丁目","lat":"42.610570","lng":"141.499754"},{"town":"美原町三丁目","lat":"42.613198","lng":"141.504667"},{"town":"宮の森町一丁目","lat":"42.631646","lng":"141.527941"},{"town":"宮の森町二丁目","lat":"42.635987","lng":"141.525133"},{"town":"宮前町一丁目","lat":"42.606693","lng":"141.496884"},{"town":"宮前町二丁目","lat":"42.604965","lng":"141.489641"},{"town":"宮前町三丁目","lat":"42.603005","lng":"141.483657"},{"town":"宮前町四丁目","lat":"42.605495","lng":"141.481406"},{"town":"宮前町五丁目","lat":"42.606441","lng":"141.486291"},{"town":"見山町一丁目","lat":"42.640226","lng":"141.567753"},{"town":"見山町二丁目","lat":"42.637839","lng":"141.568322"},{"town":"見山町三丁目","lat":"42.637435","lng":"141.565091"},{"town":"見山町四丁目","lat":"42.636832","lng":"141.561555"},{"town":"明徳町一丁目","lat":"42.612413","lng":"141.492952"},{"town":"明徳町二丁目","lat":"42.610108","lng":"141.484675"},{"town":"明徳町三丁目","lat":"42.612755","lng":"141.482887"},{"town":"明徳町四丁目","lat":"42.614628","lng":"141.489393"},{"town":"もえぎ町一丁目","lat":"42.608138","lng":"141.479143"},{"town":"もえぎ町二丁目","lat":"42.610947","lng":"141.477673"},{"town":"元中野町一丁目","lat":"42.637184","lng":"141.621387"},{"town":"元中野町二丁目","lat":"42.635903","lng":"141.616484"},{"town":"元中野町三丁目","lat":"42.639031","lng":"141.614403"},{"town":"元中野町四丁目","lat":"42.640975","lng":"141.618143"},{"town":"元町一丁目","lat":"42.625234","lng":"141.588791"},{"town":"元町二丁目","lat":"42.624196","lng":"141.582356"},{"town":"元町三丁目","lat":"42.622882","lng":"141.574910"},{"town":"矢代町一丁目","lat":"42.626606","lng":"141.588575"},{"town":"矢代町二丁目","lat":"42.625744","lng":"141.581321"},{"town":"矢代町三丁目","lat":"42.627761","lng":"141.586894"},{"town":"柳町一丁目","lat":"42.662173","lng":"141.658446"},{"town":"柳町二丁目","lat":"42.658821","lng":"141.649442"},{"town":"柳町三丁目","lat":"42.656538","lng":"141.641750"},{"town":"柳町四丁目","lat":"42.653803","lng":"141.633569"},{"town":"山手町一丁目","lat":"42.642216","lng":"141.577566"},{"town":"山手町二丁目","lat":"42.640500","lng":"141.573131"},{"town":"弥生町一丁目","lat":"42.630123","lng":"141.584623"},{"town":"弥生町二丁目","lat":"42.628589","lng":"141.579690"},{"town":"若草町一丁目","lat":"42.639339","lng":"141.609614"},{"town":"若草町二丁目","lat":"42.638315","lng":"141.606835"},{"town":"若草町三丁目","lat":"42.637071","lng":"141.604557"},{"town":"若草町四丁目","lat":"42.640213","lng":"141.602634"},{"town":"若草町五丁目","lat":"42.641317","lng":"141.606708"},{"town":"拓勇東町五丁目","lat":"42.675939","lng":"141.679282"},{"town":"拓勇東町八丁目","lat":"42.678904","lng":"141.676608"},{"town":"北栄町五丁目","lat":"42.681534","lng":"141.680128"},{"town":"北栄町三丁目","lat":"42.677025","lng":"141.686709"},{"town":"北栄町四丁目","lat":"42.679202","lng":"141.683632"},{"town":"北栄町一丁目","lat":"42.675100","lng":"141.692086"},{"town":"ウトナイ北十二丁目","lat":"42.684570","lng":"141.682610"},{"town":"ウトナイ北五丁目","lat":"42.682270","lng":"141.686046"},{"town":"ウトナイ北四丁目","lat":"42.680592","lng":"141.690252"},{"town":"ウトナイ南五丁目","lat":"42.678291","lng":"141.694650"},{"town":"ウトナイ南四丁目","lat":"42.675414","lng":"141.696958"},{"town":"ウトナイ北十一丁目","lat":"42.687036","lng":"141.684357"},{"town":"ウトナイ北六丁目","lat":"42.684873","lng":"141.688038"},{"town":"ウトナイ北三丁目","lat":"42.682778","lng":"141.692342"},{"town":"ウトナイ南六丁目","lat":"42.680017","lng":"141.697021"},{"town":"ウトナイ南三丁目","lat":"42.677255","lng":"141.700514"},{"town":"字沼ノ端","lat":"42.670682","lng":"141.710419"},{"town":"字植苗","lat":"42.718511","lng":"141.676558"},{"town":"ウトナイ北九丁目","lat":"42.691385","lng":"141.688350"},{"town":"ウトナイ北十丁目","lat":"42.689199","lng":"141.686509"},{"town":"ウトナイ北八丁目","lat":"42.689314","lng":"141.692249"},{"town":"ウトナイ北七丁目","lat":"42.687220","lng":"141.690128"},{"town":"ウトナイ北一丁目","lat":"42.686760","lng":"141.696927"},{"town":"ウトナイ北二丁目","lat":"42.684781","lng":"141.694650"},{"town":"ウトナイ南八丁目","lat":"42.683722","lng":"141.701637"},{"town":"ウトナイ南七丁目","lat":"42.681743","lng":"141.699111"},{"town":"ウトナイ南一丁目","lat":"42.680984","lng":"141.705099"},{"town":"ウトナイ南二丁目","lat":"42.679119","lng":"141.702885"},{"town":"錦西町一丁目","lat":"42.601831","lng":"141.479164"},{"town":"錦西町二丁目","lat":"42.603943","lng":"141.475322"},{"town":"錦西町三丁目","lat":"42.600466","lng":"141.466796"},{"town":"北星町一丁目","lat":"42.605590","lng":"141.474041"},{"town":"北星町二丁目","lat":"42.602219","lng":"141.464818"}]