[{"town":"荒張","koaza":"","lat":34.967197,"lng":136.026113},{"town":"安養寺","koaza":"","lat":35.014444,"lng":136.002067},{"town":"安養寺一丁目","koaza":"","lat":35.02225,"lng":135.999011},{"town":"安養寺二丁目","koaza":"","lat":35.021223,"lng":136.000859},{"town":"安養寺三丁目","koaza":"","lat":35.020095,"lng":136.003648},{"town":"安養寺四丁目","koaza":"","lat":35.01828,"lng":136.001198},{"town":"安養寺五丁目","koaza":"","lat":35.018193,"lng":135.997723},{"town":"安養寺六丁目","koaza":"","lat":35.019921,"lng":135.996578},{"town":"安養寺七丁目","koaza":"","lat":35.021109,"lng":135.99519},{"town":"安養寺八丁目","koaza":"","lat":35.023073,"lng":135.996716},{"town":"伊勢落","koaza":"","lat":35.02558,"lng":136.032942},{"town":"井上","koaza":"","lat":34.982069,"lng":136.035318},{"town":"大橋一丁目","koaza":"","lat":35.031111,"lng":136.002702},{"town":"大橋二丁目","koaza":"","lat":35.032447,"lng":136.001138},{"town":"大橋三丁目","koaza":"","lat":35.034876,"lng":136.003477},{"town":"大橋四丁目","koaza":"","lat":35.033167,"lng":136.005161},{"town":"大橋五丁目","koaza":"","lat":35.032157,"lng":136.00841},{"town":"大橋六丁目","koaza":"","lat":35.030837,"lng":136.005461},{"town":"大橋七丁目","koaza":"","lat":35.028689,"lng":136.006408},{"town":"岡","koaza":"","lat":35.013092,"lng":135.978355},{"town":"小柿十丁目","koaza":"","lat":35.016359,"lng":135.972498},{"town":"小柿一丁目","koaza":"","lat":35.025835,"lng":135.976704},{"town":"小柿二丁目","koaza":"","lat":35.024299,"lng":135.978942},{"town":"小柿三丁目","koaza":"","lat":35.022023,"lng":135.977904},{"town":"小柿四丁目","koaza":"","lat":35.023299,"lng":135.975265},{"town":"小柿五丁目","koaza":"","lat":35.024363,"lng":135.972617},{"town":"小柿六丁目","koaza":"","lat":35.022355,"lng":135.970267},{"town":"小柿七丁目","koaza":"","lat":35.021314,"lng":135.972871},{"town":"小柿八丁目","koaza":"","lat":35.019802,"lng":135.972098},{"town":"小柿九丁目","koaza":"","lat":35.019297,"lng":135.974937},{"town":"小野","koaza":"","lat":35.018767,"lng":136.01389},{"town":"笠川","koaza":"","lat":35.033265,"lng":135.972118},{"town":"上砥山","koaza":"","lat":35.005467,"lng":136.011785},{"town":"上鈎","koaza":"","lat":35.025156,"lng":135.991656},{"town":"苅原","koaza":"","lat":35.032918,"lng":135.976628},{"town":"川辺","koaza":"","lat":35.017384,"lng":135.991124},{"town":"観音寺","koaza":"","lat":34.963945,"lng":136.050769},{"town":"北中小路","koaza":"","lat":35.043514,"lng":135.972051},{"town":"小平井一丁目","koaza":"","lat":35.036621,"lng":135.968443},{"town":"小平井二丁目","koaza":"","lat":35.034715,"lng":135.968113},{"town":"小平井三丁目","koaza":"","lat":35.037244,"lng":135.963497},{"town":"小平井四丁目","koaza":"","lat":35.038447,"lng":135.965551},{"town":"下戸山","koaza":"","lat":35.003768,"lng":135.99873},{"town":"下鈎","koaza":"","lat":35.028205,"lng":135.983623},{"town":"十里","koaza":"","lat":35.046709,"lng":135.963501},{"town":"高野","koaza":"","lat":35.032755,"lng":136.014554},{"town":"辻","koaza":"","lat":35.039233,"lng":136.016074},{"town":"出庭","koaza":"","lat":35.042712,"lng":136.006846},{"town":"手原一丁目","koaza":"","lat":35.025987,"lng":136.003351},{"town":"手原二丁目","koaza":"","lat":35.023564,"lng":136.001767},{"town":"手原三丁目","koaza":"","lat":35.026077,"lng":136.000472},{"town":"手原四丁目","koaza":"","lat":35.026136,"lng":135.998262},{"town":"手原五丁目","koaza":"","lat":35.026046,"lng":135.996147},{"town":"手原六丁目","koaza":"","lat":35.029242,"lng":135.998502},{"town":"手原七丁目","koaza":"","lat":35.028717,"lng":136.000797},{"town":"手原八丁目","koaza":"","lat":35.028301,"lng":136.003607},{"town":"中沢一丁目","koaza":"","lat":35.027528,"lng":135.975785},{"town":"中沢二丁目","koaza":"","lat":35.025838,"lng":135.970327},{"town":"中沢三丁目","koaza":"","lat":35.029131,"lng":135.973644},{"town":"野尻","koaza":"","lat":35.03538,"lng":135.988355},{"town":"蜂屋","koaza":"","lat":35.033107,"lng":135.996035},{"town":"林","koaza":"","lat":35.033737,"lng":136.023731},{"town":"東坂","koaza":"","lat":34.989276,"lng":136.038473},{"town":"綣十丁目","koaza":"","lat":35.044544,"lng":135.97672},{"town":"綣一丁目","koaza":"","lat":35.038091,"lng":135.984054},{"town":"綣二丁目","koaza":"","lat":35.036577,"lng":135.982743},{"town":"綣三丁目","koaza":"","lat":35.035228,"lng":135.980963},{"town":"綣四丁目","koaza":"","lat":35.035306,"lng":135.974091},{"town":"綣五丁目","koaza":"","lat":35.037806,"lng":135.975612},{"town":"綣六丁目","koaza":"","lat":35.03669,"lng":135.977426},{"town":"綣七丁目","koaza":"","lat":35.039289,"lng":135.98004},{"town":"綣八丁目","koaza":"","lat":35.04052,"lng":135.977574},{"town":"綣九丁目","koaza":"","lat":35.042878,"lng":135.97972},{"town":"坊袋","koaza":"","lat":35.020405,"lng":135.983398},{"town":"御園","koaza":"","lat":34.99849,"lng":136.023851},{"town":"目川","koaza":"","lat":35.015969,"lng":135.982362},{"town":"霊仙寺一丁目","koaza":"","lat":35.038681,"lng":135.973224},{"town":"霊仙寺二丁目","koaza":"","lat":35.036561,"lng":135.971395},{"town":"霊仙寺三丁目","koaza":"","lat":35.03982,"lng":135.965597},{"town":"霊仙寺四丁目","koaza":"","lat":35.042192,"lng":135.966751},{"town":"霊仙寺五丁目","koaza":"","lat":35.040867,"lng":135.969262},{"town":"霊仙寺六丁目","koaza":"","lat":35.039772,"lng":135.971298},{"town":"六地蔵","koaza":"","lat":35.017542,"lng":136.031209}]