[{"town":"大字一円","koaza":"","lat":35.240403,"lng":136.30045},{"town":"大字一ノ瀬","koaza":"","lat":35.184283,"lng":136.324464},{"town":"大字後谷","koaza":"","lat":35.258691,"lng":136.318214},{"town":"大字大岡","koaza":"","lat":35.224552,"lng":136.302186},{"town":"大字大杉","koaza":"","lat":35.189772,"lng":136.351269},{"town":"大字大君ケ畑","koaza":"","lat":35.208104,"lng":136.385868},{"town":"大字萱原","koaza":"","lat":35.159091,"lng":136.347195},{"town":"大字河内","koaza":"","lat":35.264069,"lng":136.379364},{"town":"大字川相","koaza":"","lat":35.18558,"lng":136.316247},{"town":"大字木曽","koaza":"","lat":35.239024,"lng":136.290858},{"town":"大字久徳","koaza":"","lat":35.231029,"lng":136.297982},{"town":"大字栗栖","koaza":"","lat":35.237308,"lng":136.317573},{"town":"大字甲頭倉","koaza":"","lat":35.258998,"lng":136.330636},{"town":"大字五僧","koaza":"","lat":35.232359,"lng":136.383114},{"town":"大字小原","koaza":"","lat":35.193884,"lng":136.32257},{"town":"大字佐目","koaza":"","lat":35.200201,"lng":136.355237},{"town":"大字猿木","koaza":"","lat":35.226966,"lng":136.263034},{"town":"大字四手","koaza":"","lat":35.2199,"lng":136.315561},{"town":"大字霜ケ原","koaza":"","lat":35.204966,"lng":136.32477},{"town":"大字水谷","koaza":"","lat":35.251627,"lng":136.30805},{"town":"大字杉","koaza":"","lat":35.230779,"lng":136.341673},{"town":"大字月之木","koaza":"","lat":35.230207,"lng":136.291323},{"town":"大字土田","koaza":"","lat":35.233148,"lng":136.27541},{"town":"大字富之尾","koaza":"","lat":35.199945,"lng":136.302768},{"town":"大字中川原","koaza":"","lat":35.236083,"lng":136.281951},{"town":"大字楢崎","koaza":"","lat":35.191364,"lng":136.293181},{"town":"大字樋田","koaza":"","lat":35.182427,"lng":136.33324},{"town":"大字屏風","koaza":"","lat":35.253951,"lng":136.325578},{"town":"大字敏満寺","koaza":"","lat":35.213729,"lng":136.282688},{"town":"大字藤瀬","koaza":"","lat":35.180709,"lng":136.303778},{"town":"大字保月","koaza":"","lat":35.235379,"lng":136.364329},{"town":"大字佛ケ後","koaza":"","lat":35.184778,"lng":136.329855},{"town":"大字南後谷","koaza":"","lat":35.220068,"lng":136.336243},{"town":"大字向之倉","koaza":"","lat":35.246008,"lng":136.332476},{"town":"大字桃原","koaza":"","lat":35.242917,"lng":136.325383},{"town":"大字八重練","koaza":"","lat":35.227598,"lng":136.314434},{"town":"大字霊仙","koaza":"","lat":35.273109,"lng":136.361387},{"town":"大字多賀","koaza":"","lat":35.220721,"lng":136.292299}]