[{"town":"大字七里","koaza":"","lat":35.069791,"lng":136.100593},{"town":"大字信濃","koaza":"","lat":35.086092,"lng":136.120679},{"town":"大字小口","koaza":"","lat":35.056331,"lng":136.107148},{"town":"大字山中","koaza":"","lat":35.039902,"lng":136.099119},{"town":"大字山之上","koaza":"","lat":35.040581,"lng":136.141383},{"town":"大字山面","koaza":"","lat":35.075759,"lng":136.092161},{"town":"大字岡屋","koaza":"","lat":35.045109,"lng":136.11637},{"town":"大字岩井","koaza":"","lat":35.06341,"lng":136.141779},{"town":"大字島","koaza":"","lat":35.068718,"lng":136.12226},{"town":"大字川上","koaza":"","lat":35.079396,"lng":136.12038},{"town":"大字川守","koaza":"","lat":35.070032,"lng":136.139436},{"town":"大字庄","koaza":"","lat":35.083997,"lng":136.125429},{"town":"大字弓削","koaza":"","lat":35.08676,"lng":136.110116},{"town":"大字林","koaza":"","lat":35.077409,"lng":136.129395},{"town":"大字橋本","koaza":"","lat":35.075532,"lng":136.120257},{"town":"大字田中","koaza":"","lat":35.059629,"lng":136.133874},{"town":"大字綾戸","koaza":"","lat":35.064769,"lng":136.129175},{"town":"大字薬師","koaza":"","lat":35.066269,"lng":136.111084},{"town":"大字西川","koaza":"","lat":35.086935,"lng":136.099778},{"town":"大字西横関","koaza":"","lat":35.09333,"lng":136.093369},{"town":"大字鏡","koaza":"","lat":35.083646,"lng":136.083761},{"town":"大字須惠","koaza":"","lat":35.079637,"lng":136.105772},{"town":"大字駕輿丁","koaza":"","lat":35.071375,"lng":136.126335},{"town":"大字鵜川","koaza":"","lat":35.075361,"lng":136.11023}]